$GPRMC,103353.400,A,5533.87253,N,03759.55297,E,57.21,273.60,060525,,,*16
$GPGGA,103353.400,5533.87253,N,03759.55297,E,1,15,0.60,134.90,M,,M,,*43
$GPRMC,103353.460,A,5533.87260,N,03759.55122,E,57.57,273.60,060525,,,*1C
$GPGGA,103353.460,5533.87260,N,03759.55122,E,1,15,0.60,134.90,M,,M,,*48
$GPRMC,103353.520,A,5533.87265,N,03759.54944,E,58.16,273.40,060525,,,*1D
$GPGGA,103353.520,5533.87265,N,03759.54944,E,1,15,0.60,135.00,M,,M,,*49
$GPRMC,103353.580,A,5533.87270,N,03759.54765,E,58.77,273.10,060525,,,*1C
$GPGGA,103353.580,5533.87270,N,03759.54765,E,1,15,0.60,135.00,M,,M,,*4A
$GPRMC,103353.650,A,5533.87275,N,03759.54584,E,59.36,273.00,060525,,,*1F
$GPGGA,103353.650,5533.87275,N,03759.54584,E,1,15,0.60,135.00,M,,M,,*4C
$GPRMC,103353.710,A,5533.87281,N,03759.54402,E,59.75,273.00,060525,,,*19
$GPGGA,103353.710,5533.87281,N,03759.54402,E,1,15,0.60,134.90,M,,M,,*45
$GPRMC,103353.770,A,5533.87285,N,03759.54219,E,60.14,272.70,060525,,,*1C
$GPGGA,103353.770,5533.87285,N,03759.54219,E,1,15,0.60,134.90,M,,M,,*4B
$GPRMC,103353.830,A,5533.87289,N,03759.54034,E,60.66,272.50,060525,,,*11
$GPGGA,103353.830,5533.87289,N,03759.54034,E,1,15,0.60,134.90,M,,M,,*41
$GPRMC,103353.890,A,5533.87294,N,03759.53847,E,61.30,272.50,060525,,,*1E
$GPGGA,103353.890,5533.87294,N,03759.53847,E,1,15,0.60,134.90,M,,M,,*4C
$GPRMC,103353.960,A,5533.87298,N,03759.53660,E,61.50,272.30,060525,,,*17
$GPGGA,103353.960,5533.87298,N,03759.53660,E,1,15,0.60,134.90,M,,M,,*45
$GPRMC,103354.020,A,5533.87300,N,03759.53470,E,62.12,271.80,060525,,,*13
$GPGGA,103354.020,5533.87300,N,03759.53470,E,1,15,0.60,134.90,M,,M,,*4C
$GPRMC,103354.080,A,5533.87302,N,03759.53279,E,62.66,271.50,060525,,,*1A
$GPGGA,103354.080,5533.87302,N,03759.53279,E,1,15,0.60,134.90,M,,M,,*4B
$GPRMC,103354.140,A,5533.87304,N,03759.53087,E,63.04,271.10,060525,,,*13
$GPGGA,103354.140,5533.87304,N,03759.53087,E,1,15,0.60,134.90,M,,M,,*43
$GPRMC,103354.200,A,5533.87305,N,03759.52894,E,63.39,270.90,060525,,,*19
$GPGGA,103354.200,5533.87305,N,03759.52894,E,1,15,0.60,134.90,M,,M,,*4E
$GPRMC,103354.270,A,5533.87306,N,03759.52699,E,63.94,270.90,060525,,,*19
$GPGGA,103354.270,5533.87306,N,03759.52699,E,1,15,0.60,134.90,M,,M,,*49
$GPRMC,103354.330,A,5533.87307,N,03759.52503,E,64.30,270.70,060525,,,*1A
$GPGGA,103354.330,5533.87307,N,03759.52503,E,1,15,0.60,134.90,M,,M,,*4D
$GPRMC,103354.390,A,5533.87308,N,03759.52306,E,64.76,270.60,060525,,,*1F
$GPGGA,103354.390,5533.87308,N,03759.52306,E,1,15,0.60,134.90,M,,M,,*4B
$GPRMC,103354.450,A,5533.87308,N,03759.52107,E,65.25,270.60,060525,,,*10
$GPGGA,103354.450,5533.87308,N,03759.52107,E,1,15,0.60,134.90,M,,M,,*43
$GPRMC,103354.510,A,5533.87309,N,03759.51907,E,65.72,270.60,060525,,,*1D
$GPGGA,103354.510,5533.87309,N,03759.51907,E,1,15,0.60,134.90,M,,M,,*4C
$GPRMC,103354.580,A,5533.87310,N,03759.51706,E,66.10,270.60,060525,,,*14
$GPGGA,103354.580,5533.87310,N,03759.51706,E,1,15,0.60,134.90,M,,M,,*42
$GPRMC,103354.640,A,5533.87311,N,03759.51503,E,66.58,270.60,060525,,,*11
$GPGGA,103354.640,5533.87311,N,03759.51503,E,1,15,0.60,134.80,M,,M,,*4A
$GPRMC,103354.700,A,5533.87311,N,03759.51299,E,66.88,270.60,060525,,,*1D
$GPGGA,103354.700,5533.87311,N,03759.51299,E,1,15,0.60,134.80,M,,M,,*4B
$GPRMC,103354.760,A,5533.87312,N,03759.51094,E,67.32,270.70,060525,,,*16
$GPGGA,103354.760,5533.87312,N,03759.51094,E,1,15,0.60,134.80,M,,M,,*41
$GPRMC,103354.820,A,5533.87313,N,03759.50889,E,67.67,270.70,060525,,,*19
$GPGGA,103354.820,5533.87313,N,03759.50889,E,1,15,0.60,134.80,M,,M,,*4E
$GPRMC,103354.890,A,5533.87315,N,03759.50681,E,68.14,270.80,060525,,,*16
$GPGGA,103354.890,5533.87315,N,03759.50681,E,1,15,0.60,134.80,M,,M,,*45
$GPRMC,103354.950,A,5533.87315,N,03759.50472,E,68.73,270.70,060525,,,*1B
$GPGGA,103354.950,5533.87315,N,03759.50472,E,1,15,0.60,134.80,M,,M,,*46
$GPRMC,103355.010,A,5533.87317,N,03759.50261,E,69.13,270.80,060525,,,*19
$GPGGA,103355.010,5533.87317,N,03759.50261,E,1,15,0.60,134.80,M,,M,,*4C
$GPRMC,103355.070,A,5533.87319,N,03759.50051,E,69.27,271.00,060525,,,*1E
$GPGGA,103355.070,5533.87319,N,03759.50051,E,1,15,0.60,134.80,M,,M,,*45
$GPRMC,103355.130,A,5533.87321,N,03759.49839,E,69.69,271.00,060525,,,*14
$GPGGA,103355.130,5533.87321,N,03759.49839,E,1,15,0.60,134.80,M,,M,,*45
$GPRMC,103355.200,A,5533.87322,N,03759.49626,E,70.03,271.00,060525,,,*13
$GPGGA,103355.200,5533.87322,N,03759.49626,E,1,15,0.60,134.80,M,,M,,*46
$GPRMC,103355.260,A,5533.87325,N,03759.49412,E,70.44,271.10,060525,,,*15
$GPGGA,103355.260,5533.87325,N,03759.49412,E,1,15,0.60,134.80,M,,M,,*42
$GPRMC,103355.320,A,5533.87327,N,03759.49196,E,70.86,271.20,060525,,,*16
$GPGGA,103355.320,5533.87327,N,03759.49196,E,1,15,0.60,134.80,M,,M,,*4C
$GPRMC,103355.380,A,5533.87330,N,03759.48979,E,71.29,271.20,060525,,,*16
$GPGGA,103355.380,5533.87330,N,03759.48979,E,1,15,0.60,134.80,M,,M,,*48
$GPRMC,103355.440,A,5533.87333,N,03759.48762,E,71.44,271.30,060525,,,*10
$GPGGA,103355.440,5533.87333,N,03759.48762,E,1,15,0.60,134.80,M,,M,,*44
$GPRMC,103355.510,A,5533.87335,N,03759.48544,E,71.84,271.20,060525,,,*19
$GPGGA,103355.510,5533.87335,N,03759.48544,E,1,15,0.60,134.80,M,,M,,*40
$GPRMC,103355.570,A,5533.87338,N,03759.48324,E,72.28,271.20,060525,,,*17
$GPGGA,103355.570,5533.87338,N,03759.48324,E,1,15,0.60,134.80,M,,M,,*4B
$GPRMC,103355.630,A,5533.87340,N,03759.48103,E,72.48,271.30,060525,,,*1F
$GPGGA,103355.630,5533.87340,N,03759.48103,E,1,15,0.60,134.80,M,,M,,*44
$GPRMC,103355.690,A,5533.87343,N,03759.47882,E,72.86,271.30,060525,,,*1B
$GPGGA,103355.690,5533.87343,N,03759.47882,E,1,15,0.60,134.80,M,,M,,*42
$GPRMC,103355.750,A,5533.87346,N,03759.47659,E,73.19,271.30,060525,,,*1C
$GPGGA,103355.750,5533.87346,N,03759.47659,E,1,15,0.60,134.80,M,,M,,*42
$GPRMC,103355.820,A,5533.87349,N,03759.47435,E,73.49,271.40,060525,,,*11
$GPGGA,103355.820,5533.87349,N,03759.47435,E,1,15,0.60,134.80,M,,M,,*4D
$GPRMC,103355.880,A,5533.87353,N,03759.47210,E,73.96,271.50,060525,,,*12
$GPGGA,103355.880,5533.87353,N,03759.47210,E,1,15,0.60,134.80,M,,M,,*4D
$GPRMC,103355.940,A,5533.87356,N,03759.46984,E,74.34,271.50,060525,,,*12
$GPGGA,103355.940,5533.87356,N,03759.46984,E,1,15,0.60,134.80,M,,M,,*42
$GPRMC,103356.000,A,5533.87359,N,03759.46756,E,74.75,271.50,060525,,,*17
$GPGGA,103356.000,5533.87359,N,03759.46756,E,1,15,0.60,134.80,M,,M,,*42
$GPRMC,103356.060,A,5533.87363,N,03759.46528,E,74.88,271.60,060525,,,*12
$GPGGA,103356.060,5533.87363,N,03759.46528,E,1,15,0.60,134.80,M,,M,,*46
$GPRMC,103356.130,A,5533.87366,N,03759.46299,E,75.36,271.60,060525,,,*1A
$GPGGA,103356.130,5533.87366,N,03759.46299,E,1,15,0.60,134.80,M,,M,,*4A
$GPRMC,103356.190,A,5533.87371,N,03759.46068,E,75.83,271.70,060525,,,*15
$GPGGA,103356.190,5533.87371,N,03759.46068,E,1,15,0.60,134.80,M,,M,,*4A
$GPRMC,103356.250,A,5533.87375,N,03759.45837,E,76.09,271.60,060525,,,*1F
$GPGGA,103356.250,5533.87375,N,03759.45837,E,1,15,0.60,134.80,M,,M,,*40
$GPRMC,103356.310,A,5533.87379,N,03759.45605,E,76.26,271.70,060525,,,*15
$GPGGA,103356.310,5533.87379,N,03759.45605,E,1,15,0.60,134.80,M,,M,,*46
$GPRMC,103356.370,A,5533.87383,N,03759.45373,E,76.48,271.80,060525,,,*15
$GPGGA,103356.370,5533.87383,N,03759.45373,E,1,15,0.60,134.80,M,,M,,*41
$GPRMC,103356.440,A,5533.87388,N,03759.45142,E,76.29,271.90,060525,,,*1C
$GPGGA,103356.440,5533.87388,N,03759.45142,E,1,15,0.60,134.80,M,,M,,*4E
$GPRMC,103356.500,A,5533.87391,N,03759.44911,E,76.12,271.80,060525,,,*17
$GPGGA,103356.500,5533.87391,N,03759.44911,E,1,15,0.60,134.80,M,,M,,*4C
$GPRMC,103356.560,A,5533.87396,N,03759.44681,E,76.02,271.90,060525,,,*10
$GPGGA,103356.560,5533.87396,N,03759.44681,E,1,15,0.60,134.80,M,,M,,*4B
$GPRMC,103356.620,A,5533.87400,N,03759.44450,E,76.11,271.90,060525,,,*13
$GPGGA,103356.620,5533.87400,N,03759.44450,E,1,15,0.60,134.80,M,,M,,*4A
$GPRMC,103356.680,A,5533.87405,N,03759.44220,E,75.97,272.00,060525,,,*1A
$GPGGA,103356.680,5533.87405,N,03759.44220,E,1,15,0.60,134.90,M,,M,,*45
$GPRMC,103356.750,A,5533.87409,N,03759.43989,E,76.14,272.10,060525,,,*1C
$GPGGA,103356.750,5533.87409,N,03759.43989,E,1,15,0.60,134.90,M,,M,,*4A
$GPRMC,103356.810,A,5533.87414,N,03759.43757,E,76.46,272.10,060525,,,*11
$GPGGA,103356.810,5533.87414,N,03759.43757,E,1,15,0.60,134.90,M,,M,,*40
$GPRMC,103356.870,A,5533.87419,N,03759.43523,E,76.75,272.20,060525,,,*18
$GPGGA,103356.870,5533.87419,N,03759.43523,E,1,15,0.60,134.90,M,,M,,*4A
$GPRMC,103356.930,A,5533.87424,N,03759.43290,E,76.91,272.30,060525,,,*17
$GPGGA,103356.930,5533.87424,N,03759.43290,E,1,15,0.60,134.90,M,,M,,*4E
$GPRMC,103356.990,A,5533.87430,N,03759.43056,E,77.13,272.30,060525,,,*1B
$GPGGA,103356.990,5533.87430,N,03759.43056,E,1,15,0.60,134.90,M,,M,,*49
$GPRMC,103357.060,A,5533.87436,N,03759.42821,E,77.35,272.50,060525,,,*11
$GPGGA,103357.060,5533.87436,N,03759.42821,E,1,15,0.60,135.00,M,,M,,*49
$GPRMC,103357.120,A,5533.87443,N,03759.42585,E,77.74,272.70,060525,,,*12
$GPGGA,103357.120,5533.87443,N,03759.42585,E,1,15,0.60,135.00,M,,M,,*4D
$GPRMC,103357.180,A,5533.87450,N,03759.42347,E,78.13,273.00,060525,,,*1A
$GPGGA,103357.180,5533.87450,N,03759.42347,E,1,15,0.60,135.00,M,,M,,*4D
$GPRMC,103357.240,A,5533.87458,N,03759.42109,E,78.32,273.30,060525,,,*15
$GPGGA,103357.240,5533.87458,N,03759.42109,E,1,15,0.60,135.00,M,,M,,*42
$GPRMC,103357.300,A,5533.87466,N,03759.41870,E,78.72,273.50,060525,,,*1B
$GPGGA,103357.300,5533.87466,N,03759.41870,E,1,15,0.60,135.00,M,,M,,*4E
$GPRMC,103357.370,A,5533.87476,N,03759.41629,E,79.18,273.90,060525,,,*1E
$GPGGA,103357.370,5533.87476,N,03759.41629,E,1,15,0.60,135.00,M,,M,,*4A
$GPRMC,103357.430,A,5533.87485,N,03759.41389,E,79.36,274.10,060525,,,*1D
$GPGGA,103357.430,5533.87485,N,03759.41389,E,1,15,0.60,135.00,M,,M,,*4A
$GPRMC,103357.490,A,5533.87496,N,03759.41147,E,79.71,274.30,060525,,,*14
$GPGGA,103357.490,5533.87496,N,03759.41147,E,1,15,0.60,135.00,M,,M,,*42
$GPRMC,103357.550,A,5533.87507,N,03759.40904,E,80.13,274.60,060525,,,*19
$GPGGA,103357.550,5533.87507,N,03759.40904,E,1,15,0.60,135.00,M,,M,,*48
$GPRMC,103357.610,A,5533.87518,N,03759.40660,E,80.30,274.70,060525,,,*1D
$GPGGA,103357.610,5533.87518,N,03759.40660,E,1,15,0.60,135.00,M,,M,,*4C
$GPRMC,103357.680,A,5533.87530,N,03759.40416,E,80.67,274.80,060525,,,*10
$GPGGA,103357.680,5533.87530,N,03759.40416,E,1,15,0.60,135.10,M,,M,,*4D
$GPRMC,103357.740,A,5533.87542,N,03759.40172,E,80.82,275.00,060525,,,*1D
$GPGGA,103357.740,5533.87542,N,03759.40172,E,1,15,0.60,135.10,M,,M,,*42
$GPRMC,103357.800,A,5533.87554,N,03759.39925,E,81.19,275.00,060525,,,*16
$GPGGA,103357.800,5533.87554,N,03759.39925,E,1,15,0.60,135.10,M,,M,,*4A
$GPRMC,103357.860,A,5533.87567,N,03759.39678,E,81.54,275.10,060525,,,*1F
$GPGGA,103357.860,5533.87567,N,03759.39678,E,1,15,0.60,135.10,M,,M,,*4B
$GPRMC,103357.920,A,5533.87581,N,03759.39431,E,81.77,275.30,060525,,,*1E
$GPGGA,103357.920,5533.87581,N,03759.39431,E,1,15,0.60,135.10,M,,M,,*49
$GPRMC,103357.990,A,5533.87594,N,03759.39183,E,82.01,275.40,060525,,,*18
$GPGGA,103357.990,5533.87594,N,03759.39183,E,1,15,0.60,135.20,M,,M,,*49
$GPRMC,103358.050,A,5533.87608,N,03759.38933,E,82.30,275.50,060525,,,*15
$GPGGA,103358.050,5533.87608,N,03759.38933,E,1,15,0.60,135.20,M,,M,,*47
$GPRMC,103358.110,A,5533.87622,N,03759.38683,E,82.56,275.50,060525,,,*1C
$GPGGA,103358.110,5533.87622,N,03759.38683,E,1,15,0.60,135.20,M,,M,,*4E
$GPRMC,103358.170,A,5533.87635,N,03759.38432,E,82.93,275.50,060525,,,*1D
$GPGGA,103358.170,5533.87635,N,03759.38432,E,1,15,0.60,135.20,M,,M,,*46
$GPRMC,103358.230,A,5533.87649,N,03759.38180,E,83.21,275.60,060525,,,*16
$GPGGA,103358.230,5533.87649,N,03759.38180,E,1,15,0.60,135.20,M,,M,,*46
$GPRMC,103358.300,A,5533.87663,N,03759.37928,E,83.39,275.50,060525,,,*13
$GPGGA,103358.300,5533.87663,N,03759.37928,E,1,15,0.60,135.20,M,,M,,*49
$GPRMC,103358.360,A,5533.87677,N,03759.37676,E,83.33,275.60,060525,,,*1D
$GPGGA,103358.360,5533.87677,N,03759.37676,E,1,15,0.60,135.20,M,,M,,*4E
$GPRMC,103358.420,A,5533.87691,N,03759.37429,E,82.58,275.70,060525,,,*13
$GPGGA,103358.420,5533.87691,N,03759.37429,E,1,15,0.60,135.20,M,,M,,*4D
$GPRMC,103358.480,A,5533.87703,N,03759.37183,E,82.01,275.50,060525,,,*18
$GPGGA,103358.480,5533.87703,N,03759.37183,E,1,15,0.60,135.20,M,,M,,*48
$GPRMC,103358.540,A,5533.87716,N,03759.36939,E,81.24,275.40,060525,,,*1C
$GPGGA,103358.540,5533.87716,N,03759.36939,E,1,15,0.60,135.20,M,,M,,*49
$GPRMC,103358.610,A,5533.87729,N,03759.36700,E,80.11,275.50,060525,,,*14
$GPGGA,103358.610,5533.87729,N,03759.36700,E,1,15,0.60,135.20,M,,M,,*47
$GPRMC,103358.670,A,5533.87741,N,03759.36463,E,79.15,275.50,060525,,,*18
$GPGGA,103358.670,5533.87741,N,03759.36463,E,1,15,0.60,135.20,M,,M,,*49
$GPRMC,103358.730,A,5533.87753,N,03759.36230,E,78.18,275.40,060525,,,*13
$GPGGA,103358.730,5533.87753,N,03759.36230,E,1,15,0.60,135.10,M,,M,,*4C
$GPRMC,103358.790,A,5533.87765,N,03759.35999,E,77.25,275.30,060525,,,*11
$GPGGA,103358.790,5533.87765,N,03759.35999,E,1,15,0.60,135.10,M,,M,,*48
$GPRMC,103358.850,A,5533.87777,N,03759.35771,E,76.21,275.30,060525,,,*1C
$GPGGA,103358.850,5533.87777,N,03759.35771,E,1,15,0.60,135.10,M,,M,,*40
$GPRMC,103358.920,A,5533.87788,N,03759.35547,E,75.17,275.30,060525,,,*1B
$GPGGA,103358.920,5533.87788,N,03759.35547,E,1,15,0.60,135.10,M,,M,,*41
$GPRMC,103358.980,A,5533.87799,N,03759.35325,E,74.12,275.30,060525,,,*17
$GPGGA,103358.980,5533.87799,N,03759.35325,E,1,15,0.60,135.10,M,,M,,*49
$GPRMC,103359.040,A,5533.87810,N,03759.35108,E,72.91,275.20,060525,,,*1C
$GPGGA,103359.040,5533.87810,N,03759.35108,E,1,15,0.60,135.10,M,,M,,*4E
$GPRMC,103359.100,A,5533.87821,N,03759.34894,E,71.72,275.20,060525,,,*18
$GPGGA,103359.100,5533.87821,N,03759.34894,E,1,15,0.60,135.10,M,,M,,*44
$GPRMC,103359.160,A,5533.87831,N,03759.34684,E,70.54,275.20,060525,,,*15
$GPGGA,103359.160,5533.87831,N,03759.34684,E,1,15,0.60,135.10,M,,M,,*4C
$GPRMC,103359.230,A,5533.87842,N,03759.34477,E,69.36,275.20,060525,,,*15
$GPGGA,103359.230,5533.87842,N,03759.34477,E,1,15,0.60,135.00,M,,M,,*41
$GPRMC,103359.290,A,5533.87852,N,03759.34273,E,68.27,275.20,060525,,,*1D
$GPGGA,103359.290,5533.87852,N,03759.34273,E,1,15,0.60,135.00,M,,M,,*48
$GPRMC,103359.350,A,5533.87862,N,03759.34073,E,67.08,275.20,060525,,,*13
$GPGGA,103359.350,5533.87862,N,03759.34073,E,1,15,0.60,135.00,M,,M,,*44
$GPRMC,103359.410,A,5533.87872,N,03759.33878,E,65.82,275.20,060525,,,*15
$GPGGA,103359.410,5533.87872,N,03759.33878,E,1,15,0.60,135.00,M,,M,,*42
$GPRMC,103359.470,A,5533.87882,N,03759.33685,E,64.69,275.20,060525,,,*14
$GPGGA,103359.470,5533.87882,N,03759.33685,E,1,15,0.60,135.00,M,,M,,*47
$GPRMC,103359.540,A,5533.87891,N,03759.33495,E,63.67,275.10,060525,,,*1D
$GPGGA,103359.540,5533.87891,N,03759.33495,E,1,15,0.60,134.90,M,,M,,*4C
$GPRMC,103359.600,A,5533.87900,N,03759.33308,E,62.68,275.30,060525,,,*1C
$GPGGA,103359.600,5533.87900,N,03759.33308,E,1,15,0.60,134.90,M,,M,,*41
$GPRMC,103359.660,A,5533.87910,N,03759.33120,E,62.38,275.40,060525,,,*11
$GPGGA,103359.660,5533.87910,N,03759.33120,E,1,15,0.60,134.90,M,,M,,*4E
$GPRMC,103359.720,A,5533.87921,N,03759.32933,E,62.14,275.50,060525,,,*12
$GPGGA,103359.720,5533.87921,N,03759.32933,E,1,15,0.60,134.90,M,,M,,*42
$GPRMC,103359.780,A,5533.87931,N,03759.32747,E,61.75,275.60,060525,,,*13
$GPGGA,103359.780,5533.87931,N,03759.32747,E,1,15,0.60,134.90,M,,M,,*44
$GPRMC,103359.850,A,5533.87940,N,03759.32565,E,60.89,275.50,060525,,,*14
$GPGGA,103359.850,5533.87940,N,03759.32565,E,1,15,0.60,134.90,M,,M,,*42
$GPRMC,103359.910,A,5533.87950,N,03759.32386,E,59.92,275.60,060525,,,*18
$GPGGA,103359.910,5533.87950,N,03759.32386,E,1,15,0.60,134.90,M,,M,,*4D
$GPRMC,103359.970,A,5533.87960,N,03759.32211,E,58.93,275.60,060525,,,*12
$GPGGA,103359.970,5533.87960,N,03759.32211,E,1,15,0.60,134.90,M,,M,,*47
$GPRMC,103400.030,A,5533.87970,N,03759.32038,E,57.99,275.50,060525,,,*1A
$GPGGA,103400.030,5533.87970,N,03759.32038,E,1,15,0.60,134.80,M,,M,,*48
$GPRMC,103400.090,A,5533.87979,N,03759.31868,E,56.98,275.60,060525,,,*14
$GPGGA,103400.090,5533.87979,N,03759.31868,E,1,15,0.60,134.80,M,,M,,*45
$GPRMC,103400.160,A,5533.87989,N,03759.31701,E,55.99,275.80,060525,,,*19
$GPGGA,103400.160,5533.87989,N,03759.31701,E,1,15,0.60,134.80,M,,M,,*44
$GPRMC,103400.220,A,5533.87999,N,03759.31538,E,55.00,276.00,060525,,,*1C
$GPGGA,103400.220,5533.87999,N,03759.31538,E,1,15,0.60,134.80,M,,M,,*4A
$GPRMC,103400.280,A,5533.88008,N,03759.31377,E,53.94,276.10,060525,,,*1F
$GPGGA,103400.280,5533.88008,N,03759.31377,E,1,15,0.60,134.80,M,,M,,*43
$GPRMC,103400.340,A,5533.88018,N,03759.31218,E,53.26,276.10,060525,,,*12
$GPGGA,103400.340,5533.88018,N,03759.31218,E,1,15,0.60,134.80,M,,M,,*47
$GPRMC,103400.400,A,5533.88027,N,03759.31061,E,52.55,276.10,060525,,,*14
$GPGGA,103400.400,5533.88027,N,03759.31061,E,1,15,0.60,134.70,M,,M,,*4B
$GPRMC,103400.470,A,5533.88036,N,03759.30909,E,51.48,276.30,060525,,,*18
$GPGGA,103400.470,5533.88036,N,03759.30909,E,1,15,0.60,134.70,M,,M,,*4A
$GPRMC,103400.530,A,5533.88046,N,03759.30759,E,50.36,276.60,060525,,,*1C
$GPGGA,103400.530,5533.88046,N,03759.30759,E,1,15,0.60,134.70,M,,M,,*43
$GPRMC,103400.590,A,5533.88056,N,03759.30613,E,49.36,277.00,060525,,,*17
$GPGGA,103400.590,5533.88056,N,03759.30613,E,1,15,0.60,134.70,M,,M,,*47
$GPRMC,103400.650,A,5533.88068,N,03759.30469,E,48.56,277.60,060525,,,*1B
$GPGGA,103400.650,5533.88068,N,03759.30469,E,1,15,0.60,134.70,M,,M,,*4A
$GPRMC,103400.710,A,5533.88080,N,03759.30326,E,48.07,278.30,060525,,,*1A
$GPGGA,103400.710,5533.88080,N,03759.30326,E,1,15,0.60,134.70,M,,M,,*45
$GPRMC,103400.780,A,5533.88094,N,03759.30184,E,47.70,279.10,060525,,,*10
$GPGGA,103400.780,5533.88094,N,03759.30184,E,1,15,0.60,134.70,M,,M,,*43
$GPRMC,103400.840,A,5533.88110,N,03759.30043,E,47.40,280.20,060525,,,*12
$GPGGA,103400.840,5533.88110,N,03759.30043,E,1,15,0.60,134.70,M,,M,,*47
$GPRMC,103400.900,A,5533.88127,N,03759.29904,E,47.07,281.30,060525,,,*12
$GPGGA,103400.900,5533.88127,N,03759.29904,E,1,15,0.60,134.70,M,,M,,*44
$GPRMC,103400.960,A,5533.88145,N,03759.29768,E,46.56,282.30,060525,,,*12
$GPGGA,103400.960,5533.88145,N,03759.29768,E,1,15,0.60,134.70,M,,M,,*42
$GPRMC,103401.020,A,5533.88165,N,03759.29633,E,46.18,283.50,060525,,,*1E
$GPGGA,103401.020,5533.88165,N,03759.29633,E,1,15,0.60,134.70,M,,M,,*43
$GPRMC,103401.090,A,5533.88187,N,03759.29499,E,45.93,284.70,060525,,,*1E
$GPGGA,103401.090,5533.88187,N,03759.29499,E,1,15,0.60,134.70,M,,M,,*46
$GPRMC,103401.150,A,5533.88211,N,03759.29366,E,45.80,286.20,060525,,,*1D
$GPGGA,103401.150,5533.88211,N,03759.29366,E,1,15,0.60,134.70,M,,M,,*40
$GPRMC,103401.210,A,5533.88237,N,03759.29235,E,45.65,287.80,060525,,,*19
$GPGGA,103401.210,5533.88237,N,03759.29235,E,1,15,0.60,134.70,M,,M,,*44
$GPRMC,103401.270,A,5533.88265,N,03759.29107,E,45.40,289.60,060525,,,*1D
$GPGGA,103401.270,5533.88265,N,03759.29107,E,1,15,0.60,134.70,M,,M,,*47
$GPRMC,103401.330,A,5533.88296,N,03759.28981,E,45.21,291.30,060525,,,*18
$GPGGA,103401.330,5533.88296,N,03759.28981,E,1,15,0.60,134.70,M,,M,,*49
$GPRMC,103401.400,A,5533.88328,N,03759.28858,E,44.75,293.20,060525,,,*1E
$GPGGA,103401.400,5533.88328,N,03759.28858,E,1,15,0.60,134.70,M,,M,,*4C
$GPRMC,103401.460,A,5533.88362,N,03759.28739,E,44.36,295.00,060525,,,*1D
$GPGGA,103401.460,5533.88362,N,03759.28739,E,1,15,0.60,134.70,M,,M,,*4C
$GPRMC,103401.520,A,5533.88397,N,03759.28620,E,44.18,296.60,060525,,,*12
$GPGGA,103401.520,5533.88397,N,03759.28620,E,1,15,0.60,134.70,M,,M,,*4A
$GPRMC,103401.580,A,5533.88435,N,03759.28503,E,44.20,298.10,060525,,,*17
$GPGGA,103401.580,5533.88435,N,03759.28503,E,1,15,0.60,134.60,M,,M,,*4C
$GPRMC,103401.640,A,5533.88475,N,03759.28388,E,44.17,300.10,060525,,,*1D
$GPGGA,103401.640,5533.88475,N,03759.28388,E,1,15,0.60,134.60,M,,M,,*42
$GPRMC,103401.710,A,5533.88516,N,03759.28276,E,43.97,301.60,060525,,,*14
$GPGGA,103401.710,5533.88516,N,03759.28276,E,1,15,0.60,134.60,M,,M,,*42
$GPRMC,103401.770,A,5533.88560,N,03759.28165,E,44.27,303.50,060525,,,*1F
$GPGGA,103401.770,5533.88560,N,03759.28165,E,1,15,0.60,134.60,M,,M,,*44
$GPRMC,103401.830,A,5533.88605,N,03759.28057,E,44.15,305.00,060525,,,*16
$GPGGA,103401.830,5533.88605,N,03759.28057,E,1,15,0.60,134.50,M,,M,,*4C
$GPRMC,103401.890,A,5533.88654,N,03759.27952,E,44.08,307.20,060525,,,*17
$GPGGA,103401.890,5533.88654,N,03759.27952,E,1,15,0.60,134.50,M,,M,,*41
$GPRMC,103401.950,A,5533.88703,N,03759.27848,E,44.21,308.80,060525,,,*1D
$GPGGA,103401.950,5533.88703,N,03759.27848,E,1,15,0.60,134.50,M,,M,,*45
$GPRMC,103402.020,A,5533.88755,N,03759.27747,E,44.31,310.50,060525,,,*16
$GPGGA,103402.020,5533.88755,N,03759.27747,E,1,15,0.60,134.50,M,,M,,*4B
$GPRMC,103402.080,A,5533.88808,N,03759.27651,E,44.19,312.40,060525,,,*14
$GPGGA,103402.080,5533.88808,N,03759.27651,E,1,15,0.60,134.50,M,,M,,*40
$GPRMC,103402.140,A,5533.88862,N,03759.27556,E,44.15,314.00,060525,,,*1F
$GPGGA,103402.140,5533.88862,N,03759.27556,E,1,15,0.60,134.50,M,,M,,*45
$GPRMC,103402.200,A,5533.88919,N,03759.27463,E,44.54,316.00,060525,,,*15
$GPGGA,103402.200,5533.88919,N,03759.27463,E,1,15,0.60,134.50,M,,M,,*48
$GPRMC,103402.260,A,5533.88978,N,03759.27375,E,44.54,318.10,060525,,,*1B
$GPGGA,103402.260,5533.88978,N,03759.27375,E,1,15,0.60,134.50,M,,M,,*49
$GPRMC,103402.330,A,5533.89036,N,03759.27289,E,44.27,319.20,060525,,,*19
$GPGGA,103402.330,5533.89036,N,03759.27289,E,1,15,0.60,134.50,M,,M,,*4D
$GPRMC,103402.390,A,5533.89098,N,03759.27205,E,44.61,320.80,060525,,,*11
$GPGGA,103402.390,5533.89098,N,03759.27205,E,1,15,0.60,134.60,M,,M,,*44
$GPRMC,103402.450,A,5533.89161,N,03759.27123,E,44.75,322.40,060525,,,*11
$GPGGA,103402.450,5533.89161,N,03759.27123,E,1,15,0.60,134.60,M,,M,,*4F
$GPRMC,103402.510,A,5533.89224,N,03759.27046,E,44.50,324.00,060525,,,*11
$GPGGA,103402.510,5533.89224,N,03759.27046,E,1,15,0.60,134.60,M,,M,,*4A
$GPRMC,103402.570,A,5533.89289,N,03759.26972,E,44.54,325.70,060525,,,*1D
$GPGGA,103402.570,5533.89289,N,03759.26972,E,1,15,0.60,134.50,M,,M,,*47
$GPRMC,103402.640,A,5533.89355,N,03759.26900,E,44.88,327.20,060525,,,*1E
$GPGGA,103402.640,5533.89355,N,03759.26900,E,1,15,0.60,134.50,M,,M,,*42
$GPRMC,103402.700,A,5533.89424,N,03759.26830,E,45.23,328.80,060525,,,*1D
$GPGGA,103402.700,5533.89424,N,03759.26830,E,1,15,0.60,134.50,M,,M,,*44
$GPRMC,103402.760,A,5533.89492,N,03759.26763,E,45.07,329.90,060525,,,*19
$GPGGA,103402.760,5533.89492,N,03759.26763,E,1,15,0.60,134.50,M,,M,,*46
$GPRMC,103402.820,A,5533.89564,N,03759.26700,E,45.63,331.70,060525,,,*1A
$GPGGA,103402.820,5533.89564,N,03759.26700,E,1,15,0.60,134.60,M,,M,,*43
$GPRMC,103402.880,A,5533.89637,N,03759.26641,E,45.77,333.70,060525,,,*16
$GPGGA,103402.880,5533.89637,N,03759.26641,E,1,15,0.60,134.70,M,,M,,*49
$GPRMC,103402.950,A,5533.89709,N,03759.26587,E,45.57,335.60,060525,,,*1A
$GPGGA,103402.950,5533.89709,N,03759.26587,E,1,15,0.60,134.60,M,,M,,*41
$GPRMC,103403.010,A,5533.89782,N,03759.26535,E,45.52,336.90,060525,,,*15
$GPGGA,103403.010,5533.89782,N,03759.26535,E,1,15,0.60,134.60,M,,M,,*47
$GPRMC,103403.070,A,5533.89856,N,03759.26486,E,45.56,338.30,060525,,,*1C
$GPGGA,103403.070,5533.89856,N,03759.26486,E,1,15,0.60,134.60,M,,M,,*4E
$GPRMC,103403.130,A,5533.89933,N,03759.26442,E,46.10,340.30,060525,,,*1D
$GPGGA,103403.130,5533.89933,N,03759.26442,E,1,15,0.60,134.60,M,,M,,*41
$GPRMC,103403.190,A,5533.90011,N,03759.26402,E,46.48,342.10,060525,,,*1F
$GPGGA,103403.190,5533.90011,N,03759.26402,E,1,15,0.60,134.70,M,,M,,*4F
$GPRMC,103403.260,A,5533.90089,N,03759.26363,E,46.54,343.30,060525,,,*1C
$GPGGA,103403.260,5533.90089,N,03759.26363,E,1,15,0.60,134.70,M,,M,,*42
$GPRMC,103403.320,A,5533.90167,N,03759.26326,E,46.91,344.20,060525,,,*16
$GPGGA,103403.320,5533.90167,N,03759.26326,E,1,15,0.60,134.70,M,,M,,*47
$GPRMC,103403.380,A,5533.90248,N,03759.26288,E,47.59,344.60,060525,,,*16
$GPGGA,103403.380,5533.90248,N,03759.26288,E,1,15,0.60,134.70,M,,M,,*46
$GPRMC,103403.440,A,5533.90329,N,03759.26253,E,48.10,345.40,060525,,,*1C
$GPGGA,103403.440,5533.90329,N,03759.26253,E,1,15,0.60,134.60,M,,M,,*4C
$GPRMC,103403.500,A,5533.90411,N,03759.26222,E,48.39,346.80,060525,,,*17
$GPGGA,103403.500,5533.90411,N,03759.26222,E,1,15,0.60,134.60,M,,M,,*43
$GPRMC,103403.570,A,5533.90494,N,03759.26195,E,48.69,348.50,060525,,,*14
$GPGGA,103403.570,5533.90494,N,03759.26195,E,1,15,0.60,134.60,M,,M,,*46
$GPRMC,103403.630,A,5533.90579,N,03759.26171,E,49.05,349.80,060525,,,*1C
$GPGGA,103403.630,5533.90579,N,03759.26171,E,1,15,0.60,134.60,M,,M,,*49
$GPRMC,103403.690,A,5533.90663,N,03759.26149,E,49.37,350.80,060525,,,*1C
$GPGGA,103403.690,5533.90663,N,03759.26149,E,1,15,0.60,134.60,M,,M,,*40
$GPRMC,103403.750,A,5533.90749,N,03759.26131,E,49.75,352.00,060525,,,*1B
$GPGGA,103403.750,5533.90749,N,03759.26131,E,1,15,0.60,134.60,M,,M,,*4B
$GPRMC,103403.810,A,5533.90837,N,03759.26117,E,50.32,353.60,060525,,,*1E
$GPGGA,103403.810,5533.90837,N,03759.26117,E,1,15,0.60,134.60,M,,M,,*42
$GPRMC,103403.880,A,5533.90926,N,03759.26105,E,51.13,354.70,060525,,,*11
$GPGGA,103403.880,5533.90926,N,03759.26105,E,1,15,0.60,134.60,M,,M,,*49
$GPRMC,103403.940,A,5533.91015,N,03759.26094,E,51.52,355.40,060525,,,*1A
$GPGGA,103403.940,5533.91015,N,03759.26094,E,1,15,0.60,134.60,M,,M,,*45
$GPRMC,103404.000,A,5533.91104,N,03759.26084,E,51.55,355.90,060525,,,*1A
$GPGGA,103404.000,5533.91104,N,03759.26084,E,1,15,0.60,134.50,M,,M,,*4C
$GPRMC,103404.060,A,5533.91194,N,03759.26076,E,52.02,356.60,060525,,,*15
$GPGGA,103404.060,5533.91194,N,03759.26076,E,1,15,0.60,134.50,M,,M,,*4E
$GPRMC,103404.120,A,5533.91286,N,03759.26070,E,52.73,357.20,060525,,,*15
$GPGGA,103404.120,5533.91286,N,03759.26070,E,1,15,0.60,134.50,M,,M,,*4D
$GPRMC,103404.190,A,5533.91378,N,03759.26064,E,53.29,357.50,060525,,,*12
$GPGGA,103404.190,5533.91378,N,03759.26064,E,1,15,0.60,134.50,M,,M,,*43
$GPRMC,103404.250,A,5533.91472,N,03759.26058,E,53.76,357.60,060525,,,*16
$GPGGA,103404.250,5533.91472,N,03759.26058,E,1,15,0.60,134.50,M,,M,,*4E
$GPRMC,103404.310,A,5533.91565,N,03759.26052,E,54.12,357.70,060525,,,*1A
$GPGGA,103404.310,5533.91565,N,03759.26052,E,1,15,0.60,134.50,M,,M,,*46
$GPRMC,103404.370,A,5533.91660,N,03759.26045,E,54.74,357.70,060525,,,*1C
$GPGGA,103404.370,5533.91660,N,03759.26045,E,1,15,0.60,134.50,M,,M,,*40
$GPRMC,103404.430,A,5533.91756,N,03759.26039,E,55.32,357.70,060525,,,*13
$GPGGA,103404.430,5533.91756,N,03759.26039,E,1,15,0.60,134.50,M,,M,,*4C
$GPRMC,103404.500,A,5533.91853,N,03759.26031,E,55.76,357.50,060525,,,*11
$GPGGA,103404.500,5533.91853,N,03759.26031,E,1,15,0.60,134.40,M,,M,,*4D
$GPRMC,103404.560,A,5533.91950,N,03759.26023,E,56.19,357.30,060525,,,*1A
$GPGGA,103404.560,5533.91950,N,03759.26023,E,1,15,0.60,134.40,M,,M,,*4A
$GPRMC,103404.620,A,5533.92047,N,03759.26013,E,56.39,356.90,060525,,,*1B
$GPGGA,103404.620,5533.92047,N,03759.26013,E,1,15,0.60,134.40,M,,M,,*42
$GPRMC,103404.680,A,5533.92142,N,03759.26001,E,55.95,356.20,060525,,,*18
$GPGGA,103404.680,5533.92142,N,03759.26001,E,1,15,0.60,134.40,M,,M,,*4F
$GPRMC,103404.740,A,5533.92236,N,03759.25987,E,55.42,355.60,060525,,,*1C
$GPGGA,103404.740,5533.92236,N,03759.25987,E,1,15,0.60,134.40,M,,M,,*46
$GPRMC,103404.810,A,5533.92330,N,03759.25970,E,55.03,354.70,060525,,,*1C
$GPGGA,103404.810,5533.92330,N,03759.25970,E,1,15,0.60,134.40,M,,M,,*43
$GPRMC,103404.870,A,5533.92422,N,03759.25951,E,54.61,354.00,060525,,,*1F
$GPGGA,103404.870,5533.92422,N,03759.25951,E,1,15,0.60,134.40,M,,M,,*42
$GPRMC,103404.930,A,5533.92514,N,03759.25931,E,54.18,353.30,060525,,,*12
$GPGGA,103404.930,5533.92514,N,03759.25931,E,1,15,0.60,134.30,M,,M,,*42
$GPRMC,103404.990,A,5533.92604,N,03759.25909,E,53.69,352.70,060525,,,*15
$GPGGA,103404.990,5533.92604,N,03759.25909,E,1,15,0.60,134.30,M,,M,,*41
$GPRMC,103405.050,A,5533.92694,N,03759.25884,E,53.21,351.80,060525,,,*1C
$GPGGA,103405.050,5533.92694,N,03759.25884,E,1,15,0.60,134.30,M,,M,,*48
$GPRMC,103405.120,A,5533.92783,N,03759.25858,E,52.92,351.10,060525,,,*1C
$GPGGA,103405.120,5533.92783,N,03759.25858,E,1,15,0.60,134.30,M,,M,,*48
$GPRMC,103405.180,A,5533.92872,N,03759.25830,E,52.53,350.40,060525,,,*10
$GPGGA,103405.180,5533.92872,N,03759.25830,E,1,15,0.60,134.30,M,,M,,*4D
$GPRMC,103405.240,A,5533.92959,N,03759.25800,E,52.06,349.60,060525,,,*1E
$GPGGA,103405.240,5533.92959,N,03759.25800,E,1,15,0.60,134.30,M,,M,,*49
$GPRMC,103405.300,A,5533.93045,N,03759.25768,E,51.67,348.70,060525,,,*1B
$GPGGA,103405.300,5533.93045,N,03759.25768,E,1,15,0.60,134.30,M,,M,,*48
$GPRMC,103405.360,A,5533.93130,N,03759.25733,E,51.43,347.80,060525,,,*16
$GPGGA,103405.360,5533.93130,N,03759.25733,E,1,15,0.60,134.30,M,,M,,*43
$GPRMC,103405.430,A,5533.93215,N,03759.25695,E,51.25,346.70,060525,,,*13
$GPGGA,103405.430,5533.93215,N,03759.25695,E,1,15,0.60,134.30,M,,M,,*48
$GPRMC,103405.490,A,5533.93299,N,03759.25654,E,50.81,345.30,060525,,,*18
$GPGGA,103405.490,5533.93299,N,03759.25654,E,1,15,0.60,134.30,M,,M,,*4B
$GPRMC,103405.550,A,5533.93380,N,03759.25610,E,50.31,344.20,060525,,,*17
$GPGGA,103405.550,5533.93380,N,03759.25610,E,1,15,0.60,134.30,M,,M,,*4F
$GPRMC,103405.610,A,5533.93461,N,03759.25561,E,50.22,342.70,060525,,,*1C
$GPGGA,103405.610,5533.93461,N,03759.25561,E,1,15,0.60,134.20,M,,M,,*44
$GPRMC,103405.670,A,5533.93543,N,03759.25509,E,50.36,341.20,060525,,,*16
$GPGGA,103405.670,5533.93543,N,03759.25509,E,1,15,0.60,134.20,M,,M,,*4D
$GPRMC,103405.740,A,5533.93621,N,03759.25454,E,49.86,339.90,060525,,,*1D
$GPGGA,103405.740,5533.93621,N,03759.25454,E,1,15,0.60,134.20,M,,M,,*41
$GPRMC,103405.800,A,5533.93697,N,03759.25395,E,49.26,338.10,060525,,,*12
$GPGGA,103405.800,5533.93697,N,03759.25395,E,1,15,0.60,134.20,M,,M,,*4D
$GPRMC,103405.860,A,5533.93772,N,03759.25332,E,49.09,336.40,060525,,,*15
$GPGGA,103405.860,5533.93772,N,03759.25332,E,1,15,0.60,134.30,M,,M,,*4D
$GPRMC,103405.920,A,5533.93847,N,03759.25266,E,49.00,334.90,060525,,,*1F
$GPGGA,103405.920,5533.93847,N,03759.25266,E,1,15,0.60,134.30,M,,M,,*41
$GPRMC,103405.980,A,5533.93920,N,03759.25196,E,48.88,333.20,060525,,,*14
$GPGGA,103405.980,5533.93920,N,03759.25196,E,1,15,0.60,134.30,M,,M,,*47
$GPRMC,103406.050,A,5533.93992,N,03759.25122,E,48.76,331.50,060525,,,*11
$GPGGA,103406.050,5533.93992,N,03759.25122,E,1,15,0.60,134.30,M,,M,,*46
$GPRMC,103406.110,A,5533.94062,N,03759.25046,E,48.59,329.80,060525,,,*1F
$GPGGA,103406.110,5533.94062,N,03759.25046,E,1,15,0.60,134.30,M,,M,,*41
$GPRMC,103406.170,A,5533.94131,N,03759.24966,E,48.41,328.20,060525,,,*16
$GPGGA,103406.170,5533.94131,N,03759.24966,E,1,15,0.60,134.40,M,,M,,*4D
$GPRMC,103406.230,A,5533.94199,N,03759.24882,E,48.57,326.60,060525,,,*15
$GPGGA,103406.230,5533.94199,N,03759.24882,E,1,15,0.60,134.40,M,,M,,*43
$GPRMC,103406.290,A,5533.94265,N,03759.24796,E,48.40,325.10,060525,,,*17
$GPGGA,103406.290,5533.94265,N,03759.24796,E,1,15,0.60,134.40,M,,M,,*43
$GPRMC,103406.360,A,5533.94329,N,03759.24709,E,47.96,324.00,060525,,,*12
$GPGGA,103406.360,5533.94329,N,03759.24709,E,1,15,0.60,134.30,M,,M,,*45
$GPRMC,103406.420,A,5533.94391,N,03759.24618,E,47.64,322.30,060525,,,*1B
$GPGGA,103406.420,5533.94391,N,03759.24618,E,1,15,0.60,134.30,M,,M,,*44
$GPRMC,103406.480,A,5533.94451,N,03759.24524,E,47.31,320.30,060525,,,*14
$GPGGA,103406.480,5533.94451,N,03759.24524,E,1,15,0.60,134.40,M,,M,,*4E
$GPRMC,103406.540,A,5533.94512,N,03759.24427,E,47.54,319.00,060525,,,*17
$GPGGA,103406.540,5533.94512,N,03759.24427,E,1,15,0.60,134.40,M,,M,,*47
$GPRMC,103406.600,A,5533.94571,N,03759.24330,E,47.35,318.20,060525,,,*10
$GPGGA,103406.600,5533.94571,N,03759.24330,E,1,15,0.60,134.40,M,,M,,*44
$GPRMC,103406.670,A,5533.94629,N,03759.24231,E,47.26,317.20,060525,,,*14
$GPGGA,103406.670,5533.94629,N,03759.24231,E,1,15,0.60,134.30,M,,M,,*4A
$GPRMC,103406.730,A,5533.94686,N,03759.24129,E,47.38,315.90,060525,,,*18
$GPGGA,103406.730,5533.94686,N,03759.24129,E,1,15,0.60,134.40,M,,M,,*47
$GPRMC,103406.790,A,5533.94742,N,03759.24025,E,47.31,314.40,060525,,,*13
$GPGGA,103406.790,5533.94742,N,03759.24025,E,1,15,0.60,134.40,M,,M,,*49
$GPRMC,103406.850,A,5533.94795,N,03759.23919,E,47.31,313.00,060525,,,*18
$GPGGA,103406.850,5533.94795,N,03759.23919,E,1,15,0.60,134.40,M,,M,,*41
$GPRMC,103406.910,A,5533.94849,N,03759.23809,E,47.51,311.70,060525,,,*10
$GPGGA,103406.910,5533.94849,N,03759.23809,E,1,15,0.60,134.40,M,,M,,*4A
$GPRMC,103406.980,A,5533.94899,N,03759.23697,E,47.54,309.90,060525,,,*1F
$GPGGA,103406.980,5533.94899,N,03759.23697,E,1,15,0.60,134.40,M,,M,,*47
$GPRMC,103407.040,A,5533.94948,N,03759.23580,E,47.72,307.80,060525,,,*18
$GPGGA,103407.040,5533.94948,N,03759.23580,E,1,15,0.60,134.40,M,,M,,*4B
$GPRMC,103407.100,A,5533.94996,N,03759.23462,E,47.86,306.60,060525,,,*17
$GPGGA,103407.100,5533.94996,N,03759.23462,E,1,15,0.60,134.40,M,,M,,*40
$GPRMC,103407.160,A,5533.95042,N,03759.23343,E,47.83,305.50,060525,,,*11
$GPGGA,103407.160,5533.95042,N,03759.23343,E,1,15,0.60,134.40,M,,M,,*43
$GPRMC,103407.220,A,5533.95088,N,03759.23221,E,48.16,304.30,060525,,,*11
$GPGGA,103407.220,5533.95088,N,03759.23221,E,1,15,0.60,134.40,M,,M,,*47
$GPRMC,103407.290,A,5533.95134,N,03759.23095,E,48.77,303.20,060525,,,*10
$GPGGA,103407.290,5533.95134,N,03759.23095,E,1,15,0.60,134.50,M,,M,,*46
$GPRMC,103407.350,A,5533.95178,N,03759.22967,E,49.19,302.30,060525,,,*19
$GPGGA,103407.350,5533.95178,N,03759.22967,E,1,15,0.60,134.50,M,,M,,*46
$GPRMC,103407.410,A,5533.95223,N,03759.22839,E,49.42,301.90,060525,,,*1A
$GPGGA,103407.410,5533.95223,N,03759.22839,E,1,15,0.60,134.50,M,,M,,*42
$GPRMC,103407.470,A,5533.95267,N,03759.22710,E,49.58,301.60,060525,,,*1C
$GPGGA,103407.470,5533.95267,N,03759.22710,E,1,15,0.60,134.40,M,,M,,*41
$GPRMC,103407.530,A,5533.95312,N,03759.22580,E,49.93,301.70,060525,,,*17
$GPGGA,103407.530,5533.95312,N,03759.22580,E,1,15,0.60,134.40,M,,M,,*4C
$GPRMC,103407.600,A,5533.95359,N,03759.22450,E,50.15,302.00,060525,,,*16
$GPGGA,103407.600,5533.95359,N,03759.22450,E,1,15,0.60,134.30,M,,M,,*48
$GPRMC,103407.660,A,5533.95407,N,03759.22322,E,50.30,302.80,060525,,,*11
$GPGGA,103407.660,5533.95407,N,03759.22322,E,1,15,0.60,134.30,M,,M,,*40
$GPRMC,103407.720,A,5533.95457,N,03759.22198,E,50.21,304.10,060525,,,*1D
$GPGGA,103407.720,5533.95457,N,03759.22198,E,1,15,0.60,134.30,M,,M,,*43
$GPRMC,103407.780,A,5533.95510,N,03759.22076,E,50.10,305.60,060525,,,*10
$GPGGA,103407.780,5533.95510,N,03759.22076,E,1,15,0.60,134.30,M,,M,,*4A
$GPRMC,103407.840,A,5533.95563,N,03759.21957,E,49.89,307.00,060525,,,*12
$GPGGA,103407.840,5533.95563,N,03759.21957,E,1,15,0.60,134.20,M,,M,,*45
$GPRMC,103407.910,A,5533.95619,N,03759.21840,E,49.77,308.50,060525,,,*14
$GPGGA,103407.910,5533.95619,N,03759.21840,E,1,15,0.60,134.20,M,,M,,*48
$GPRMC,103407.970,A,5533.95674,N,03759.21727,E,49.27,309.70,060525,,,*11
$GPGGA,103407.970,5533.95674,N,03759.21727,E,1,15,0.60,134.20,M,,M,,*4B
$GPRMC,103408.030,A,5533.95731,N,03759.21617,E,49.15,311.10,060525,,,*1F
$GPGGA,103408.030,5533.95731,N,03759.21617,E,1,15,0.60,134.20,M,,M,,*4B
$GPRMC,103408.090,A,5533.95790,N,03759.21509,E,49.09,312.70,060525,,,*1A
$GPGGA,103408.090,5533.95790,N,03759.21509,E,1,15,0.60,134.20,M,,M,,*46
$GPRMC,103408.150,A,5533.95850,N,03759.21405,E,48.83,314.40,060525,,,*1F
$GPGGA,103408.150,5533.95850,N,03759.21405,E,1,15,0.60,134.10,M,,M,,*46
$GPRMC,103408.220,A,5533.95910,N,03759.21305,E,48.29,315.70,060525,,,*1B
$GPGGA,103408.220,5533.95910,N,03759.21305,E,1,15,0.60,134.10,M,,M,,*40
$GPRMC,103408.280,A,5533.95973,N,03759.21208,E,48.22,317.20,060525,,,*14
$GPGGA,103408.280,5533.95973,N,03759.21208,E,1,15,0.60,134.10,M,,M,,*43
$GPRMC,103408.340,A,5533.96037,N,03759.21113,E,48.30,318.80,060525,,,*1C
$GPGGA,103408.340,5533.96037,N,03759.21113,E,1,15,0.60,134.00,M,,M,,*4C
$GPRMC,103408.400,A,5533.96105,N,03759.21020,E,48.68,320.20,060525,,,*12
$GPGGA,103408.400,5533.96105,N,03759.21020,E,1,15,0.60,134.00,M,,M,,*4E
$GPRMC,103408.460,A,5533.96172,N,03759.20932,E,48.43,321.80,060525,,,*1D
$GPGGA,103408.460,5533.96172,N,03759.20932,E,1,15,0.60,134.10,M,,M,,*42
$GPRMC,103408.530,A,5533.96240,N,03759.20847,E,48.28,323.20,060525,,,*1D
$GPGGA,103408.530,5533.96240,N,03759.20847,E,1,15,0.60,134.10,M,,M,,*47
$GPRMC,103408.590,A,5533.96310,N,03759.20764,E,48.34,324.50,060525,,,*10
$GPGGA,103408.590,5533.96310,N,03759.20764,E,1,15,0.60,134.20,M,,M,,*44
$GPRMC,103408.650,A,5533.96379,N,03759.20684,E,48.21,325.80,060525,,,*17
$GPGGA,103408.650,5533.96379,N,03759.20684,E,1,15,0.60,134.20,M,,M,,*4B
$GPRMC,103408.710,A,5533.96451,N,03759.20609,E,48.08,327.60,060525,,,*1D
$GPGGA,103408.710,5533.96451,N,03759.20609,E,1,15,0.60,134.20,M,,M,,*46
$GPRMC,103408.770,A,5533.96523,N,03759.20537,E,47.89,329.20,060525,,,*1D
$GPGGA,103408.770,5533.96523,N,03759.20537,E,1,15,0.60,134.10,M,,M,,*49
$GPRMC,103408.840,A,5533.96595,N,03759.20468,E,47.68,330.50,060525,,,*17
$GPGGA,103408.840,5533.96595,N,03759.20468,E,1,15,0.60,134.10,M,,M,,*43
$GPRMC,103408.900,A,5533.96669,N,03759.20403,E,47.55,332.00,060525,,,*16
$GPGGA,103408.900,5533.96669,N,03759.20403,E,1,15,0.60,134.10,M,,M,,*4B
$GPRMC,103408.960,A,5533.96743,N,03759.20340,E,47.64,333.40,060525,,,*1E
$GPGGA,103408.960,5533.96743,N,03759.20340,E,1,15,0.60,134.10,M,,M,,*44
$GPRMC,103409.020,A,5533.96820,N,03759.20284,E,47.66,335.70,060525,,,*16
$GPGGA,103409.020,5533.96820,N,03759.20284,E,1,15,0.60,134.10,M,,M,,*4B
$GPRMC,103409.080,A,5533.96899,N,03759.20232,E,47.75,337.50,060525,,,*11
$GPGGA,103409.080,5533.96899,N,03759.20232,E,1,15,0.60,134.20,M,,M,,*4D
$GPRMC,103409.150,A,5533.96977,N,03759.20179,E,47.93,338.30,060525,,,*11
$GPGGA,103409.150,5533.96977,N,03759.20179,E,1,15,0.60,134.20,M,,M,,*4C
$GPRMC,103409.210,A,5533.97056,N,03759.20129,E,48.17,339.40,060525,,,*1D
$GPGGA,103409.210,5533.97056,N,03759.20129,E,1,15,0.60,134.20,M,,M,,*45
$GPRMC,103409.270,A,5533.97135,N,03759.20083,E,48.26,340.70,060525,,,*11
$GPGGA,103409.270,5533.97135,N,03759.20083,E,1,15,0.60,134.20,M,,M,,*46
$GPRMC,103409.330,A,5533.97215,N,03759.20040,E,48.47,342.00,060525,,,*18
$GPGGA,103409.330,5533.97215,N,03759.20040,E,1,15,0.60,134.10,M,,M,,*4E
$GPRMC,103409.390,A,5533.97297,N,03759.20001,E,48.70,343.60,060525,,,*1E
$GPGGA,103409.390,5533.97297,N,03759.20001,E,1,15,0.60,134.20,M,,M,,*48
$GPRMC,103409.460,A,5533.97380,N,03759.19964,E,49.05,344.90,060525,,,*1A
$GPGGA,103409.460,5533.97380,N,03759.19964,E,1,15,0.60,134.30,M,,M,,*46
$GPRMC,103409.520,A,5533.97465,N,03759.19932,E,49.26,346.50,060525,,,*1F
$GPGGA,103409.520,5533.97465,N,03759.19932,E,1,15,0.60,134.40,M,,M,,*4B
$GPRMC,103409.580,A,5533.97549,N,03759.19903,E,49.58,347.80,060525,,,*1D
$GPGGA,103409.580,5533.97549,N,03759.19903,E,1,15,0.60,134.40,M,,M,,*4C
$GPRMC,103409.640,A,5533.97634,N,03759.19875,E,49.78,348.70,060525,,,*19
$GPGGA,103409.640,5533.97634,N,03759.19875,E,1,15,0.60,134.40,M,,M,,*4A
$GPRMC,103409.700,A,5533.97718,N,03759.19852,E,49.75,350.10,060525,,,*14
$GPGGA,103409.700,5533.97718,N,03759.19852,E,1,15,0.60,134.40,M,,M,,*45
$GPRMC,103409.770,A,5533.97804,N,03759.19835,E,50.00,351.80,060525,,,*12
$GPGGA,103409.770,5533.97804,N,03759.19835,E,1,15,0.60,134.40,M,,M,,*41
$GPRMC,103409.830,A,5533.97892,N,03759.19821,E,50.46,353.50,060525,,,*1E
$GPGGA,103409.830,5533.97892,N,03759.19821,E,1,15,0.60,134.40,M,,M,,*40
$GPRMC,103409.890,A,5533.97979,N,03759.19810,E,50.52,354.80,060525,,,*1D
$GPGGA,103409.890,5533.97979,N,03759.19810,E,1,15,0.60,134.40,M,,M,,*4C
$GPRMC,103409.950,A,5533.98067,N,03759.19801,E,50.70,355.80,060525,,,*18
$GPGGA,103409.950,5533.98067,N,03759.19801,E,1,15,0.60,134.40,M,,M,,*48
$GPRMC,103410.010,A,5533.98156,N,03759.19794,E,51.12,356.70,060525,,,*14
$GPGGA,103410.010,5533.98156,N,03759.19794,E,1,15,0.60,134.40,M,,M,,*4D
$GPRMC,103410.080,A,5533.98246,N,03759.19790,E,51.71,357.60,060525,,,*1E
$GPGGA,103410.080,5533.98246,N,03759.19790,E,1,15,0.60,134.40,M,,M,,*42
$GPRMC,103410.140,A,5533.98337,N,03759.19786,E,52.25,358.20,060525,,,*1A
$GPGGA,103410.140,5533.98337,N,03759.19786,E,1,15,0.60,134.40,M,,M,,*4F
$GPRMC,103410.200,A,5533.98428,N,03759.19781,E,52.52,358.20,060525,,,*13
$GPGGA,103410.200,5533.98428,N,03759.19781,E,1,15,0.60,134.50,M,,M,,*47
$GPRMC,103410.260,A,5533.98518,N,03759.19773,E,52.65,357.30,060525,,,*10
$GPGGA,103410.260,5533.98518,N,03759.19773,E,1,15,0.60,134.50,M,,M,,*4E
$GPRMC,103410.320,A,5533.98610,N,03759.19763,E,53.05,356.70,060525,,,*1D
$GPGGA,103410.320,5533.98610,N,03759.19763,E,1,15,0.60,134.50,M,,M,,*41
$GPRMC,103410.390,A,5533.98702,N,03759.19751,E,53.44,356.10,060525,,,*16
$GPGGA,103410.390,5533.98702,N,03759.19751,E,1,15,0.60,134.50,M,,M,,*49
$GPRMC,103410.450,A,5533.98793,N,03759.19736,E,53.15,355.10,060525,,,*13
$GPGGA,103410.450,5533.98793,N,03759.19736,E,1,15,0.60,134.50,M,,M,,*4B
$GPRMC,103410.510,A,5533.98883,N,03759.19717,E,52.73,353.90,060525,,,*14
$GPGGA,103410.510,5533.98883,N,03759.19717,E,1,15,0.60,134.50,M,,M,,*43
$GPRMC,103410.570,A,5533.98971,N,03759.19695,E,52.22,352.60,060525,,,*1F
$GPGGA,103410.570,5533.98971,N,03759.19695,E,1,15,0.60,134.50,M,,M,,*42
$GPRMC,103410.630,A,5533.99058,N,03759.19670,E,51.75,351.50,060525,,,*11
$GPGGA,103410.630,5533.99058,N,03759.19670,E,1,15,0.60,134.50,M,,M,,*4D
$GPRMC,103410.700,A,5533.99144,N,03759.19643,E,51.33,350.50,060525,,,*1C
$GPGGA,103410.700,5533.99144,N,03759.19643,E,1,15,0.60,134.50,M,,M,,*43
$GPRMC,103410.760,A,5533.99231,N,03759.19611,E,51.39,349.10,060525,,,*1A
$GPGGA,103410.760,5533.99231,N,03759.19611,E,1,15,0.60,134.60,M,,M,,*40
$GPRMC,103410.820,A,5533.99316,N,03759.19575,E,51.31,347.70,060525,,,*14
$GPGGA,103410.820,5533.99316,N,03759.19575,E,1,15,0.60,134.60,M,,M,,*4E
$GPRMC,103410.880,A,5533.99400,N,03759.19535,E,51.02,346.00,060525,,,*1C
$GPGGA,103410.880,5533.99400,N,03759.19535,E,1,15,0.60,134.60,M,,M,,*40
$GPRMC,103410.940,A,5533.99483,N,03759.19491,E,50.69,344.50,060525,,,*1E
$GPGGA,103410.940,5533.99483,N,03759.19491,E,1,15,0.60,134.50,M,,M,,*4A
$GPRMC,103411.010,A,5533.99566,N,03759.19443,E,51.01,342.90,060525,,,*13
$GPGGA,103411.010,5533.99566,N,03759.19443,E,1,15,0.60,134.60,M,,M,,*41
$GPRMC,103411.070,A,5533.99648,N,03759.19391,E,50.94,341.50,060525,,,*10
$GPGGA,103411.070,5533.99648,N,03759.19391,E,1,15,0.60,134.60,M,,M,,*40
$GPRMC,103411.130,A,5533.99730,N,03759.19336,E,50.88,340.30,060525,,,*1C
$GPGGA,103411.130,5533.99730,N,03759.19336,E,1,15,0.60,134.60,M,,M,,*46
$GPRMC,103411.190,A,5533.99811,N,03759.19279,E,50.93,339.10,060525,,,*16
$GPGGA,103411.190,5533.99811,N,03759.19279,E,1,15,0.60,134.70,M,,M,,*4B
$GPRMC,103411.250,A,5533.99889,N,03759.19215,E,50.66,337.00,060525,,,*17
$GPGGA,103411.250,5533.99889,N,03759.19215,E,1,15,0.60,134.70,M,,M,,*4F
$GPRMC,103411.320,A,5533.99965,N,03759.19149,E,50.22,335.20,060525,,,*18
$GPGGA,103411.320,5533.99965,N,03759.19149,E,1,15,0.60,134.70,M,,M,,*40
$GPRMC,103411.380,A,5534.00041,N,03759.19080,E,50.03,334.00,060525,,,*1E
$GPGGA,103411.380,5534.00041,N,03759.19080,E,1,15,0.60,134.70,M,,M,,*46
$GPRMC,103411.440,A,5534.00117,N,03759.19007,E,50.24,332.50,060525,,,*1E
$GPGGA,103411.440,5534.00117,N,03759.19007,E,1,15,0.60,134.80,M,,M,,*4F
$GPRMC,103411.500,A,5534.00190,N,03759.18929,E,50.03,330.40,060525,,,*16
$GPGGA,103411.500,5534.00190,N,03759.18929,E,1,15,0.60,134.80,M,,M,,*41
$GPRMC,103411.560,A,5534.00262,N,03759.18848,E,50.20,328.80,060525,,,*1C
$GPGGA,103411.560,5534.00262,N,03759.18848,E,1,15,0.60,134.80,M,,M,,*4F
$GPRMC,103411.630,A,5534.00335,N,03759.18765,E,50.30,327.80,060525,,,*17
$GPGGA,103411.630,5534.00335,N,03759.18765,E,1,15,0.60,134.90,M,,M,,*4B
$GPRMC,103411.690,A,5534.00405,N,03759.18679,E,50.18,326.40,060525,,,*12
$GPGGA,103411.690,5534.00405,N,03759.18679,E,1,15,0.60,135.00,M,,M,,*41
$GPRMC,103411.750,A,5534.00472,N,03759.18591,E,49.76,324.90,060525,,,*15
$GPGGA,103411.750,5534.00472,N,03759.18591,E,1,15,0.60,135.00,M,,M,,*49
$GPRMC,103411.810,A,5534.00538,N,03759.18498,E,49.67,323.10,060525,,,*16
$GPGGA,103411.810,5534.00538,N,03759.18498,E,1,15,0.60,135.00,M,,M,,*45
$GPRMC,103411.870,A,5534.00601,N,03759.18402,E,49.50,321.40,060525,,,*19
$GPGGA,103411.870,5534.00601,N,03759.18402,E,1,15,0.60,135.00,M,,M,,*49
$GPRMC,103411.940,A,5534.00665,N,03759.18304,E,49.43,320.20,060525,,,*1D
$GPGGA,103411.940,5534.00665,N,03759.18304,E,1,15,0.60,135.00,M,,M,,*48
$GPRMC,103412.000,A,5534.00729,N,03759.18204,E,49.62,319.40,060525,,,*14
$GPGGA,103412.000,5534.00729,N,03759.18204,E,1,15,0.60,135.00,M,,M,,*4E
$GPRMC,103412.060,A,5534.00793,N,03759.18099,E,50.46,318.10,060525,,,*1F
$GPGGA,103412.060,5534.00793,N,03759.18099,E,1,15,0.60,135.10,M,,M,,*4E
$GPRMC,103412.120,A,5534.00856,N,03759.17991,E,50.79,316.60,060525,,,*17
$GPGGA,103412.120,5534.00856,N,03759.17991,E,1,15,0.60,135.20,M,,M,,*40
$GPRMC,103412.180,A,5534.00915,N,03759.17880,E,50.83,314.90,060525,,,*12
$GPGGA,103412.180,5534.00915,N,03759.17880,E,1,15,0.60,135.20,M,,M,,*4D
$GPRMC,103412.250,A,5534.00973,N,03759.17766,E,50.78,313.30,060525,,,*12
$GPGGA,103412.250,5534.00973,N,03759.17766,E,1,15,0.60,135.30,M,,M,,*45
$GPRMC,103412.310,A,5534.01029,N,03759.17651,E,50.50,312.30,060525,,,*1E
$GPGGA,103412.310,5534.01029,N,03759.17651,E,1,15,0.60,135.20,M,,M,,*43
$GPRMC,103412.370,A,5534.01083,N,03759.17533,E,50.63,311.00,060525,,,*1F
$GPGGA,103412.370,5534.01083,N,03759.17533,E,1,15,0.60,135.20,M,,M,,*42
$GPRMC,103412.430,A,5534.01136,N,03759.17413,E,50.66,309.70,060525,,,*1B
$GPGGA,103412.430,5534.01136,N,03759.17413,E,1,15,0.60,135.20,M,,M,,*4D
$GPRMC,103412.490,A,5534.01190,N,03759.17291,E,50.92,308.80,060525,,,*14
$GPGGA,103412.490,5534.01190,N,03759.17291,E,1,15,0.60,135.20,M,,M,,*47
$GPRMC,103412.560,A,5534.01242,N,03759.17167,E,51.00,307.90,060525,,,*18
$GPGGA,103412.560,5534.01242,N,03759.17167,E,1,15,0.60,135.20,M,,M,,*4F
$GPRMC,103412.620,A,5534.01293,N,03759.17042,E,51.01,307.00,060525,,,*1D
$GPGGA,103412.620,5534.01293,N,03759.17042,E,1,15,0.60,135.20,M,,M,,*42
$GPRMC,103412.680,A,5534.01343,N,03759.16914,E,51.31,306.00,060525,,,*12
$GPGGA,103412.680,5534.01343,N,03759.16914,E,1,15,0.60,135.20,M,,M,,*4F
$GPRMC,103412.740,A,5534.01392,N,03759.16784,E,51.58,304.90,060525,,,*10
$GPGGA,103412.740,5534.01392,N,03759.16784,E,1,15,0.60,135.20,M,,M,,*49
$GPRMC,103412.800,A,5534.01438,N,03759.16650,E,51.97,303.40,060525,,,*1D
$GPGGA,103412.800,5534.01438,N,03759.16650,E,1,15,0.60,135.20,M,,M,,*4D
$GPRMC,103412.870,A,5534.01483,N,03759.16513,E,52.25,301.90,060525,,,*1B
$GPGGA,103412.870,5534.01483,N,03759.16513,E,1,15,0.60,135.20,M,,M,,*4E
$GPRMC,103412.930,A,5534.01527,N,03759.16373,E,52.61,300.80,060525,,,*11
$GPGGA,103412.930,5534.01527,N,03759.16373,E,1,15,0.60,135.20,M,,M,,*44
$GPRMC,103412.990,A,5534.01571,N,03759.16231,E,53.20,299.80,060525,,,*1A
$GPGGA,103412.990,5534.01571,N,03759.16231,E,1,15,0.60,135.20,M,,M,,*4A
$GPRMC,103413.050,A,5534.01614,N,03759.16088,E,53.40,298.90,060525,,,*18
$GPGGA,103413.050,5534.01614,N,03759.16088,E,1,15,0.60,135.20,M,,M,,*4E
$GPRMC,103413.110,A,5534.01656,N,03759.15942,E,53.70,297.90,060525,,,*1B
$GPGGA,103413.110,5534.01656,N,03759.15942,E,1,15,0.60,135.20,M,,M,,*41
$GPRMC,103413.180,A,5534.01695,N,03759.15795,E,53.82,296.80,060525,,,*14
$GPGGA,103413.180,5534.01695,N,03759.15795,E,1,15,0.60,135.20,M,,M,,*43
$GPRMC,103413.240,A,5534.01734,N,03759.15644,E,54.36,296.00,060525,,,*1C
$GPGGA,103413.240,5534.01734,N,03759.15644,E,1,15,0.60,135.10,M,,M,,*48
$GPRMC,103413.300,A,5534.01772,N,03759.15494,E,54.46,295.20,060525,,,*12
$GPGGA,103413.300,5534.01772,N,03759.15494,E,1,15,0.60,135.00,M,,M,,*41
$GPRMC,103413.360,A,5534.01808,N,03759.15343,E,54.29,294.30,060525,,,*12
$GPGGA,103413.360,5534.01808,N,03759.15343,E,1,15,0.60,135.00,M,,M,,*48
$GPRMC,103413.420,A,5534.01844,N,03759.15189,E,54.75,293.30,060525,,,*13
$GPGGA,103413.420,5534.01844,N,03759.15189,E,1,15,0.60,135.00,M,,M,,*47
$GPRMC,103413.490,A,5534.01878,N,03759.15030,E,55.32,292.00,060525,,,*14
$GPGGA,103413.490,5534.01878,N,03759.15030,E,1,15,0.60,135.00,M,,M,,*40
$GPRMC,103413.550,A,5534.01912,N,03759.14871,E,55.69,291.50,060525,,,*10
$GPGGA,103413.550,5534.01912,N,03759.14871,E,1,15,0.60,134.90,M,,M,,*44
$GPRMC,103413.610,A,5534.01945,N,03759.14712,E,55.87,290.90,060525,,,*12
$GPGGA,103413.610,5534.01945,N,03759.14712,E,1,15,0.60,134.90,M,,M,,*4B
$GPRMC,103413.670,A,5534.01978,N,03759.14550,E,56.30,290.30,060525,,,*1B
$GPGGA,103413.670,5534.01978,N,03759.14550,E,1,15,0.60,134.90,M,,M,,*47
$GPRMC,103413.730,A,5534.02010,N,03759.14386,E,56.77,289.70,060525,,,*18
$GPGGA,103413.730,5534.02010,N,03759.14386,E,1,15,0.60,134.80,M,,M,,*4A
$GPRMC,103413.800,A,5534.02042,N,03759.14221,E,57.14,289.30,060525,,,*1F
$GPGGA,103413.800,5534.02042,N,03759.14221,E,1,15,0.60,134.80,M,,M,,*4D
$GPRMC,103413.860,A,5534.02073,N,03759.14056,E,57.34,288.90,060525,,,*10
$GPGGA,103413.860,5534.02073,N,03759.14056,E,1,15,0.60,134.80,M,,M,,*4B
$GPRMC,103413.920,A,5534.02106,N,03759.13888,E,57.88,288.80,060525,,,*1C
$GPGGA,103413.920,5534.02106,N,03759.13888,E,1,15,0.60,134.80,M,,M,,*41
$GPRMC,103413.980,A,5534.02138,N,03759.13718,E,58.46,288.60,060525,,,*1E
$GPGGA,103413.980,5534.02138,N,03759.13718,E,1,15,0.60,134.80,M,,M,,*40
$GPRMC,103414.040,A,5534.02171,N,03759.13548,E,58.91,288.60,060525,,,*1C
$GPGGA,103414.040,5534.02171,N,03759.13548,E,1,15,0.60,134.80,M,,M,,*48
$GPRMC,103414.110,A,5534.02202,N,03759.13375,E,59.42,288.20,060525,,,*1C
$GPGGA,103414.110,5534.02202,N,03759.13375,E,1,15,0.60,134.80,M,,M,,*43
$GPRMC,103414.170,A,5534.02232,N,03759.13201,E,59.73,287.50,060525,,,*11
$GPGGA,103414.170,5534.02232,N,03759.13201,E,1,15,0.60,134.80,M,,M,,*44
$GPRMC,103414.230,A,5534.02263,N,03759.13023,E,60.41,287.00,060525,,,*1E
$GPGGA,103414.230,5534.02263,N,03759.13023,E,1,15,0.60,134.80,M,,M,,*45
$GPRMC,103414.290,A,5534.02293,N,03759.12845,E,60.82,286.90,060525,,,*15
$GPGGA,103414.290,5534.02293,N,03759.12845,E,1,15,0.60,134.80,M,,M,,*49
$GPRMC,103414.350,A,5534.02324,N,03759.12664,E,61.49,286.70,060525,,,*10
$GPGGA,103414.350,5534.02324,N,03759.12664,E,1,15,0.60,134.80,M,,M,,*44
$GPRMC,103414.420,A,5534.02354,N,03759.12483,E,61.79,286.50,060525,,,*1D
$GPGGA,103414.420,5534.02354,N,03759.12483,E,1,15,0.60,134.80,M,,M,,*48
$GPRMC,103414.480,A,5534.02384,N,03759.12301,E,62.22,286.40,060525,,,*1B
$GPGGA,103414.480,5534.02384,N,03759.12301,E,1,15,0.60,134.80,M,,M,,*42
$GPRMC,103414.540,A,5534.02414,N,03759.12116,E,62.76,286.10,060525,,,*18
$GPGGA,103414.540,5534.02414,N,03759.12116,E,1,15,0.60,134.70,M,,M,,*4A
$GPRMC,103414.600,A,5534.02445,N,03759.11931,E,63.22,286.10,060525,,,*15
$GPGGA,103414.600,5534.02445,N,03759.11931,E,1,15,0.60,134.70,M,,M,,*47
$GPRMC,103414.660,A,5534.02476,N,03759.11745,E,63.52,286.20,060525,,,*1A
$GPGGA,103414.660,5534.02476,N,03759.11745,E,1,15,0.60,134.70,M,,M,,*4C
$GPRMC,103414.730,A,5534.02505,N,03759.11557,E,63.94,285.80,060525,,,*19
$GPGGA,103414.730,5534.02505,N,03759.11557,E,1,15,0.60,134.70,M,,M,,*4C
$GPRMC,103414.790,A,5534.02535,N,03759.11367,E,64.42,285.50,060525,,,*14
$GPGGA,103414.790,5534.02535,N,03759.11367,E,1,15,0.60,134.70,M,,M,,*40
$GPRMC,103414.850,A,5534.02563,N,03759.11175,E,64.97,285.00,060525,,,*18
$GPGGA,103414.850,5534.02563,N,03759.11175,E,1,15,0.60,134.70,M,,M,,*41
$GPRMC,103414.910,A,5534.02590,N,03759.10982,E,65.29,284.50,060525,,,*10
$GPGGA,103414.910,5534.02590,N,03759.10982,E,1,15,0.60,134.70,M,,M,,*49
$GPRMC,103414.970,A,5534.02616,N,03759.10787,E,65.67,283.70,060525,,,*1F
$GPGGA,103414.970,5534.02616,N,03759.10787,E,1,15,0.60,134.70,M,,M,,*49
$GPRMC,103415.040,A,5534.02639,N,03759.10590,E,66.12,282.80,060525,,,*12
$GPGGA,103415.040,5534.02639,N,03759.10590,E,1,15,0.60,134.60,M,,M,,*4A
$GPRMC,103415.100,A,5534.02661,N,03759.10391,E,66.33,281.90,060525,,,*1C
$GPGGA,103415.100,5534.02661,N,03759.10391,E,1,15,0.60,134.60,M,,M,,*45
$GPRMC,103415.160,A,5534.02681,N,03759.10191,E,66.66,281.00,060525,,,*1F
$GPGGA,103415.160,5534.02681,N,03759.10191,E,1,15,0.60,134.60,M,,M,,*4F
$GPRMC,103415.220,A,5534.02698,N,03759.09991,E,66.75,279.80,060525,,,*1D
$GPGGA,103415.220,5534.02698,N,03759.09991,E,1,15,0.60,134.60,M,,M,,*40
$GPRMC,103415.280,A,5534.02714,N,03759.09793,E,66.17,278.90,060525,,,*1A
$GPGGA,103415.280,5534.02714,N,03759.09793,E,1,15,0.60,134.60,M,,M,,*43
$GPRMC,103415.350,A,5534.02727,N,03759.09596,E,65.77,277.90,060525,,,*1B
$GPGGA,103415.350,5534.02727,N,03759.09596,E,1,15,0.60,134.60,M,,M,,*48
$GPRMC,103415.410,A,5534.02738,N,03759.09399,E,65.56,276.60,060525,,,*12
$GPGGA,103415.410,5534.02738,N,03759.09399,E,1,15,0.60,134.60,M,,M,,*4C
$GPRMC,103415.470,A,5534.02746,N,03759.09203,E,65.17,275.50,060525,,,*1A
$GPGGA,103415.470,5534.02746,N,03759.09203,E,1,15,0.60,134.60,M,,M,,*41
$GPRMC,103415.530,A,5534.02753,N,03759.09009,E,64.59,274.40,060525,,,*18
$GPGGA,103415.530,5534.02753,N,03759.09009,E,1,15,0.60,134.60,M,,M,,*48
$GPRMC,103415.590,A,5534.02757,N,03759.08816,E,64.18,273.40,060525,,,*13
$GPGGA,103415.590,5534.02757,N,03759.08816,E,1,15,0.60,134.60,M,,M,,*41
$GPRMC,103415.660,A,5534.02759,N,03759.08623,E,63.74,272.10,060525,,,*10
$GPGGA,103415.660,5534.02759,N,03759.08623,E,1,15,0.60,134.60,M,,M,,*4B
$GPRMC,103415.720,A,5534.02759,N,03759.08431,E,63.41,270.90,060525,,,*18
$GPGGA,103415.720,5534.02759,N,03759.08431,E,1,15,0.60,134.60,M,,M,,*4F
$GPRMC,103415.780,A,5534.02756,N,03759.08241,E,62.99,269.60,060525,,,*1F
$GPGGA,103415.780,5534.02756,N,03759.08241,E,1,15,0.60,134.60,M,,M,,*4B
$GPRMC,103415.840,A,5534.02751,N,03759.08052,E,62.63,268.60,060525,,,*1F
$GPGGA,103415.840,5534.02751,N,03759.08052,E,1,15,0.60,134.60,M,,M,,*4F
$GPRMC,103415.900,A,5534.02745,N,03759.07865,E,62.26,267.50,060525,,,*11
$GPGGA,103415.900,5534.02745,N,03759.07865,E,1,15,0.60,134.50,M,,M,,*4F
$GPRMC,103415.970,A,5534.02736,N,03759.07680,E,61.73,266.20,060525,,,*12
$GPGGA,103415.970,5534.02736,N,03759.07680,E,1,15,0.60,134.50,M,,M,,*49
$GPRMC,103416.030,A,5534.02725,N,03759.07497,E,61.17,265.00,060525,,,*19
$GPGGA,103416.030,5534.02725,N,03759.07497,E,1,15,0.60,134.50,M,,M,,*41
$GPRMC,103416.090,A,5534.02713,N,03759.07315,E,60.90,263.80,060525,,,*1B
$GPGGA,103416.090,5534.02713,N,03759.07315,E,1,15,0.60,134.40,M,,M,,*42
$GPRMC,103416.150,A,5534.02698,N,03759.07134,E,60.55,262.50,060525,,,*10
$GPGGA,103416.150,5534.02698,N,03759.07134,E,1,15,0.60,134.40,M,,M,,*4C
$GPRMC,103416.210,A,5534.02680,N,03759.06956,E,60.16,261.00,060525,,,*12
$GPGGA,103416.210,5534.02680,N,03759.06956,E,1,15,0.60,134.40,M,,M,,*4F
$GPRMC,103416.280,A,5534.02660,N,03759.06779,E,59.94,259.80,060525,,,*15
$GPGGA,103416.280,5534.02660,N,03759.06779,E,1,15,0.60,134.40,M,,M,,*4B
$GPRMC,103416.340,A,5534.02638,N,03759.06603,E,59.71,258.50,060525,,,*1E
$GPGGA,103416.340,5534.02638,N,03759.06603,E,1,15,0.60,134.40,M,,M,,*47
$GPRMC,103416.400,A,5534.02613,N,03759.06430,E,59.34,257.00,060525,,,*1D
$GPGGA,103416.400,5534.02613,N,03759.06430,E,1,15,0.60,134.40,M,,M,,*4F
$GPRMC,103416.460,A,5534.02586,N,03759.06259,E,58.98,255.80,060525,,,*10
$GPGGA,103416.460,5534.02586,N,03759.06259,E,1,15,0.60,134.40,M,,M,,*4F
$GPRMC,103416.520,A,5534.02558,N,03759.06088,E,58.70,254.60,060525,,,*11
$GPGGA,103416.520,5534.02558,N,03759.06088,E,1,15,0.60,134.40,M,,M,,*47
$GPRMC,103416.590,A,5534.02527,N,03759.05919,E,58.57,253.60,060525,,,*12
$GPGGA,103416.590,5534.02527,N,03759.05919,E,1,15,0.60,134.30,M,,M,,*41
$GPRMC,103416.650,A,5534.02496,N,03759.05752,E,58.23,252.40,060525,,,*17
$GPGGA,103416.650,5534.02496,N,03759.05752,E,1,15,0.60,134.30,M,,M,,*44
$GPRMC,103416.710,A,5534.02463,N,03759.05588,E,58.01,251.10,060525,,,*1B
$GPGGA,103416.710,5534.02463,N,03759.05588,E,1,15,0.60,134.30,M,,M,,*4E
$GPRMC,103416.770,A,5534.02427,N,03759.05426,E,57.84,249.70,060525,,,*15
$GPGGA,103416.770,5534.02427,N,03759.05426,E,1,15,0.60,134.30,M,,M,,*4D
$GPRMC,103416.830,A,5534.02389,N,03759.05264,E,57.81,248.30,060525,,,*1D
$GPGGA,103416.830,5534.02389,N,03759.05264,E,1,15,0.60,134.30,M,,M,,*45
$GPRMC,103416.900,A,5534.02349,N,03759.05105,E,57.70,246.90,060525,,,*1D
$GPGGA,103416.900,5534.02349,N,03759.05105,E,1,15,0.60,134.40,M,,M,,*48
$GPRMC,103416.960,A,5534.02307,N,03759.04948,E,57.41,245.80,060525,,,*11
$GPGGA,103416.960,5534.02307,N,03759.04948,E,1,15,0.60,134.30,M,,M,,*43
$GPRMC,103417.020,A,5534.02264,N,03759.04794,E,56.98,244.60,060525,,,*1C
$GPGGA,103417.020,5534.02264,N,03759.04794,E,1,15,0.60,134.30,M,,M,,*44
$GPRMC,103417.080,A,5534.02219,N,03759.04641,E,56.65,243.40,060525,,,*12
$GPGGA,103417.080,5534.02219,N,03759.04641,E,1,15,0.60,134.30,M,,M,,*4D
$GPRMC,103417.140,A,5534.02172,N,03759.04491,E,56.46,242.20,060525,,,*18
$GPGGA,103417.140,5534.02172,N,03759.04491,E,1,15,0.60,134.30,M,,M,,*41
$GPRMC,103417.210,A,5534.02123,N,03759.04344,E,56.29,241.00,060525,,,*1D
$GPGGA,103417.210,5534.02123,N,03759.04344,E,1,15,0.60,134.20,M,,M,,*4D
$GPRMC,103417.270,A,5534.02072,N,03759.04198,E,56.39,239.60,060525,,,*15
$GPGGA,103417.270,5534.02072,N,03759.04198,E,1,15,0.60,134.20,M,,M,,*4D
$GPRMC,103417.330,A,5534.02019,N,03759.04054,E,56.45,238.40,060525,,,*14
$GPGGA,103417.330,5534.02019,N,03759.04054,E,1,15,0.60,134.20,M,,M,,*44
$GPRMC,103417.390,A,5534.01964,N,03759.03911,E,56.65,237.00,060525,,,*18
$GPGGA,103417.390,5534.01964,N,03759.03911,E,1,15,0.60,134.20,M,,M,,*41
$GPRMC,103417.450,A,5534.01908,N,03759.03772,E,56.44,235.80,060525,,,*1B
$GPGGA,103417.450,5534.01908,N,03759.03772,E,1,15,0.60,134.20,M,,M,,*4B
$GPRMC,103417.520,A,5534.01850,N,03759.03634,E,56.43,234.50,060525,,,*19
$GPGGA,103417.520,5534.01850,N,03759.03634,E,1,15,0.60,134.20,M,,M,,*42
$GPRMC,103417.580,A,5534.01790,N,03759.03497,E,56.52,233.30,060525,,,*1A
$GPGGA,103417.580,5534.01790,N,03759.03497,E,1,15,0.60,134.20,M,,M,,*40
$GPRMC,103417.640,A,5534.01727,N,03759.03363,E,56.63,231.80,060525,,,*1E
$GPGGA,103417.640,5534.01727,N,03759.03363,E,1,15,0.60,134.20,M,,M,,*4F
$GPRMC,103417.700,A,5534.01663,N,03759.03232,E,56.68,230.50,060525,,,*18
$GPGGA,103417.700,5534.01663,N,03759.03232,E,1,15,0.60,134.10,M,,M,,*4D
$GPRMC,103417.760,A,5534.01598,N,03759.03102,E,56.73,229.20,060525,,,*1C
$GPGGA,103417.760,5534.01598,N,03759.03102,E,1,15,0.60,134.00,M,,M,,*4D
$GPRMC,103417.830,A,5534.01531,N,03759.02973,E,57.11,228.10,060525,,,*1D
$GPGGA,103417.830,5534.01531,N,03759.02973,E,1,15,0.60,134.00,M,,M,,*4B
$GPRMC,103417.890,A,5534.01461,N,03759.02848,E,57.33,226.60,060525,,,*13
$GPGGA,103417.890,5534.01461,N,03759.02848,E,1,15,0.60,133.80,M,,M,,*43
$GPRMC,103417.950,A,5534.01389,N,03759.02724,E,57.66,225.40,060525,,,*1B
$GPGGA,103417.950,5534.01389,N,03759.02724,E,1,15,0.60,133.80,M,,M,,*4A
$GPRMC,103418.010,A,5534.01316,N,03759.02603,E,57.68,224.30,060525,,,*13
$GPGGA,103418.010,5534.01316,N,03759.02603,E,1,15,0.60,133.70,M,,M,,*45
$GPRMC,103418.070,A,5534.01242,N,03759.02485,E,57.62,223.10,060525,,,*16
$GPGGA,103418.070,5534.01242,N,03759.02485,E,1,15,0.60,133.70,M,,M,,*4F
$GPRMC,103418.140,A,5534.01167,N,03759.02370,E,57.25,221.90,060525,,,*14
$GPGGA,103418.140,5534.01167,N,03759.02370,E,1,15,0.60,133.60,M,,M,,*45
$GPRMC,103418.200,A,5534.01092,N,03759.02259,E,56.84,220.90,060525,,,*19
$GPGGA,103418.200,5534.01092,N,03759.02259,E,1,15,0.60,133.50,M,,M,,*40
$GPRMC,103418.260,A,5534.01016,N,03759.02151,E,56.35,219.80,060525,,,*19
$GPGGA,103418.260,5534.01016,N,03759.02151,E,1,15,0.60,133.50,M,,M,,*41
$GPRMC,103418.320,A,5534.00941,N,03759.02048,E,55.67,218.60,060525,,,*14
$GPGGA,103418.320,5534.00941,N,03759.02048,E,1,15,0.60,133.40,M,,M,,*46
$GPRMC,103418.380,A,5534.00865,N,03759.01948,E,55.04,217.70,060525,,,*18
$GPGGA,103418.380,5534.00865,N,03759.01948,E,1,15,0.60,133.40,M,,M,,*41
$GPRMC,103418.450,A,5534.00790,N,03759.01852,E,54.14,216.70,060525,,,*1C
$GPGGA,103418.450,5534.00790,N,03759.01852,E,1,15,0.60,133.40,M,,M,,*44
$GPRMC,103418.510,A,5534.00716,N,03759.01759,E,53.48,215.90,060525,,,*10
$GPGGA,103418.510,5534.00716,N,03759.01759,E,1,15,0.60,133.30,M,,M,,*4C
$GPRMC,103418.570,A,5534.00641,N,03759.01668,E,52.89,215.10,060525,,,*12
$GPGGA,103418.570,5534.00641,N,03759.01668,E,1,15,0.60,133.30,M,,M,,*4A
$GPRMC,103418.630,A,5534.00567,N,03759.01581,E,52.10,214.20,060525,,,*14
$GPGGA,103418.630,5534.00567,N,03759.01581,E,1,15,0.60,133.30,M,,M,,*4E
$GPRMC,103418.690,A,5534.00494,N,03759.01497,E,51.23,213.50,060525,,,*16
$GPGGA,103418.690,5534.00494,N,03759.01497,E,1,15,0.60,133.30,M,,M,,*4F
$GPRMC,103418.760,A,5534.00422,N,03759.01415,E,50.43,213.00,060525,,,*1D
$GPGGA,103418.760,5534.00422,N,03759.01415,E,1,15,0.60,133.30,M,,M,,*46
$GPRMC,103418.820,A,5534.00351,N,03759.01338,E,49.45,212.10,060525,,,*13
$GPGGA,103418.820,5534.00351,N,03759.01338,E,1,15,0.60,133.30,M,,M,,*46
$GPRMC,103418.880,A,5534.00280,N,03759.01264,E,48.66,211.20,060525,,,*1C
$GPGGA,103418.880,5534.00280,N,03759.01264,E,1,15,0.60,133.30,M,,M,,*49
$GPRMC,103418.940,A,5534.00209,N,03759.01192,E,47.94,210.40,060525,,,*1F
$GPGGA,103418.940,5534.00209,N,03759.01192,E,1,15,0.60,133.30,M,,M,,*4F
$GPRMC,103419.000,A,5534.00139,N,03759.01123,E,47.21,209.50,060525,,,*1E
