$GPRMC,103358.720,A,5533.81573,N,03759.19208,E,53.62,275.80,300325,,,*19
$GPGGA,103358.720,5533.81573,N,03759.19208,E,1,15,0.60,132.80,M,,M,,*43
$GPRMC,103358.780,A,5533.81588,N,03759.19041,E,54.14,277.00,300325,,,*14
$GPGGA,103358.780,5533.81588,N,03759.19041,E,1,15,0.60,132.80,M,,M,,*42
$GPRMC,103358.840,A,5533.81605,N,03759.18877,E,54.30,278.00,300325,,,*14
$GPGGA,103358.840,5533.81605,N,03759.18877,E,1,15,0.60,132.80,M,,M,,*4B
$GPRMC,103358.900,A,5533.81623,N,03759.18712,E,54.59,279.00,300325,,,*17
$GPGGA,103358.900,5533.81623,N,03759.18712,E,1,15,0.60,132.70,M,,M,,*49
$GPRMC,103358.960,A,5533.81642,N,03759.18546,E,54.86,279.70,300325,,,*10
$GPGGA,103358.960,5533.81642,N,03759.18546,E,1,15,0.60,132.70,M,,M,,*4B
$GPRMC,103359.030,A,5533.81662,N,03759.18381,E,55.00,280.60,300325,,,*1A
$GPGGA,103359.030,5533.81662,N,03759.18381,E,1,15,0.60,132.70,M,,M,,*49
$GPRMC,103359.090,A,5533.81685,N,03759.18216,E,55.26,281.70,300325,,,*12
$GPGGA,103359.090,5533.81685,N,03759.18216,E,1,15,0.60,132.60,M,,M,,*44
$GPRMC,103359.150,A,5533.81708,N,03759.18050,E,55.54,282.50,300325,,,*1F
$GPGGA,103359.150,5533.81708,N,03759.18050,E,1,15,0.60,132.60,M,,M,,*4D
$GPRMC,103359.210,A,5533.81733,N,03759.17885,E,55.75,283.30,300325,,,*1B
$GPGGA,103359.210,5533.81733,N,03759.17885,E,1,15,0.60,132.50,M,,M,,*4E
$GPRMC,103359.270,A,5533.81759,N,03759.17720,E,55.94,284.10,300325,,,*1B
$GPGGA,103359.270,5533.81759,N,03759.17720,E,1,15,0.60,132.50,M,,M,,*44
$GPRMC,103359.340,A,5533.81786,N,03759.17554,E,56.12,285.00,300325,,,*17
$GPGGA,103359.340,5533.81786,N,03759.17554,E,1,15,0.60,132.40,M,,M,,*44
$GPRMC,103359.400,A,5533.81816,N,03759.17391,E,56.19,286.10,300325,,,*14
$GPGGA,103359.400,5533.81816,N,03759.17391,E,1,15,0.60,132.50,M,,M,,*4F
$GPRMC,103359.460,A,5533.81847,N,03759.17228,E,56.28,287.20,300325,,,*15
$GPGGA,103359.460,5533.81847,N,03759.17228,E,1,15,0.60,132.50,M,,M,,*4E
$GPRMC,103359.520,A,5533.81879,N,03759.17066,E,56.18,287.90,300325,,,*1D
$GPGGA,103359.520,5533.81879,N,03759.17066,E,1,15,0.60,132.50,M,,M,,*4E
$GPRMC,103359.580,A,5533.81910,N,03759.16905,E,56.09,288.50,300325,,,*17
$GPGGA,103359.580,5533.81910,N,03759.16905,E,1,15,0.60,132.50,M,,M,,*47
$GPRMC,103359.650,A,5533.81945,N,03759.16744,E,56.28,289.30,300325,,,*16
$GPGGA,103359.650,5533.81945,N,03759.16744,E,1,15,0.60,132.40,M,,M,,*43
$GPRMC,103359.710,A,5533.81981,N,03759.16581,E,56.68,290.30,300325,,,*1C
$GPGGA,103359.710,5533.81981,N,03759.16581,E,1,15,0.60,132.40,M,,M,,*45
$GPRMC,103359.770,A,5533.82019,N,03759.16419,E,56.98,291.30,300325,,,*1F
$GPGGA,103359.770,5533.82019,N,03759.16419,E,1,15,0.60,132.40,M,,M,,*48
$GPRMC,103359.830,A,5533.82058,N,03759.16260,E,57.01,292.20,300325,,,*1A
$GPGGA,103359.830,5533.82058,N,03759.16260,E,1,15,0.60,132.40,M,,M,,*4E
$GPRMC,103359.890,A,5533.82098,N,03759.16101,E,57.11,293.20,300325,,,*18
$GPGGA,103359.890,5533.82098,N,03759.16101,E,1,15,0.60,132.40,M,,M,,*4C
$GPRMC,103359.960,A,5533.82140,N,03759.15941,E,57.49,294.20,300325,,,*17
$GPGGA,103359.960,5533.82140,N,03759.15941,E,1,15,0.60,132.40,M,,M,,*49
$GPRMC,103400.020,A,5533.82185,N,03759.15782,E,57.74,295.50,300325,,,*11
$GPGGA,103400.020,5533.82185,N,03759.15782,E,1,15,0.60,132.30,M,,M,,*40
$GPRMC,103400.080,A,5533.82232,N,03759.15626,E,57.73,296.60,300325,,,*1C
$GPGGA,103400.080,5533.82232,N,03759.15626,E,1,15,0.60,132.30,M,,M,,*4A
$GPRMC,103400.140,A,5533.82280,N,03759.15471,E,57.81,297.70,300325,,,*15
$GPGGA,103400.140,5533.82280,N,03759.15471,E,1,15,0.60,132.20,M,,M,,*4F
$GPRMC,103400.200,A,5533.82331,N,03759.15316,E,58.23,299.00,300325,,,*11
$GPGGA,103400.200,5533.82331,N,03759.15316,E,1,15,0.60,132.10,M,,M,,*46
$GPRMC,103400.270,A,5533.82383,N,03759.15162,E,58.56,300.00,300325,,,*1D
$GPGGA,103400.270,5533.82383,N,03759.15162,E,1,15,0.60,132.10,M,,M,,*49
$GPRMC,103400.330,A,5533.82437,N,03759.15010,E,58.63,301.10,300325,,,*12
$GPGGA,103400.330,5533.82437,N,03759.15010,E,1,15,0.60,132.10,M,,M,,*40
$GPRMC,103400.390,A,5533.82493,N,03759.14860,E,58.82,302.30,300325,,,*16
$GPGGA,103400.390,5533.82493,N,03759.14860,E,1,15,0.60,132.10,M,,M,,*4A
$GPRMC,103400.450,A,5533.82551,N,03759.14712,E,58.97,303.40,300325,,,*1A
$GPGGA,103400.450,5533.82551,N,03759.14712,E,1,15,0.60,132.00,M,,M,,*45
$GPRMC,103400.510,A,5533.82611,N,03759.14566,E,58.96,304.60,300325,,,*1D
$GPGGA,103400.510,5533.82611,N,03759.14566,E,1,15,0.60,132.00,M,,M,,*46
$GPRMC,103400.580,A,5533.82672,N,03759.14422,E,59.00,305.60,300325,,,*1F
$GPGGA,103400.580,5533.82672,N,03759.14422,E,1,15,0.60,131.90,M,,M,,*41
$GPRMC,103400.640,A,5533.82735,N,03759.14280,E,59.06,307.00,300325,,,*1E
$GPGGA,103400.640,5533.82735,N,03759.14280,E,1,15,0.60,131.80,M,,M,,*43
$GPRMC,103400.700,A,5533.82801,N,03759.14138,E,59.44,308.00,300325,,,*1A
$GPGGA,103400.700,5533.82801,N,03759.14138,E,1,15,0.60,131.80,M,,M,,*4E
$GPRMC,103400.760,A,5533.82867,N,03759.13998,E,59.64,309.00,300325,,,*1A
$GPGGA,103400.760,5533.82867,N,03759.13998,E,1,15,0.60,131.80,M,,M,,*4D
$GPRMC,103400.820,A,5533.82936,N,03759.13861,E,59.78,310.10,300325,,,*17
$GPGGA,103400.820,5533.82936,N,03759.13861,E,1,15,0.60,131.80,M,,M,,*44
$GPRMC,103400.890,A,5533.83007,N,03759.13726,E,59.98,311.40,300325,,,*10
$GPGGA,103400.890,5533.83007,N,03759.13726,E,1,15,0.60,131.80,M,,M,,*49
$GPRMC,103400.950,A,5533.83080,N,03759.13592,E,60.36,312.70,300325,,,*11
$GPGGA,103400.950,5533.83080,N,03759.13592,E,1,15,0.60,131.90,M,,M,,*47
$GPRMC,103401.010,A,5533.83155,N,03759.13462,E,60.41,313.80,300325,,,*14
$GPGGA,103401.010,5533.83155,N,03759.13462,E,1,15,0.60,131.80,M,,M,,*4D
$GPRMC,103401.070,A,5533.83232,N,03759.13334,E,60.64,315.20,300325,,,*1F
$GPGGA,103401.070,5533.83232,N,03759.13334,E,1,15,0.60,131.80,M,,M,,*4D
$GPRMC,103401.130,A,5533.83310,N,03759.13209,E,60.80,316.30,300325,,,*1C
$GPGGA,103401.130,5533.83310,N,03759.13209,E,1,15,0.60,131.80,M,,M,,*46
$GPRMC,103401.200,A,5533.83388,N,03759.13085,E,60.87,317.20,300325,,,*1C
$GPGGA,103401.200,5533.83388,N,03759.13085,E,1,15,0.60,131.80,M,,M,,*41
$GPRMC,103401.260,A,5533.83470,N,03759.12965,E,61.05,318.50,300325,,,*1F
$GPGGA,103401.260,5533.83470,N,03759.12965,E,1,15,0.60,131.80,M,,M,,*41
$GPRMC,103401.320,A,5533.83552,N,03759.12846,E,61.31,319.70,300325,,,*1F
$GPGGA,103401.320,5533.83552,N,03759.12846,E,1,15,0.60,131.80,M,,M,,*45
$GPRMC,103401.380,A,5533.83637,N,03759.12730,E,61.45,320.80,300325,,,*1D
$GPGGA,103401.380,5533.83637,N,03759.12730,E,1,15,0.60,131.80,M,,M,,*41
$GPRMC,103401.440,A,5533.83721,N,03759.12617,E,61.53,321.80,300325,,,*12
$GPGGA,103401.440,5533.83721,N,03759.12617,E,1,15,0.60,131.80,M,,M,,*48
$GPRMC,103401.510,A,5533.83808,N,03759.12508,E,61.57,323.00,300325,,,*11
$GPGGA,103401.510,5533.83808,N,03759.12508,E,1,15,0.60,131.80,M,,M,,*45
$GPRMC,103401.570,A,5533.83897,N,03759.12399,E,61.89,324.10,300325,,,*1A
$GPGGA,103401.570,5533.83897,N,03759.12399,E,1,15,0.60,131.80,M,,M,,*4B
$GPRMC,103401.630,A,5533.83986,N,03759.12294,E,62.04,325.10,300325,,,*17
$GPGGA,103401.630,5533.83986,N,03759.12294,E,1,15,0.60,131.80,M,,M,,*41
$GPRMC,103401.690,A,5533.84077,N,03759.12191,E,62.23,326.20,300325,,,*1E
$GPGGA,103401.690,5533.84077,N,03759.12191,E,1,15,0.60,131.80,M,,M,,*4D
$GPRMC,103401.750,A,5533.84168,N,03759.12088,E,62.33,326.70,300325,,,*11
$GPGGA,103401.750,5533.84168,N,03759.12088,E,1,15,0.60,131.80,M,,M,,*46
$GPRMC,103401.820,A,5533.84260,N,03759.11986,E,62.66,327.30,300325,,,*13
$GPGGA,103401.820,5533.84260,N,03759.11986,E,1,15,0.60,131.80,M,,M,,*41
$GPRMC,103401.880,A,5533.84352,N,03759.11888,E,62.56,328.00,300325,,,*19
$GPGGA,103401.880,5533.84352,N,03759.11888,E,1,15,0.60,131.80,M,,M,,*44
$GPRMC,103401.940,A,5533.84447,N,03759.11792,E,62.79,328.80,300325,,,*16
$GPGGA,103401.940,5533.84447,N,03759.11792,E,1,15,0.60,131.90,M,,M,,*4F
$GPRMC,103402.000,A,5533.84544,N,03759.11700,E,63.09,330.00,300325,,,*16
$GPGGA,103402.000,5533.84544,N,03759.11700,E,1,15,0.60,131.90,M,,M,,*48
$GPRMC,103402.060,A,5533.84641,N,03759.11612,E,63.22,331.10,300325,,,*1D
$GPGGA,103402.060,5533.84641,N,03759.11612,E,1,15,0.60,131.90,M,,M,,*4A
$GPRMC,103402.130,A,5533.84741,N,03759.11529,E,63.40,332.60,300325,,,*13
$GPGGA,103402.130,5533.84741,N,03759.11529,E,1,15,0.60,131.90,M,,M,,*44
$GPRMC,103402.190,A,5533.84841,N,03759.11448,E,63.64,333.80,300325,,,*19
$GPGGA,103402.190,5533.84841,N,03759.11448,E,1,15,0.60,131.90,M,,M,,*47
$GPRMC,103402.250,A,5533.84942,N,03759.11370,E,63.79,334.90,300325,,,*12
$GPGGA,103402.250,5533.84942,N,03759.11370,E,1,15,0.60,131.90,M,,M,,*46
$GPRMC,103402.310,A,5533.85044,N,03759.11295,E,64.00,335.90,300325,,,*1B
$GPGGA,103402.310,5533.85044,N,03759.11295,E,1,15,0.60,131.90,M,,M,,*47
$GPRMC,103402.370,A,5533.85147,N,03759.11221,E,64.09,336.80,300325,,,*1B
$GPGGA,103402.370,5533.85147,N,03759.11221,E,1,15,0.60,131.90,M,,M,,*4C
$GPRMC,103402.440,A,5533.85251,N,03759.11151,E,64.29,337.70,300325,,,*13
$GPGGA,103402.440,5533.85251,N,03759.11151,E,1,15,0.60,131.90,M,,M,,*48
$GPRMC,103402.500,A,5533.85355,N,03759.11082,E,64.49,338.50,300325,,,*17
$GPGGA,103402.500,5533.85355,N,03759.11082,E,1,15,0.70,131.90,M,,M,,*46
$GPRMC,103402.560,A,5533.85460,N,03759.11015,E,64.69,339.20,300325,,,*1A
$GPGGA,103402.560,5533.85460,N,03759.11015,E,1,15,0.70,131.90,M,,M,,*4F
$GPRMC,103402.620,A,5533.85567,N,03759.10952,E,64.86,340.10,300325,,,*1C
$GPGGA,103402.620,5533.85567,N,03759.10952,E,1,15,0.70,131.80,M,,M,,*44
$GPRMC,103402.680,A,5533.85674,N,03759.10894,E,65.10,341.20,300325,,,*10
$GPGGA,103402.680,5533.85674,N,03759.10894,E,1,14,0.80,131.80,M,,M,,*4A
$GPRMC,103402.750,A,5533.85782,N,03759.10838,E,65.29,342.20,300325,,,*1B
$GPGGA,103402.750,5533.85782,N,03759.10838,E,1,14,0.80,131.80,M,,M,,*48
$GPRMC,103402.810,A,5533.85891,N,03759.10785,E,65.31,343.20,300325,,,*1C
$GPGGA,103402.810,5533.85891,N,03759.10785,E,1,14,0.80,131.80,M,,M,,*47
$GPRMC,103402.870,A,5533.86000,N,03759.10735,E,65.43,344.10,300325,,,*13
$GPGGA,103402.870,5533.86000,N,03759.10735,E,1,14,0.80,131.80,M,,M,,*49
$GPRMC,103402.930,A,5533.86110,N,03759.10688,E,65.53,345.10,300325,,,*11
$GPGGA,103402.930,5533.86110,N,03759.10688,E,1,15,0.80,131.70,M,,M,,*45
$GPRMC,103402.990,A,5533.86221,N,03759.10643,E,65.74,345.90,300325,,,*10
$GPGGA,103402.990,5533.86221,N,03759.10643,E,1,15,0.80,131.60,M,,M,,*48
$GPRMC,103403.060,A,5533.86332,N,03759.10601,E,65.99,346.80,300325,,,*13
$GPGGA,103403.060,5533.86332,N,03759.10601,E,1,15,0.80,131.60,M,,M,,*4A
$GPRMC,103403.120,A,5533.86444,N,03759.10560,E,66.02,347.50,300325,,,*19
$GPGGA,103403.120,5533.86444,N,03759.10560,E,1,15,0.80,131.50,M,,M,,*4E
$GPRMC,103403.180,A,5533.86556,N,03759.10522,E,66.13,348.20,300325,,,*1F
$GPGGA,103403.180,5533.86556,N,03759.10522,E,1,15,0.80,131.50,M,,M,,*40
$GPRMC,103403.240,A,5533.86669,N,03759.10486,E,66.43,348.90,300325,,,*1E
$GPGGA,103403.240,5533.86669,N,03759.10486,E,1,15,0.80,131.40,M,,M,,*4E
$GPRMC,103403.300,A,5533.86783,N,03759.10452,E,66.74,349.50,300325,,,*1E
$GPGGA,103403.300,5533.86783,N,03759.10452,E,1,15,0.80,131.40,M,,M,,*47
$GPRMC,103403.370,A,5533.86897,N,03759.10421,E,66.93,350.20,300325,,,*11
$GPGGA,103403.370,5533.86897,N,03759.10421,E,1,14,0.80,131.40,M,,M,,*4F
$GPRMC,103403.430,A,5533.87012,N,03759.10391,E,67.14,350.80,300325,,,*1E
$GPGGA,103403.430,5533.87012,N,03759.10391,E,1,14,0.80,131.30,M,,M,,*43
$GPRMC,103403.490,A,5533.87128,N,03759.10361,E,67.46,351.10,300325,,,*1C
$GPGGA,103403.490,5533.87128,N,03759.10361,E,1,14,0.70,131.30,M,,M,,*41
$GPRMC,103403.550,A,5533.87243,N,03759.10334,E,67.58,351.60,300325,,,*17
$GPGGA,103403.550,5533.87243,N,03759.10334,E,1,14,0.70,131.20,M,,M,,*43
$GPRMC,103403.610,A,5533.87360,N,03759.10307,E,67.88,352.10,300325,,,*19
$GPGGA,103403.610,5533.87360,N,03759.10307,E,1,14,0.70,131.20,M,,M,,*44
$GPRMC,103403.680,A,5533.87477,N,03759.10281,E,68.20,352.40,300325,,,*16
$GPGGA,103403.680,5533.87477,N,03759.10281,E,1,14,0.80,131.20,M,,M,,*4C
$GPRMC,103403.740,A,5533.87594,N,03759.10256,E,68.33,352.60,300325,,,*1D
$GPGGA,103403.740,5533.87594,N,03759.10256,E,1,15,0.70,131.10,M,,M,,*4A
$GPRMC,103403.800,A,5533.87711,N,03759.10231,E,68.56,352.80,300325,,,*15
$GPGGA,103403.800,5533.87711,N,03759.10231,E,1,15,0.70,131.10,M,,M,,*4F
$GPRMC,103403.860,A,5533.87829,N,03759.10206,E,68.78,352.90,300325,,,*1E
$GPGGA,103403.860,5533.87829,N,03759.10206,E,1,14,0.70,131.10,M,,M,,*48
$GPRMC,103403.920,A,5533.87947,N,03759.10181,E,68.88,353.00,300325,,,*19
$GPGGA,103403.920,5533.87947,N,03759.10181,E,1,14,0.70,131.00,M,,M,,*49
$GPRMC,103403.990,A,5533.88065,N,03759.10155,E,69.16,352.90,300325,,,*13
$GPGGA,103403.990,5533.88065,N,03759.10155,E,1,14,0.70,131.00,M,,M,,*4D
$GPRMC,103404.050,A,5533.88184,N,03759.10127,E,69.46,352.70,300325,,,*11
$GPGGA,103404.050,5533.88184,N,03759.10127,E,1,14,0.70,131.00,M,,M,,*44
$GPRMC,103404.110,A,5533.88303,N,03759.10099,E,69.55,352.50,300325,,,*1D
$GPGGA,103404.110,5533.88303,N,03759.10099,E,1,14,0.70,130.90,M,,M,,*40
$GPRMC,103404.170,A,5533.88421,N,03759.10070,E,69.40,352.20,300325,,,*18
$GPGGA,103404.170,5533.88421,N,03759.10070,E,1,14,0.70,130.90,M,,M,,*46
$GPRMC,103404.230,A,5533.88538,N,03759.10042,E,69.12,352.20,300325,,,*10
$GPGGA,103404.230,5533.88538,N,03759.10042,E,1,15,0.70,130.90,M,,M,,*48
$GPRMC,103404.300,A,5533.88653,N,03759.10013,E,68.57,352.10,300325,,,*1B
$GPGGA,103404.300,5533.88653,N,03759.10013,E,1,15,0.70,130.90,M,,M,,*40
$GPRMC,103404.360,A,5533.88767,N,03759.09983,E,67.78,351.80,300325,,,*1B
$GPGGA,103404.360,5533.88767,N,03759.09983,E,1,15,0.70,130.80,M,,M,,*49
$GPRMC,103404.420,A,5533.88878,N,03759.09954,E,66.78,351.70,300325,,,*1D
$GPGGA,103404.420,5533.88878,N,03759.09954,E,1,15,0.70,130.80,M,,M,,*41
$GPRMC,103404.480,A,5533.88987,N,03759.09924,E,65.67,351.50,300325,,,*1E
$GPGGA,103404.480,5533.88987,N,03759.09924,E,1,15,0.70,130.80,M,,M,,*4D
$GPRMC,103404.540,A,5533.89093,N,03759.09895,E,64.38,351.30,300325,,,*18
$GPGGA,103404.540,5533.89093,N,03759.09895,E,1,14,0.70,130.80,M,,M,,*47
$GPRMC,103404.610,A,5533.89198,N,03759.09865,E,63.17,351.10,300325,,,*13
$GPGGA,103404.610,5533.89198,N,03759.09865,E,1,14,0.70,130.70,M,,M,,*4B
$GPRMC,103404.670,A,5533.89301,N,03759.09834,E,61.99,350.80,300325,,,*1F
$GPGGA,103404.670,5533.89301,N,03759.09834,E,1,14,0.70,130.70,M,,M,,*4B
$GPRMC,103404.730,A,5533.89401,N,03759.09804,E,60.75,350.50,300325,,,*10
$GPGGA,103404.730,5533.89401,N,03759.09804,E,1,13,0.70,130.70,M,,M,,*4D
$GPRMC,103404.790,A,5533.89499,N,03759.09771,E,59.58,349.90,300325,,,*17
$GPGGA,103404.790,5533.89499,N,03759.09771,E,1,13,0.70,130.70,M,,M,,*4B
$GPRMC,103404.850,A,5533.89595,N,03759.09739,E,58.34,349.60,300325,,,*11
$GPGGA,103404.850,5533.89595,N,03759.09739,E,1,13,0.70,130.70,M,,M,,*49
$GPRMC,103404.920,A,5533.89688,N,03759.09706,E,57.05,349.30,300325,,,*1C
$GPGGA,103404.920,5533.89688,N,03759.09706,E,1,14,0.80,130.70,M,,M,,*44
$GPRMC,103404.980,A,5533.89779,N,03759.09673,E,55.76,348.90,300325,,,*17
$GPGGA,103404.980,5533.89779,N,03759.09673,E,1,12,0.80,130.60,M,,M,,*45
$GPRMC,103405.040,A,5533.89868,N,03759.09640,E,54.55,348.50,300325,,,*10
$GPGGA,103405.040,5533.89868,N,03759.09640,E,1,12,0.80,130.60,M,,M,,*4E
$GPRMC,103405.100,A,5533.89956,N,03759.09607,E,53.35,348.20,300325,,,*1C
$GPGGA,103405.100,5533.89956,N,03759.09607,E,1,12,0.80,130.60,M,,M,,*44
$GPRMC,103405.160,A,5533.90040,N,03759.09574,E,52.10,347.90,300325,,,*19
$GPGGA,103405.160,5533.90040,N,03759.09574,E,1,12,0.80,130.60,M,,M,,*43
$GPRMC,103405.230,A,5533.90123,N,03759.09541,E,50.94,347.50,300325,,,*1F
$GPGGA,103405.230,5533.90123,N,03759.09541,E,1,12,0.80,130.60,M,,M,,*47
$GPRMC,103405.290,A,5533.90205,N,03759.09507,E,49.92,347.10,300325,,,*1A
$GPGGA,103405.290,5533.90205,N,03759.09507,E,1,13,0.80,130.60,M,,M,,*49
$GPRMC,103405.350,A,5533.90284,N,03759.09473,E,48.82,346.80,300325,,,*14
$GPGGA,103405.350,5533.90284,N,03759.09473,E,1,14,0.80,130.60,M,,M,,*48
$GPRMC,103405.410,A,5533.90361,N,03759.09440,E,47.61,346.50,300325,,,*12
$GPGGA,103405.410,5533.90361,N,03759.09440,E,1,15,0.70,130.60,M,,M,,*4F
$GPRMC,103405.470,A,5533.90436,N,03759.09406,E,46.63,346.00,300325,,,*15
$GPGGA,103405.470,5533.90436,N,03759.09406,E,1,15,0.80,130.60,M,,M,,*41
$GPRMC,103405.540,A,5533.90510,N,03759.09371,E,45.78,345.60,300325,,,*19
$GPGGA,103405.540,5533.90510,N,03759.09371,E,1,14,0.80,130.60,M,,M,,*40
$GPRMC,103405.600,A,5533.90583,N,03759.09335,E,44.94,345.10,300325,,,*10
$GPGGA,103405.600,5533.90583,N,03759.09335,E,1,14,0.90,130.60,M,,M,,*4C
$GPRMC,103405.660,A,5533.90653,N,03759.09300,E,43.95,344.60,300325,,,*1E
$GPGGA,103405.660,5533.90653,N,03759.09300,E,1,12,0.90,130.60,M,,M,,*44
$GPRMC,103405.720,A,5533.90722,N,03759.09265,E,42.89,344.30,300325,,,*17
$GPGGA,103405.720,5533.90722,N,03759.09265,E,1,12,0.90,130.50,M,,M,,*47
$GPRMC,103405.780,A,5533.90789,N,03759.09229,E,41.93,343.70,300325,,,*1F
$GPGGA,103405.780,5533.90789,N,03759.09229,E,1,12,0.90,130.50,M,,M,,*44
$GPRMC,103405.850,A,5533.90853,N,03759.09192,E,40.83,343.00,300325,,,*11
$GPGGA,103405.850,5533.90853,N,03759.09192,E,1,12,0.90,130.50,M,,M,,*4D
$GPRMC,103405.910,A,5533.90915,N,03759.09154,E,39.88,342.30,300325,,,*1A
$GPGGA,103405.910,5533.90915,N,03759.09154,E,1,12,0.90,130.50,M,,M,,*41
$GPRMC,103405.970,A,5533.90977,N,03759.09114,E,39.24,341.40,300325,,,*1E
$GPGGA,103405.970,5533.90977,N,03759.09114,E,1,12,0.90,130.50,M,,M,,*47
$GPRMC,103406.030,A,5533.91038,N,03759.09074,E,38.67,340.60,300325,,,*11
$GPGGA,103406.030,5533.91038,N,03759.09074,E,1,13,0.90,130.50,M,,M,,*4C
$GPRMC,103406.090,A,5533.91099,N,03759.09030,E,38.55,339.50,300325,,,*1C
$GPGGA,103406.090,5533.91099,N,03759.09030,E,1,14,0.90,130.50,M,,M,,*4A
$GPRMC,103406.160,A,5533.91159,N,03759.08983,E,38.28,338.10,300325,,,*10
$GPGGA,103406.160,5533.91159,N,03759.08983,E,1,14,0.90,130.50,M,,M,,*49
$GPRMC,103406.220,A,5533.91217,N,03759.08934,E,38.08,336.60,300325,,,*19
$GPGGA,103406.220,5533.91217,N,03759.08934,E,1,14,0.90,130.50,M,,M,,*4B
$GPRMC,103406.280,A,5533.91275,N,03759.08883,E,37.84,335.10,300325,,,*15
$GPGGA,103406.280,5533.91275,N,03759.08883,E,1,14,0.90,130.50,M,,M,,*48
$GPRMC,103406.340,A,5533.91331,N,03759.08829,E,37.63,333.70,300325,,,*10
$GPGGA,103406.340,5533.91331,N,03759.08829,E,1,14,0.90,130.50,M,,M,,*44
$GPRMC,103406.400,A,5533.91388,N,03759.08770,E,38.00,332.00,300325,,,*1E
$GPGGA,103406.400,5533.91388,N,03759.08770,E,1,14,0.90,130.40,M,,M,,*47
$GPRMC,103406.470,A,5533.91445,N,03759.08708,E,38.39,330.50,300325,,,*1D
$GPGGA,103406.470,5533.91445,N,03759.08708,E,1,14,0.90,130.50,M,,M,,*48
$GPRMC,103406.530,A,5533.91499,N,03759.08642,E,38.54,328.60,300325,,,*17
$GPGGA,103406.530,5533.91499,N,03759.08642,E,1,14,0.90,130.50,M,,M,,*43
$GPRMC,103406.590,A,5533.91552,N,03759.08571,E,38.61,326.10,300325,,,*17
$GPGGA,103406.590,5533.91552,N,03759.08571,E,1,14,0.90,130.50,M,,M,,*4C
$GPRMC,103406.650,A,5533.91605,N,03759.08498,E,38.78,324.20,300325,,,*16
$GPGGA,103406.650,5533.91605,N,03759.08498,E,1,13,0.90,130.50,M,,M,,*43
$GPRMC,103406.710,A,5533.91657,N,03759.08423,E,39.02,322.80,300325,,,*14
$GPGGA,103406.710,5533.91657,N,03759.08423,E,1,13,0.90,130.50,M,,M,,*41
$GPRMC,103406.780,A,5533.91708,N,03759.08345,E,39.18,321.00,300325,,,*11
$GPGGA,103406.780,5533.91708,N,03759.08345,E,1,14,0.80,130.60,M,,M,,*41
$GPRMC,103406.840,A,5533.91758,N,03759.08264,E,39.30,319.10,300325,,,*15
$GPGGA,103406.840,5533.91758,N,03759.08264,E,1,14,0.80,130.50,M,,M,,*46
$GPRMC,103406.900,A,5533.91806,N,03759.08181,E,39.34,317.60,300325,,,*11
$GPGGA,103406.900,5533.91806,N,03759.08181,E,1,14,0.80,130.50,M,,M,,*4F
$GPRMC,103406.960,A,5533.91854,N,03759.08096,E,39.42,316.20,300325,,,*13
$GPGGA,103406.960,5533.91854,N,03759.08096,E,1,15,0.80,130.50,M,,M,,*48
$GPRMC,103407.020,A,5533.91899,N,03759.08007,E,39.33,314.30,300325,,,*13
$GPGGA,103407.020,5533.91899,N,03759.08007,E,1,14,0.80,130.50,M,,M,,*4C
$GPRMC,103407.090,A,5533.91943,N,03759.07917,E,39.40,312.80,300325,,,*10
$GPGGA,103407.090,5533.91943,N,03759.07917,E,1,14,0.80,130.50,M,,M,,*46
$GPRMC,103407.150,A,5533.91988,N,03759.07825,E,39.74,311.70,300325,,,*11
$GPGGA,103407.150,5533.91988,N,03759.07825,E,1,14,0.80,130.50,M,,M,,*4C
$GPRMC,103407.210,A,5533.92030,N,03759.07729,E,39.82,310.20,300325,,,*11
$GPGGA,103407.210,5533.92030,N,03759.07729,E,1,14,0.80,130.60,M,,M,,*42
$GPRMC,103407.270,A,5533.92069,N,03759.07633,E,39.54,308.40,300325,,,*15
$GPGGA,103407.270,5533.92069,N,03759.07633,E,1,13,0.90,130.60,M,,M,,*44
$GPRMC,103407.330,A,5533.92105,N,03759.07533,E,39.37,306.30,300325,,,*14
$GPGGA,103407.330,5533.92105,N,03759.07533,E,1,13,0.90,130.70,M,,M,,*48
$GPRMC,103407.400,A,5533.92141,N,03759.07432,E,39.35,304.50,300325,,,*16
$GPGGA,103407.400,5533.92141,N,03759.07432,E,1,14,0.90,130.70,M,,M,,*4B
$GPRMC,103407.460,A,5533.92174,N,03759.07329,E,39.26,302.50,300325,,,*1F
$GPGGA,103407.460,5533.92174,N,03759.07329,E,1,14,0.90,130.70,M,,M,,*46
$GPRMC,103407.520,A,5533.92204,N,03759.07224,E,39.18,300.50,300325,,,*1D
$GPGGA,103407.520,5533.92204,N,03759.07224,E,1,14,0.90,130.70,M,,M,,*4B
$GPRMC,103407.580,A,5533.92232,N,03759.07117,E,39.10,298.40,300325,,,*18
$GPGGA,103407.580,5533.92232,N,03759.07117,E,1,15,0.80,130.70,M,,M,,*47
$GPRMC,103407.640,A,5533.92258,N,03759.07009,E,39.00,296.20,300325,,,*1C
$GPGGA,103407.640,5533.92258,N,03759.07009,E,1,14,0.90,130.70,M,,M,,*4A
$GPRMC,103407.710,A,5533.92281,N,03759.06900,E,38.88,293.80,300325,,,*13
$GPGGA,103407.710,5533.92281,N,03759.06900,E,1,14,0.90,130.70,M,,M,,*4B
$GPRMC,103407.770,A,5533.92303,N,03759.06789,E,38.95,291.90,300325,,,*1E
$GPGGA,103407.770,5533.92303,N,03759.06789,E,1,14,0.90,130.70,M,,M,,*49
$GPRMC,103407.830,A,5533.92324,N,03759.06678,E,38.86,290.60,300325,,,*13
$GPGGA,103407.830,5533.92324,N,03759.06678,E,1,15,0.90,130.80,M,,M,,*46
$GPRMC,103407.890,A,5533.92342,N,03759.06568,E,38.42,288.80,300325,,,*14
$GPGGA,103407.890,5533.92342,N,03759.06568,E,1,15,0.90,130.80,M,,M,,*4E
$GPRMC,103407.950,A,5533.92359,N,03759.06457,E,38.26,287.20,300325,,,*19
$GPGGA,103407.950,5533.92359,N,03759.06457,E,1,15,0.90,130.80,M,,M,,*44
$GPRMC,103408.020,A,5533.92374,N,03759.06344,E,38.16,285.50,300325,,,*14
$GPGGA,103408.020,5533.92374,N,03759.06344,E,1,15,0.90,130.80,M,,M,,*4F
$GPRMC,103408.080,A,5533.92387,N,03759.06232,E,38.07,284.10,300325,,,*17
$GPGGA,103408.080,5533.92387,N,03759.06232,E,1,15,0.80,130.80,M,,M,,*48
$GPRMC,103408.140,A,5533.92396,N,03759.06118,E,37.96,282.00,300325,,,*11
$GPGGA,103408.140,5533.92396,N,03759.06118,E,1,15,0.80,130.80,M,,M,,*4E
$GPRMC,103408.200,A,5533.92404,N,03759.06005,E,37.79,280.30,300325,,,*17
$GPGGA,103408.200,5533.92404,N,03759.06005,E,1,15,0.80,130.90,M,,M,,*49
$GPRMC,103408.260,A,5533.92410,N,03759.05890,E,37.97,278.40,300325,,,*13
$GPGGA,103408.260,5533.92410,N,03759.05890,E,1,15,0.80,130.90,M,,M,,*4D
$GPRMC,103408.330,A,5533.92414,N,03759.05775,E,37.97,276.60,300325,,,*1B
$GPGGA,103408.330,5533.92414,N,03759.05775,E,1,15,0.80,130.90,M,,M,,*49
$GPRMC,103408.390,A,5533.92415,N,03759.05660,E,37.84,274.50,300325,,,*16
$GPGGA,103408.390,5533.92415,N,03759.05660,E,1,15,0.80,131.00,M,,M,,*4F
$GPRMC,103408.450,A,5533.92414,N,03759.05547,E,37.64,272.80,300325,,,*1F
$GPGGA,103408.450,5533.92414,N,03759.05547,E,1,15,0.80,131.00,M,,M,,*43
$GPRMC,103408.510,A,5533.92410,N,03759.05434,E,37.50,270.70,300325,,,*11
$GPGGA,103408.510,5533.92410,N,03759.05434,E,1,15,0.80,131.10,M,,M,,*46
$GPRMC,103408.570,A,5533.92404,N,03759.05321,E,37.43,268.60,300325,,,*1B
$GPGGA,103408.570,5533.92404,N,03759.05321,E,1,15,0.80,131.10,M,,M,,*46
$GPRMC,103408.640,A,5533.92397,N,03759.05209,E,37.24,267.00,300325,,,*15
$GPGGA,103408.640,5533.92397,N,03759.05209,E,1,15,0.80,131.00,M,,M,,*41
$GPRMC,103408.700,A,5533.92388,N,03759.05097,E,37.28,265.10,300325,,,*14
$GPGGA,103408.700,5533.92388,N,03759.05097,E,1,15,0.80,131.00,M,,M,,*4F
$GPRMC,103408.760,A,5533.92375,N,03759.04982,E,37.72,262.80,300325,,,*1D
$GPGGA,103408.760,5533.92375,N,03759.04982,E,1,15,0.80,131.10,M,,M,,*46
$GPRMC,103408.820,A,5533.92360,N,03759.04868,E,37.99,260.40,300325,,,*1C
$GPGGA,103408.820,5533.92360,N,03759.04868,E,1,15,0.80,131.20,M,,M,,*4F
$GPRMC,103408.880,A,5533.92342,N,03759.04758,E,37.87,258.40,300325,,,*1E
$GPGGA,103408.880,5533.92342,N,03759.04758,E,1,15,0.80,131.20,M,,M,,*49
$GPRMC,103408.950,A,5533.92324,N,03759.04648,E,37.73,256.70,300325,,,*14
$GPGGA,103408.950,5533.92324,N,03759.04648,E,1,15,0.80,131.20,M,,M,,*45
$GPRMC,103409.010,A,5533.92303,N,03759.04537,E,38.09,254.80,300325,,,*19
$GPGGA,103409.010,5533.92303,N,03759.04537,E,1,13,0.80,131.20,M,,M,,*41
$GPRMC,103409.070,A,5533.92279,N,03759.04429,E,38.25,252.50,300325,,,*18
$GPGGA,103409.070,5533.92279,N,03759.04429,E,1,13,0.80,131.20,M,,M,,*45
$GPRMC,103409.130,A,5533.92253,N,03759.04320,E,38.56,250.60,300325,,,*1E
$GPGGA,103409.130,5533.92253,N,03759.04320,E,1,13,0.80,131.20,M,,M,,*46
$GPRMC,103409.190,A,5533.92227,N,03759.04213,E,38.48,249.00,300325,,,*17
$GPGGA,103409.190,5533.92227,N,03759.04213,E,1,13,0.80,131.20,M,,M,,*4E
$GPRMC,103409.260,A,5533.92198,N,03759.04105,E,38.77,247.50,300325,,,*1F
$GPGGA,103409.260,5533.92198,N,03759.04105,E,1,13,0.80,131.20,M,,M,,*41
$GPRMC,103409.320,A,5533.92166,N,03759.04001,E,38.80,245.10,300325,,,*10
$GPGGA,103409.320,5533.92166,N,03759.04001,E,1,13,0.80,131.30,M,,M,,*41
$GPRMC,103409.380,A,5533.92130,N,03759.03898,E,39.13,242.80,300325,,,*13
$GPGGA,103409.380,5533.92130,N,03759.03898,E,1,15,0.70,131.30,M,,M,,*4E
$GPRMC,103409.440,A,5533.92094,N,03759.03795,E,39.38,241.00,300325,,,*17
$GPGGA,103409.440,5533.92094,N,03759.03795,E,1,15,0.70,131.30,M,,M,,*48
$GPRMC,103409.500,A,5533.92056,N,03759.03695,E,39.44,239.10,300325,,,*18
$GPGGA,103409.500,5533.92056,N,03759.03695,E,1,15,0.70,131.30,M,,M,,*42
$GPRMC,103409.570,A,5533.92017,N,03759.03595,E,39.56,237.40,300325,,,*11
$GPGGA,103409.570,5533.92017,N,03759.03595,E,1,14,0.80,131.30,M,,M,,*4D
$GPRMC,103409.630,A,5533.91975,N,03759.03498,E,39.77,235.40,300325,,,*15
$GPGGA,103409.630,5533.91975,N,03759.03498,E,1,14,0.80,131.40,M,,M,,*4F
$GPRMC,103409.690,A,5533.91931,N,03759.03404,E,39.84,233.30,300325,,,*17
$GPGGA,103409.690,5533.91931,N,03759.03404,E,1,14,0.80,131.40,M,,M,,*40
$GPRMC,103409.750,A,5533.91886,N,03759.03311,E,40.04,231.40,300325,,,*17
$GPGGA,103409.750,5533.91886,N,03759.03311,E,1,14,0.80,131.40,M,,M,,*43
$GPRMC,103409.810,A,5533.91840,N,03759.03219,E,40.13,230.00,300325,,,*1C
$GPGGA,103409.810,5533.91840,N,03759.03219,E,1,14,0.80,131.40,M,,M,,*4B
$GPRMC,103409.880,A,5533.91792,N,03759.03130,E,40.15,228.30,300325,,,*11
$GPGGA,103409.880,5533.91792,N,03759.03130,E,1,13,0.90,131.50,M,,M,,*4D
$GPRMC,103409.940,A,5533.91743,N,03759.03041,E,40.46,227.10,300325,,,*1C
$GPGGA,103409.940,5533.91743,N,03759.03041,E,1,15,0.80,131.50,M,,M,,*4C
$GPRMC,103410.000,A,5533.91692,N,03759.02955,E,40.67,225.60,300325,,,*1F
$GPGGA,103410.000,5533.91692,N,03759.02955,E,1,15,0.80,131.50,M,,M,,*49
$GPRMC,103410.060,A,5533.91640,N,03759.02871,E,40.79,224.30,300325,,,*1A
$GPGGA,103410.060,5533.91640,N,03759.02871,E,1,15,0.80,131.50,M,,M,,*47
$GPRMC,103410.120,A,5533.91585,N,03759.02790,E,41.04,222.70,300325,,,*1C
$GPGGA,103410.120,5533.91585,N,03759.02790,E,1,15,0.80,131.60,M,,M,,*4B
$GPRMC,103410.190,A,5533.91529,N,03759.02710,E,41.15,221.40,300325,,,*19
$GPGGA,103410.190,5533.91529,N,03759.02710,E,1,14,0.80,131.60,M,,M,,*4F
$GPRMC,103410.250,A,5533.91472,N,03759.02633,E,41.40,219.90,300325,,,*1F
$GPGGA,103410.250,5533.91472,N,03759.02633,E,1,14,0.80,131.60,M,,M,,*4F
$GPRMC,103410.310,A,5533.91414,N,03759.02559,E,41.43,218.50,300325,,,*1B
$GPGGA,103410.310,5533.91414,N,03759.02559,E,1,15,0.80,131.70,M,,M,,*45
$GPRMC,103410.370,A,5533.91352,N,03759.02488,E,41.76,216.70,300325,,,*1F
$GPGGA,103410.370,5533.91352,N,03759.02488,E,1,13,0.90,131.70,M,,M,,*4C
$GPRMC,103410.430,A,5533.91289,N,03759.02419,E,42.19,215.00,300325,,,*1D
$GPGGA,103410.430,5533.91289,N,03759.02419,E,1,12,0.90,131.80,M,,M,,*4E
$GPRMC,103410.500,A,5533.91224,N,03759.02352,E,42.59,213.60,300325,,,*14
$GPGGA,103410.500,5533.91224,N,03759.02352,E,1,12,0.90,131.80,M,,M,,*43
$GPRMC,103410.560,A,5533.91159,N,03759.02285,E,42.88,212.40,300325,,,*1F
$GPGGA,103410.560,5533.91159,N,03759.02285,E,1,12,0.90,131.80,M,,M,,*47
$GPRMC,103410.620,A,5533.91092,N,03759.02222,E,43.26,211.00,300325,,,*11
$GPGGA,103410.620,5533.91092,N,03759.02222,E,1,12,0.90,131.90,M,,M,,*4A
$GPRMC,103410.680,A,5533.91023,N,03759.02162,E,43.63,209.50,300325,,,*1B
$GPGGA,103410.680,5533.91023,N,03759.02162,E,1,11,1.00,131.90,M,,M,,*46
$GPRMC,103410.740,A,5533.90953,N,03759.02105,E,43.89,208.00,300325,,,*18
$GPGGA,103410.740,5533.90953,N,03759.02105,E,1,14,0.90,131.90,M,,M,,*48
$GPRMC,103410.810,A,5533.90882,N,03759.02051,E,44.17,206.60,300325,,,*17
$GPGGA,103410.810,5533.90882,N,03759.02051,E,1,15,0.90,132.00,M,,M,,*44
$GPRMC,103410.870,A,5533.90810,N,03759.02000,E,44.52,205.10,300325,,,*1B
$GPGGA,103410.870,5533.90810,N,03759.02000,E,1,15,0.90,132.00,M,,M,,*4D
$GPRMC,103410.930,A,5533.90735,N,03759.01953,E,45.06,203.40,300325,,,*19
$GPGGA,103410.930,5533.90735,N,03759.01953,E,1,13,0.90,132.00,M,,M,,*4A
$GPRMC,103410.990,A,5533.90660,N,03759.01907,E,45.46,202.10,300325,,,*13
$GPGGA,103410.990,5533.90660,N,03759.01907,E,1,12,0.90,132.00,M,,M,,*41
$GPRMC,103411.050,A,5533.90583,N,03759.01866,E,45.83,200.50,300325,,,*10
$GPGGA,103411.050,5533.90583,N,03759.01866,E,1,12,0.90,132.00,M,,M,,*4D
$GPRMC,103411.120,A,5533.90507,N,03759.01825,E,46.01,199.30,300325,,,*11
$GPGGA,103411.120,5533.90507,N,03759.01825,E,1,12,0.90,132.00,M,,M,,*40
$GPRMC,103411.180,A,5533.90430,N,03759.01787,E,46.23,198.20,300325,,,*19
$GPGGA,103411.180,5533.90430,N,03759.01787,E,1,12,0.90,132.00,M,,M,,*48
$GPRMC,103411.240,A,5533.90351,N,03759.01747,E,46.77,197.40,300325,,,*12
$GPGGA,103411.240,5533.90351,N,03759.01747,E,1,12,0.90,132.00,M,,M,,*4B
$GPRMC,103411.300,A,5533.90271,N,03759.01710,E,47.31,196.50,300325,,,*15
$GPGGA,103411.300,5533.90271,N,03759.01710,E,1,13,0.90,132.10,M,,M,,*4F
$GPRMC,103411.360,A,5533.90191,N,03759.01674,E,47.62,195.80,300325,,,*15
$GPGGA,103411.360,5533.90191,N,03759.01674,E,1,13,0.90,132.10,M,,M,,*47
$GPRMC,103411.430,A,5533.90110,N,03759.01643,E,47.90,194.80,300325,,,*16
$GPGGA,103411.430,5533.90110,N,03759.01643,E,1,14,0.90,132.10,M,,M,,*4F
$GPRMC,103411.490,A,5533.90029,N,03759.01614,E,48.13,193.90,300325,,,*17
$GPGGA,103411.490,5533.90029,N,03759.01614,E,1,15,0.90,132.20,M,,M,,*4E
$GPRMC,103411.550,A,5533.89946,N,03759.01587,E,48.42,192.90,300325,,,*1E
$GPGGA,103411.550,5533.89946,N,03759.01587,E,1,15,0.90,132.20,M,,M,,*42
$GPRMC,103411.610,A,5533.89865,N,03759.01575,E,48.36,191.10,300325,,,*1C
$GPGGA,103411.610,5533.89865,N,03759.01575,E,1,14,0.90,132.20,M,,M,,*49
$GPRMC,103411.670,A,5533.89782,N,03759.01563,E,48.49,189.50,300325,,,*1E
$GPGGA,103411.670,5533.89782,N,03759.01563,E,1,13,0.90,132.20,M,,M,,*49
$GPRMC,103411.740,A,5533.89698,N,03759.01549,E,48.73,188.40,300325,,,*17
$GPGGA,103411.740,5533.89698,N,03759.01549,E,1,13,0.90,132.30,M,,M,,*48
$GPRMC,103411.800,A,5533.89614,N,03759.01534,E,48.94,187.60,300325,,,*16
$GPGGA,103411.800,5533.89614,N,03759.01534,E,1,13,0.80,132.30,M,,M,,*4C
$GPRMC,103411.860,A,5533.89529,N,03759.01522,E,49.16,186.70,300325,,,*11
$GPGGA,103411.860,5533.89529,N,03759.01522,E,1,14,0.80,132.30,M,,M,,*47
$GPRMC,103411.920,A,5533.89443,N,03759.01512,E,49.50,185.80,300325,,,*14
$GPGGA,103411.920,5533.89443,N,03759.01512,E,1,15,0.80,132.40,M,,M,,*4A
$GPRMC,103411.980,A,5533.89356,N,03759.01503,E,49.80,184.90,300325,,,*10
$GPGGA,103411.980,5533.89356,N,03759.01503,E,1,15,0.80,132.40,M,,M,,*43
$GPRMC,103412.050,A,5533.89269,N,03759.01496,E,50.12,184.10,300325,,,*1C
$GPGGA,103412.050,5533.89269,N,03759.01496,E,1,15,0.80,132.40,M,,M,,*44
$GPRMC,103412.110,A,5533.89182,N,03759.01490,E,50.48,183.30,300325,,,*13
$GPGGA,103412.110,5533.89182,N,03759.01490,E,1,15,0.80,132.40,M,,M,,*41
$GPRMC,103412.170,A,5533.89093,N,03759.01485,E,50.77,182.80,300325,,,*16
$GPGGA,103412.170,5533.89093,N,03759.01485,E,1,15,0.80,132.40,M,,M,,*42
$GPRMC,103412.230,A,5533.89005,N,03759.01481,E,51.04,182.30,300325,,,*14
$GPGGA,103412.230,5533.89005,N,03759.01481,E,1,14,0.80,132.50,M,,M,,*4E
$GPRMC,103412.290,A,5533.88916,N,03759.01480,E,51.35,181.50,300325,,,*12
$GPGGA,103412.290,5533.88916,N,03759.01480,E,1,14,0.80,132.40,M,,M,,*4E
$GPRMC,103412.360,A,5533.88826,N,03759.01482,E,51.61,180.80,300325,,,*11
$GPGGA,103412.360,5533.88826,N,03759.01482,E,1,14,0.80,132.50,M,,M,,*41
$GPRMC,103412.420,A,5533.88736,N,03759.01483,E,51.80,180.20,300325,,,*18
$GPGGA,103412.420,5533.88736,N,03759.01483,E,1,14,0.80,132.50,M,,M,,*4D
$GPRMC,103412.480,A,5533.88645,N,03759.01488,E,52.16,179.60,300325,,,*12
$GPGGA,103412.480,5533.88645,N,03759.01488,E,1,14,0.80,132.50,M,,M,,*49
$GPRMC,103412.540,A,5533.88554,N,03759.01494,E,52.51,178.90,300325,,,*1C
$GPGGA,103412.540,5533.88554,N,03759.01494,E,1,15,0.80,132.50,M,,M,,*4B
$GPRMC,103412.600,A,5533.88462,N,03759.01500,E,52.76,178.50,300325,,,*1A
$GPGGA,103412.600,5533.88462,N,03759.01500,E,1,15,0.80,132.50,M,,M,,*44
$GPRMC,103412.670,A,5533.88369,N,03759.01508,E,53.18,178.00,300325,,,*15
$GPGGA,103412.670,5533.88369,N,03759.01508,E,1,15,0.80,132.60,M,,M,,*44
$GPRMC,103412.730,A,5533.88277,N,03759.01518,E,53.47,177.40,300325,,,*1E
$GPGGA,103412.730,5533.88277,N,03759.01518,E,1,15,0.80,132.60,M,,M,,*4E
$GPRMC,103412.790,A,5533.88183,N,03759.01529,E,53.70,176.90,300325,,,*16
$GPGGA,103412.790,5533.88183,N,03759.01529,E,1,15,0.80,132.60,M,,M,,*4E
$GPRMC,103412.850,A,5533.88089,N,03759.01540,E,54.09,176.70,300325,,,*16
$GPGGA,103412.850,5533.88089,N,03759.01540,E,1,15,0.80,132.70,M,,M,,*48
$GPRMC,103412.910,A,5533.87995,N,03759.01551,E,54.35,176.40,300325,,,*14
$GPGGA,103412.910,5533.87995,N,03759.01551,E,1,15,0.80,132.70,M,,M,,*46
$GPRMC,103412.980,A,5533.87901,N,03759.01563,E,54.59,176.20,300325,,,*1D
$GPGGA,103412.980,5533.87901,N,03759.01563,E,1,15,0.80,132.70,M,,M,,*43
$GPRMC,103413.040,A,5533.87806,N,03759.01576,E,54.95,176.00,300325,,,*19
$GPGGA,103413.040,5533.87806,N,03759.01576,E,1,15,0.80,132.70,M,,M,,*45
$GPRMC,103413.100,A,5533.87710,N,03759.01589,E,55.21,175.80,300325,,,*11
$GPGGA,103413.100,5533.87710,N,03759.01589,E,1,15,0.80,132.70,M,,M,,*48
$GPRMC,103413.160,A,5533.87615,N,03759.01602,E,55.44,175.60,300325,,,*1E
$GPGGA,103413.160,5533.87615,N,03759.01602,E,1,15,0.80,132.80,M,,M,,*45
$GPRMC,103413.220,A,5533.87518,N,03759.01616,E,55.75,175.50,300325,,,*13
$GPGGA,103413.220,5533.87518,N,03759.01616,E,1,15,0.80,132.80,M,,M,,*49
$GPRMC,103413.290,A,5533.87422,N,03759.01629,E,56.00,175.50,300325,,,*1D
$GPGGA,103413.290,5533.87422,N,03759.01629,E,1,15,0.80,132.80,M,,M,,*46
$GPRMC,103413.350,A,5533.87325,N,03759.01643,E,56.20,175.40,300325,,,*1F
$GPGGA,103413.350,5533.87325,N,03759.01643,E,1,15,0.80,132.80,M,,M,,*47
$GPRMC,103413.410,A,5533.87228,N,03759.01654,E,56.55,175.70,300325,,,*17
$GPGGA,103413.410,5533.87228,N,03759.01654,E,1,15,0.80,132.80,M,,M,,*4E
$GPRMC,103413.470,A,5533.87130,N,03759.01667,E,56.86,175.70,300325,,,*15
$GPGGA,103413.470,5533.87130,N,03759.01667,E,1,15,0.80,132.70,M,,M,,*4D
$GPRMC,103413.530,A,5533.87032,N,03759.01681,E,57.05,175.70,300325,,,*11
$GPGGA,103413.530,5533.87032,N,03759.01681,E,1,15,0.80,132.80,M,,M,,*4C
$GPRMC,103413.600,A,5533.86933,N,03759.01694,E,57.23,175.70,300325,,,*18
$GPGGA,103413.600,5533.86933,N,03759.01694,E,1,15,0.80,132.80,M,,M,,*41
$GPRMC,103413.660,A,5533.86834,N,03759.01706,E,57.52,175.70,300325,,,*14
$GPGGA,103413.660,5533.86834,N,03759.01706,E,1,15,0.80,132.80,M,,M,,*4B
$GPRMC,103413.720,A,5533.86734,N,03759.01719,E,57.76,175.80,300325,,,*19
$GPGGA,103413.720,5533.86734,N,03759.01719,E,1,15,0.80,132.80,M,,M,,*4F
$GPRMC,103413.780,A,5533.86635,N,03759.01731,E,57.93,175.90,300325,,,*13
$GPGGA,103413.780,5533.86635,N,03759.01731,E,1,14,0.90,132.80,M,,M,,*4F
$GPRMC,103413.840,A,5533.86534,N,03759.01743,E,58.13,176.00,300325,,,*1A
$GPGGA,103413.840,5533.86534,N,03759.01743,E,1,14,0.90,132.80,M,,M,,*4B
$GPRMC,103413.910,A,5533.86434,N,03759.01756,E,58.34,175.90,300325,,,*14
$GPGGA,103413.910,5533.86434,N,03759.01756,E,1,14,0.90,132.80,M,,M,,*4A
$GPRMC,103413.970,A,5533.86332,N,03759.01769,E,58.64,176.00,300325,,,*10
$GPGGA,103413.970,5533.86332,N,03759.01769,E,1,14,0.90,132.90,M,,M,,*40
$GPRMC,103414.030,A,5533.86231,N,03759.01781,E,58.83,176.10,300325,,,*16
$GPGGA,103414.030,5533.86231,N,03759.01781,E,1,12,0.90,132.90,M,,M,,*48
$GPRMC,103414.090,A,5533.86129,N,03759.01795,E,59.02,176.00,300325,,,*1A
$GPGGA,103414.090,5533.86129,N,03759.01795,E,1,11,0.90,132.90,M,,M,,*4E
$GPRMC,103414.150,A,5533.86028,N,03759.01807,E,59.02,176.00,300325,,,*13
$GPGGA,103414.150,5533.86028,N,03759.01807,E,1,11,0.90,132.90,M,,M,,*47
$GPRMC,103414.220,A,5533.85928,N,03759.01818,E,58.83,176.10,300325,,,*1A
$GPGGA,103414.220,5533.85928,N,03759.01818,E,1,12,0.90,132.90,M,,M,,*44
$GPRMC,103414.280,A,5533.85827,N,03759.01829,E,58.67,176.30,300325,,,*14
$GPGGA,103414.280,5533.85827,N,03759.01829,E,1,12,0.90,132.90,M,,M,,*42
$GPRMC,103414.340,A,5533.85726,N,03759.01841,E,58.84,176.30,300325,,,*14
$GPGGA,103414.340,5533.85726,N,03759.01841,E,1,13,0.90,132.90,M,,M,,*4E
$GPRMC,103414.400,A,5533.85622,N,03759.01854,E,59.36,176.20,300325,,,*1F
$GPGGA,103414.400,5533.85622,N,03759.01854,E,1,14,0.90,132.90,M,,M,,*4B
$GPRMC,103414.460,A,5533.85520,N,03759.01865,E,59.59,176.30,300325,,,*12
$GPGGA,103414.460,5533.85520,N,03759.01865,E,1,14,0.90,132.90,M,,M,,*4E
$GPRMC,103414.530,A,5533.85417,N,03759.01878,E,59.81,176.30,300325,,,*1A
$GPGGA,103414.530,5533.85417,N,03759.01878,E,1,14,0.90,132.90,M,,M,,*43
$GPRMC,103414.590,A,5533.85313,N,03759.01889,E,59.96,176.40,300325,,,*1C
$GPGGA,103414.590,5533.85313,N,03759.01889,E,1,14,0.90,132.90,M,,M,,*44
$GPRMC,103414.650,A,5533.85209,N,03759.01901,E,60.24,176.40,300325,,,*1B
$GPGGA,103414.650,5533.85209,N,03759.01901,E,1,14,0.90,132.90,M,,M,,*40
$GPRMC,103414.710,A,5533.85104,N,03759.01912,E,60.58,176.50,300325,,,*18
$GPGGA,103414.710,5533.85104,N,03759.01912,E,1,13,0.90,132.90,M,,M,,*4E
$GPRMC,103414.770,A,5533.85000,N,03759.01923,E,60.71,176.60,300325,,,*11
$GPGGA,103414.770,5533.85000,N,03759.01923,E,1,15,0.70,132.90,M,,M,,*47
$GPRMC,103414.840,A,5533.84895,N,03759.01934,E,60.93,176.60,300325,,,*12
$GPGGA,103414.840,5533.84895,N,03759.01934,E,1,15,0.70,132.90,M,,M,,*48
$GPRMC,103414.900,A,5533.84789,N,03759.01945,E,61.13,176.70,300325,,,*1B
$GPGGA,103414.900,5533.84789,N,03759.01945,E,1,15,0.70,133.00,M,,M,,*41
$GPRMC,103414.960,A,5533.84683,N,03759.01957,E,61.40,176.70,300325,,,*13
$GPGGA,103414.960,5533.84683,N,03759.01957,E,1,15,0.70,133.00,M,,M,,*4F
$GPRMC,103415.020,A,5533.84577,N,03759.01968,E,61.61,176.60,300325,,,*19
$GPGGA,103415.020,5533.84577,N,03759.01968,E,1,15,0.70,133.00,M,,M,,*47
$GPRMC,103415.080,A,5533.84471,N,03759.01980,E,61.74,176.60,300325,,,*16
$GPGGA,103415.080,5533.84471,N,03759.01980,E,1,15,0.70,133.00,M,,M,,*4C
$GPRMC,103415.150,A,5533.84363,N,03759.01994,E,62.11,176.40,300325,,,*19
$GPGGA,103415.150,5533.84363,N,03759.01994,E,1,15,0.70,133.00,M,,M,,*41
$GPRMC,103415.210,A,5533.84255,N,03759.02006,E,62.33,176.40,300325,,,*1B
$GPGGA,103415.210,5533.84255,N,03759.02006,E,1,15,0.70,133.00,M,,M,,*43
$GPRMC,103415.270,A,5533.84147,N,03759.02019,E,62.54,176.30,300325,,,*15
$GPGGA,103415.270,5533.84147,N,03759.02019,E,1,15,0.70,133.00,M,,M,,*4B
$GPRMC,103415.330,A,5533.84039,N,03759.02033,E,62.61,176.20,300325,,,*17
$GPGGA,103415.330,5533.84039,N,03759.02033,E,1,15,0.70,133.10,M,,M,,*4F
$GPRMC,103415.390,A,5533.83930,N,03759.02049,E,62.93,175.90,300325,,,*12
$GPGGA,103415.390,5533.83930,N,03759.02049,E,1,14,0.70,133.10,M,,M,,*4E
$GPRMC,103415.460,A,5533.83821,N,03759.02062,E,63.34,176.00,300325,,,*14
$GPGGA,103415.460,5533.83821,N,03759.02062,E,1,14,0.70,133.10,M,,M,,*4E
$GPRMC,103415.520,A,5533.83712,N,03759.02075,E,63.38,176.10,300325,,,*15
$GPGGA,103415.520,5533.83712,N,03759.02075,E,1,14,0.70,133.10,M,,M,,*42
$GPRMC,103415.580,A,5533.83603,N,03759.02087,E,63.54,176.20,300325,,,*1A
$GPGGA,103415.580,5533.83603,N,03759.02087,E,1,15,0.70,133.00,M,,M,,*44
$GPRMC,103415.640,A,5533.83493,N,03759.02103,E,63.77,175.90,300325,,,*1A
$GPGGA,103415.640,5533.83493,N,03759.02103,E,1,14,0.70,133.10,M,,M,,*4D
$GPRMC,103415.700,A,5533.83382,N,03759.02118,E,63.99,175.70,300325,,,*1C
$GPGGA,103415.700,5533.83382,N,03759.02118,E,1,14,0.70,133.10,M,,M,,*45
$GPRMC,103415.770,A,5533.83271,N,03759.02135,E,64.35,175.50,300325,,,*1A
$GPGGA,103415.770,5533.83271,N,03759.02135,E,1,14,0.70,133.20,M,,M,,*43
$GPRMC,103415.830,A,5533.83160,N,03759.02150,E,64.48,175.50,300325,,,*1B
$GPGGA,103415.830,5533.83160,N,03759.02150,E,1,15,0.70,133.20,M,,M,,*49
$GPRMC,103415.890,A,5533.83048,N,03759.02170,E,64.74,175.00,300325,,,*12
$GPGGA,103415.890,5533.83048,N,03759.02170,E,1,15,0.70,133.20,M,,M,,*4A
$GPRMC,103415.950,A,5533.82937,N,03759.02190,E,64.82,174.60,300325,,,*1F
$GPGGA,103415.950,5533.82937,N,03759.02190,E,1,14,0.70,133.20,M,,M,,*48
$GPRMC,103416.010,A,5533.82826,N,03759.02214,E,64.79,173.90,300325,,,*13
$GPGGA,103416.010,5533.82826,N,03759.02214,E,1,13,0.70,133.30,M,,M,,*4E
$GPRMC,103416.080,A,5533.82714,N,03759.02240,E,65.05,173.20,300325,,,*14
$GPGGA,103416.080,5533.82714,N,03759.02240,E,1,13,0.70,133.30,M,,M,,*48
$GPRMC,103416.140,A,5533.82602,N,03759.02268,E,65.37,172.60,300325,,,*11
$GPGGA,103416.140,5533.82602,N,03759.02268,E,1,13,0.70,133.30,M,,M,,*49
$GPRMC,103416.200,A,5533.82490,N,03759.02299,E,65.60,171.90,300325,,,*1F
$GPGGA,103416.200,5533.82490,N,03759.02299,E,1,13,0.70,133.30,M,,M,,*49
$GPRMC,103416.260,A,5533.82378,N,03759.02333,E,65.70,171.10,300325,,,*10
$GPGGA,103416.260,5533.82378,N,03759.02333,E,1,13,0.70,133.30,M,,M,,*4F
$GPRMC,103416.320,A,5533.82267,N,03759.02369,E,65.69,170.30,300325,,,*1E
$GPGGA,103416.320,5533.82267,N,03759.02369,E,1,13,0.70,133.30,M,,M,,*4A
$GPRMC,103416.390,A,5533.82155,N,03759.02409,E,65.96,169.60,300325,,,*1B
$GPGGA,103416.390,5533.82155,N,03759.02409,E,1,14,0.70,133.30,M,,M,,*45
$GPRMC,103416.450,A,5533.82043,N,03759.02451,E,66.12,168.80,300325,,,*1B
$GPGGA,103416.450,5533.82043,N,03759.02451,E,1,14,0.70,133.30,M,,M,,*45
$GPRMC,103416.510,A,5533.81932,N,03759.02496,E,66.13,167.90,300325,,,*16
$GPGGA,103416.510,5533.81932,N,03759.02496,E,1,14,0.70,133.30,M,,M,,*47
$GPRMC,103416.570,A,5533.81821,N,03759.02543,E,66.26,167.20,300325,,,*17
$GPGGA,103416.570,5533.81821,N,03759.02543,E,1,15,0.70,133.30,M,,M,,*4A
$GPRMC,103416.630,A,5533.81709,N,03759.02594,E,66.54,166.40,300325,,,*1D
$GPGGA,103416.630,5533.81709,N,03759.02594,E,1,15,0.70,133.30,M,,M,,*42
$GPRMC,103416.700,A,5533.81598,N,03759.02645,E,66.66,165.90,300325,,,*15
$GPGGA,103416.700,5533.81598,N,03759.02645,E,1,15,0.70,133.30,M,,M,,*45
$GPRMC,103416.760,A,5533.81487,N,03759.02700,E,66.66,165.20,300325,,,*17
$GPGGA,103416.760,5533.81487,N,03759.02700,E,1,15,0.70,133.30,M,,M,,*4C
$GPRMC,103416.820,A,5533.81376,N,03759.02758,E,66.85,164.40,300325,,,*12
$GPGGA,103416.820,5533.81376,N,03759.02758,E,1,15,0.70,133.40,M,,M,,*44
$GPRMC,103416.880,A,5533.81265,N,03759.02817,E,67.00,163.80,300325,,,*18
$GPGGA,103416.880,5533.81265,N,03759.02817,E,1,15,0.70,133.40,M,,M,,*49
$GPRMC,103416.940,A,5533.81154,N,03759.02879,E,67.14,163.10,300325,,,*10
$GPGGA,103416.940,5533.81154,N,03759.02879,E,1,15,0.70,133.40,M,,M,,*4D
$GPRMC,103417.010,A,5533.81044,N,03759.02943,E,67.21,162.50,300325,,,*16
$GPGGA,103417.010,5533.81044,N,03759.02943,E,1,15,0.60,133.40,M,,M,,*49
$GPRMC,103417.070,A,5533.80934,N,03759.03010,E,67.41,161.80,300325,,,*19
$GPGGA,103417.070,5533.80934,N,03759.03010,E,1,15,0.60,133.40,M,,M,,*4E
$GPRMC,103417.130,A,5533.80824,N,03759.03077,E,67.56,161.30,300325,,,*10
$GPGGA,103417.130,5533.80824,N,03759.03077,E,1,15,0.60,133.40,M,,M,,*4A
$GPRMC,103417.190,A,5533.80715,N,03759.03149,E,67.80,160.50,300325,,,*17
$GPGGA,103417.190,5533.80715,N,03759.03149,E,1,15,0.60,133.40,M,,M,,*41
$GPRMC,103417.250,A,5533.80606,N,03759.03224,E,67.77,159.60,300325,,,*12
$GPGGA,103417.250,5533.80606,N,03759.03224,E,1,15,0.60,133.40,M,,M,,*45
$GPRMC,103417.320,A,5533.80498,N,03759.03300,E,67.78,159.00,300325,,,*1F
$GPGGA,103417.320,5533.80498,N,03759.03300,E,1,15,0.60,133.40,M,,M,,*41
$GPRMC,103417.380,A,5533.80389,N,03759.03377,E,68.01,158.50,300325,,,*17
$GPGGA,103417.380,5533.80389,N,03759.03377,E,1,15,0.60,133.50,M,,M,,*4D
$GPRMC,103417.440,A,5533.80281,N,03759.03458,E,68.21,157.70,300325,,,*10
$GPGGA,103417.440,5533.80281,N,03759.03458,E,1,15,0.60,133.50,M,,M,,*45
$GPRMC,103417.500,A,5533.80172,N,03759.03543,E,68.51,156.90,300325,,,*19
$GPGGA,103417.500,5533.80172,N,03759.03543,E,1,15,0.60,133.50,M,,M,,*44
$GPRMC,103417.560,A,5533.80064,N,03759.03629,E,68.78,156.30,300325,,,*17
$GPGGA,103417.560,5533.80064,N,03759.03629,E,1,15,0.60,133.50,M,,M,,*4B
$GPRMC,103417.630,A,5533.79957,N,03759.03717,E,68.73,155.70,300325,,,*1E
$GPGGA,103417.630,5533.79957,N,03759.03717,E,1,15,0.60,133.50,M,,M,,*4E
$GPRMC,103417.690,A,5533.79851,N,03759.03807,E,68.67,155.00,300325,,,*1F
$GPGGA,103417.690,5533.79851,N,03759.03807,E,1,15,0.60,133.50,M,,M,,*4D
$GPRMC,103417.750,A,5533.79744,N,03759.03899,E,68.91,154.40,300325,,,*12
$GPGGA,103417.750,5533.79744,N,03759.03899,E,1,15,0.60,133.50,M,,M,,*4C
$GPRMC,103417.810,A,5533.79637,N,03759.03994,E,69.21,153.80,300325,,,*11
$GPGGA,103417.810,5533.79637,N,03759.03994,E,1,15,0.70,133.50,M,,M,,*4F
$GPRMC,103417.870,A,5533.79531,N,03759.04090,E,69.28,153.30,300325,,,*1A
$GPGGA,103417.870,5533.79531,N,03759.04090,E,1,15,0.70,133.60,M,,M,,*45
$GPRMC,103417.940,A,5533.79425,N,03759.04189,E,69.23,152.70,300325,,,*1B
$GPGGA,103417.940,5533.79425,N,03759.04189,E,1,15,0.70,133.60,M,,M,,*4A
$GPRMC,103418.000,A,5533.79320,N,03759.04290,E,69.40,152.00,300325,,,*12
$GPGGA,103418.000,5533.79320,N,03759.04290,E,1,15,0.70,133.60,M,,M,,*41
$GPRMC,103418.060,A,5533.79215,N,03759.04392,E,69.56,151.50,300325,,,*11
$GPGGA,103418.060,5533.79215,N,03759.04392,E,1,15,0.70,133.70,M,,M,,*42
$GPRMC,103418.120,A,5533.79109,N,03759.04496,E,69.83,151.20,300325,,,*16
$GPGGA,103418.120,5533.79109,N,03759.04496,E,1,15,0.70,133.70,M,,M,,*4A
$GPRMC,103418.180,A,5533.79005,N,03759.04601,E,69.90,150.70,300325,,,*1B
$GPGGA,103418.180,5533.79005,N,03759.04601,E,1,15,0.70,133.70,M,,M,,*41
$GPRMC,103418.250,A,5533.78901,N,03759.04710,E,70.01,150.00,300325,,,*1F
$GPGGA,103418.250,5533.78901,N,03759.04710,E,1,15,0.70,133.80,M,,M,,*4D
$GPRMC,103418.310,A,5533.78796,N,03759.04819,E,70.19,149.60,300325,,,*1B
$GPGGA,103418.310,5533.78796,N,03759.04819,E,1,15,0.70,133.80,M,,M,,*4E
$GPRMC,103418.370,A,5533.78692,N,03759.04928,E,70.29,149.40,300325,,,*1A
$GPGGA,103418.370,5533.78692,N,03759.04928,E,1,15,0.70,133.80,M,,M,,*4E
$GPRMC,103418.430,A,5533.78589,N,03759.05038,E,70.28,149.10,300325,,,*1D
$GPGGA,103418.430,5533.78589,N,03759.05038,E,1,15,0.70,133.90,M,,M,,*4C
$GPRMC,103418.490,A,5533.78486,N,03759.05151,E,70.53,148.60,300325,,,*1D
$GPGGA,103418.490,5533.78486,N,03759.05151,E,1,15,0.70,133.90,M,,M,,*46
$GPRMC,103418.560,A,5533.78383,N,03759.05264,E,70.66,148.20,300325,,,*16
$GPGGA,103418.560,5533.78383,N,03759.05264,E,1,15,0.70,133.90,M,,M,,*4F
$GPRMC,103418.620,A,5533.78281,N,03759.05377,E,70.30,148.00,300325,,,*10
$GPGGA,103418.620,5533.78281,N,03759.05377,E,1,15,0.70,133.90,M,,M,,*48
$GPRMC,103418.680,A,5533.78181,N,03759.05490,E,69.74,147.70,300325,,,*17
$GPGGA,103418.680,5533.78181,N,03759.05490,E,1,15,0.70,133.90,M,,M,,*4F
$GPRMC,103418.740,A,5533.78081,N,03759.05604,E,69.49,147.40,300325,,,*19
$GPGGA,103418.740,5533.78081,N,03759.05604,E,1,15,0.70,134.00,M,,M,,*42
$GPRMC,103418.800,A,5533.77983,N,03759.05716,E,68.64,147.20,300325,,,*1C
$GPGGA,103418.800,5533.77983,N,03759.05716,E,1,15,0.70,134.00,M,,M,,*4F
$GPRMC,103418.870,A,5533.77889,N,03759.05826,E,67.36,146.90,300325,,,*1E
$GPGGA,103418.870,5533.77889,N,03759.05826,E,1,15,0.70,134.00,M,,M,,*4F
$GPRMC,103418.930,A,5533.77795,N,03759.05934,E,66.30,146.90,300325,,,*1C
$GPGGA,103418.930,5533.77795,N,03759.05934,E,1,15,0.70,134.00,M,,M,,*4A
$GPRMC,103418.990,A,5533.77703,N,03759.06042,E,65.40,146.70,300325,,,*18
$GPGGA,103418.990,5533.77703,N,03759.06042,E,1,15,0.70,134.10,M,,M,,*45
$GPRMC,103419.050,A,5533.77613,N,03759.06148,E,64.12,146.40,300325,,,*12
$GPGGA,103419.050,5533.77613,N,03759.06148,E,1,15,0.70,134.10,M,,M,,*4A
$GPRMC,103419.110,A,5533.77527,N,03759.06251,E,62.56,146.20,300325,,,*18
$GPGGA,103419.110,5533.77527,N,03759.06251,E,1,15,0.70,134.10,M,,M,,*40
$GPRMC,103419.180,A,5533.77442,N,03759.06355,E,61.46,145.90,300325,,,*1C
$GPGGA,103419.180,5533.77442,N,03759.06355,E,1,15,0.70,134.10,M,,M,,*4E
$GPRMC,103419.240,A,5533.77358,N,03759.06457,E,60.47,145.60,300325,,,*15
$GPGGA,103419.240,5533.77358,N,03759.06457,E,1,15,0.70,134.10,M,,M,,*48
$GPRMC,103419.300,A,5533.77277,N,03759.06559,E,59.34,145.20,300325,,,*19
$GPGGA,103419.300,5533.77277,N,03759.06559,E,1,15,0.70,134.10,M,,M,,*4E
$GPRMC,103419.360,A,5533.77200,N,03759.06658,E,57.72,144.70,300325,,,*15
$GPGGA,103419.360,5533.77200,N,03759.06658,E,1,15,0.70,134.20,M,,M,,*49
$GPRMC,103419.420,A,5533.77123,N,03759.06755,E,56.39,144.60,300325,,,*17
$GPGGA,103419.420,5533.77123,N,03759.06755,E,1,15,0.60,134.20,M,,M,,*45
$GPRMC,103419.490,A,5533.77048,N,03759.06853,E,55.52,144.10,300325,,,*10
$GPGGA,103419.490,5533.77048,N,03759.06853,E,1,15,0.60,134.20,M,,M,,*4B
$GPRMC,103419.550,A,5533.76975,N,03759.06951,E,54.70,143.50,300325,,,*1A
$GPGGA,103419.550,5533.76975,N,03759.06951,E,1,15,0.60,134.20,M,,M,,*43
$GPRMC,103419.610,A,5533.76903,N,03759.07048,E,53.78,143.20,300325,,,*14
$GPGGA,103419.610,5533.76903,N,03759.07048,E,1,15,0.60,134.30,M,,M,,*44
$GPRMC,103419.670,A,5533.76833,N,03759.07144,E,52.93,142.60,300325,,,*1C
$GPGGA,103419.670,5533.76833,N,03759.07144,E,1,15,0.60,134.30,M,,M,,*4D
$GPRMC,103419.730,A,5533.76764,N,03759.07241,E,52.19,142.00,300325,,,*16
$GPGGA,103419.730,5533.76764,N,03759.07241,E,1,15,0.60,134.30,M,,M,,*43
$GPRMC,103419.800,A,5533.76698,N,03759.07336,E,51.31,141.50,300325,,,*16
$GPGGA,103419.800,5533.76698,N,03759.07336,E,1,15,0.60,134.40,M,,M,,*4B
$GPRMC,103419.860,A,5533.76633,N,03759.07432,E,50.43,140.80,300325,,,*1A
$GPGGA,103419.860,5533.76633,N,03759.07432,E,1,15,0.60,134.40,M,,M,,*4F
$GPRMC,103419.920,A,5533.76570,N,03759.07526,E,49.45,140.30,300325,,,*1A
$GPGGA,103419.920,5533.76570,N,03759.07526,E,1,15,0.60,134.40,M,,M,,*4A
$GPRMC,103419.980,A,5533.76510,N,03759.07619,E,48.38,139.70,300325,,,*18
$GPGGA,103419.980,5533.76510,N,03759.07619,E,1,15,0.60,134.40,M,,M,,*49
$GPRMC,103420.040,A,5533.76450,N,03759.07712,E,47.49,139.30,300325,,,*15
$GPGGA,103420.040,5533.76450,N,03759.07712,E,1,15,0.60,134.40,M,,M,,*49
$GPRMC,103420.110,A,5533.76391,N,03759.07805,E,46.87,138.70,300325,,,*14
$GPGGA,103420.110,5533.76391,N,03759.07805,E,1,15,0.60,134.40,M,,M,,*4E
$GPRMC,103420.170,A,5533.76332,N,03759.07899,E,46.59,138.20,300325,,,*18
$GPGGA,103420.170,5533.76332,N,03759.07899,E,1,15,0.60,134.40,M,,M,,*44
$GPRMC,103420.230,A,5533.76275,N,03759.07994,E,46.27,137.60,300325,,,*13
$GPGGA,103420.230,5533.76275,N,03759.07994,E,1,15,0.60,134.50,M,,M,,*4C
$GPRMC,103420.290,A,5533.76218,N,03759.08091,E,46.20,136.70,300325,,,*16
$GPGGA,103420.290,5533.76218,N,03759.08091,E,1,15,0.60,134.50,M,,M,,*4E
$GPRMC,103420.350,A,5533.76161,N,03759.08190,E,46.49,135.90,300325,,,*14
$GPGGA,103420.350,5533.76161,N,03759.08190,E,1,15,0.60,134.50,M,,M,,*4E
$GPRMC,103420.420,A,5533.76106,N,03759.08294,E,46.83,134.60,300325,,,*1A
$GPGGA,103420.420,5533.76106,N,03759.08294,E,1,15,0.60,134.50,M,,M,,*48
$GPRMC,103420.480,A,5533.76052,N,03759.08401,E,47.08,133.20,300325,,,*1B
$GPGGA,103420.480,5533.76052,N,03759.08401,E,1,15,0.60,134.50,M,,M,,*48
$GPRMC,103420.540,A,5533.75999,N,03759.08509,E,47.06,131.90,300325,,,*15
$GPGGA,103420.540,5533.75999,N,03759.08509,E,1,15,0.60,134.50,M,,M,,*41
$GPRMC,103420.600,A,5533.75947,N,03759.08618,E,47.14,131.00,300325,,,*18
$GPGGA,103420.600,5533.75947,N,03759.08618,E,1,15,0.60,134.50,M,,M,,*46
$GPRMC,103420.660,A,5533.75895,N,03759.08729,E,47.47,130.20,300325,,,*16
$GPGGA,103420.660,5533.75895,N,03759.08729,E,1,15,0.60,134.50,M,,M,,*4D
$GPRMC,103420.730,A,5533.75844,N,03759.08844,E,47.78,129.10,300325,,,*1D
$GPGGA,103420.730,5533.75844,N,03759.08844,E,1,15,0.60,134.50,M,,M,,*41
$GPRMC,103420.790,A,5533.75795,N,03759.08960,E,47.99,128.20,300325,,,*1E
$GPGGA,103420.790,5533.75795,N,03759.08960,E,1,15,0.60,134.50,M,,M,,*4F
$GPRMC,103420.850,A,5533.75745,N,03759.09077,E,48.05,127.30,300325,,,*1A
$GPGGA,103420.850,5533.75745,N,03759.09077,E,1,15,0.60,134.50,M,,M,,*4F
$GPRMC,103420.910,A,5533.75697,N,03759.09195,E,48.09,126.60,300325,,,*14
$GPGGA,103420.910,5533.75697,N,03759.09195,E,1,15,0.60,134.50,M,,M,,*49
$GPRMC,103420.970,A,5533.75650,N,03759.09316,E,48.18,125.60,300325,,,*13
$GPGGA,103420.970,5533.75650,N,03759.09316,E,1,15,0.60,134.50,M,,M,,*4D
$GPRMC,103421.040,A,5533.75604,N,03759.09439,E,48.31,124.40,300325,,,*1B
$GPGGA,103421.040,5533.75604,N,03759.09439,E,1,15,0.60,134.60,M,,M,,*4E
$GPRMC,103421.100,A,5533.75560,N,03759.09562,E,48.20,123.30,300325,,,*10
$GPGGA,103421.100,5533.75560,N,03759.09562,E,1,15,0.60,134.60,M,,M,,*45
$GPRMC,103421.160,A,5533.75517,N,03759.09687,E,48.27,122.50,300325,,,*1E
$GPGGA,103421.160,5533.75517,N,03759.09687,E,1,15,0.60,134.50,M,,M,,*48
$GPRMC,103421.220,A,5533.75475,N,03759.09813,E,48.39,121.40,300325,,,*12
$GPGGA,103421.220,5533.75475,N,03759.09813,E,1,15,0.60,134.50,M,,M,,*49
$GPRMC,103421.280,A,5533.75434,N,03759.09943,E,48.67,120.20,300325,,,*15
$GPGGA,103421.280,5533.75434,N,03759.09943,E,1,15,0.60,134.50,M,,M,,*42
$GPRMC,103421.350,A,5533.75395,N,03759.10076,E,48.97,119.10,300325,,,*14
$GPGGA,103421.350,5533.75395,N,03759.10076,E,1,15,0.60,134.50,M,,M,,*45
$GPRMC,103421.410,A,5533.75358,N,03759.10209,E,48.98,117.60,300325,,,*1A
$GPGGA,103421.410,5533.75358,N,03759.10209,E,1,15,0.60,134.40,M,,M,,*4C
$GPRMC,103421.470,A,5533.75324,N,03759.10346,E,49.09,116.10,300325,,,*12
$GPGGA,103421.470,5533.75324,N,03759.10346,E,1,15,0.60,134.50,M,,M,,*4A
$GPRMC,103421.530,A,5533.75290,N,03759.10484,E,49.12,114.90,300325,,,*10
$GPGGA,103421.530,5533.75290,N,03759.10484,E,1,15,0.60,134.50,M,,M,,*48
$GPRMC,103421.590,A,5533.75260,N,03759.10624,E,49.14,113.40,300325,,,*11
$GPGGA,103421.590,5533.75260,N,03759.10624,E,1,15,0.60,134.50,M,,M,,*45
$GPRMC,103421.660,A,5533.75231,N,03759.10763,E,49.02,112.00,300325,,,*19
$GPGGA,103421.660,5533.75231,N,03759.10763,E,1,15,0.60,134.50,M,,M,,*4F
$GPRMC,103421.720,A,5533.75203,N,03759.10903,E,48.87,111.00,300325,,,*1A
$GPGGA,103421.720,5533.75203,N,03759.10903,E,1,15,0.60,134.50,M,,M,,*43
$GPRMC,103421.780,A,5533.75177,N,03759.11046,E,49.09,109.50,300325,,,*12
$GPGGA,103421.780,5533.75177,N,03759.11046,E,1,15,0.60,134.50,M,,M,,*40
$GPRMC,103421.840,A,5533.75154,N,03759.11189,E,49.19,108.10,300325,,,*16
$GPGGA,103421.840,5533.75154,N,03759.11189,E,1,15,0.60,134.50,M,,M,,*40
$GPRMC,103421.900,A,5533.75132,N,03759.11334,E,49.26,106.70,300325,,,*13
$GPGGA,103421.900,5533.75132,N,03759.11334,E,1,15,0.60,134.50,M,,M,,*41
$GPRMC,103421.970,A,5533.75113,N,03759.11480,E,49.29,105.30,300325,,,*17
$GPGGA,103421.970,5533.75113,N,03759.11480,E,1,15,0.60,134.50,M,,M,,*4D
$GPRMC,103422.030,A,5533.75096,N,03759.11626,E,49.23,103.80,300325,,,*1C
$GPGGA,103422.030,5533.75096,N,03759.11626,E,1,15,0.60,134.50,M,,M,,*41
$GPRMC,103422.090,A,5533.75082,N,03759.11773,E,49.14,102.20,300325,,,*1D
$GPGGA,103422.090,5533.75082,N,03759.11773,E,1,15,0.60,134.50,M,,M,,*4F
$GPRMC,103422.150,A,5533.75069,N,03759.11923,E,49.57,100.70,300325,,,*1E
$GPGGA,103422.150,5533.75069,N,03759.11923,E,1,15,0.60,134.50,M,,M,,*4C
$GPRMC,103422.210,A,5533.75058,N,03759.12073,E,49.67,99.20,300325,,,*23
$GPGGA,103422.210,5533.75058,N,03759.12073,E,1,15,0.60,134.50,M,,M,,*46
$GPRMC,103422.280,A,5533.75049,N,03759.12225,E,49.84,97.90,300325,,,*23
$GPGGA,103422.280,5533.75049,N,03759.12225,E,1,15,0.60,134.50,M,,M,,*4E
$GPRMC,103422.340,A,5533.75043,N,03759.12377,E,50.01,96.40,300325,,,*2B
$GPGGA,103422.340,5533.75043,N,03759.12377,E,1,15,0.60,134.50,M,,M,,*4F
$GPRMC,103422.400,A,5533.75040,N,03759.12531,E,50.32,94.60,300325,,,*2F
$GPGGA,103422.400,5533.75040,N,03759.12531,E,1,15,0.60,134.50,M,,M,,*4B
$GPRMC,103422.460,A,5533.75039,N,03759.12686,E,50.60,93.10,300325,,,*2F
$GPGGA,103422.460,5533.75039,N,03759.12686,E,1,15,0.60,134.50,M,,M,,*4C
$GPRMC,103422.520,A,5533.75039,N,03759.12840,E,50.69,91.90,300325,,,*2D
$GPGGA,103422.520,5533.75039,N,03759.12840,E,1,15,0.60,134.50,M,,M,,*4D
$GPRMC,103422.590,A,5533.75041,N,03759.12995,E,50.92,90.60,300325,,,*2A
$GPGGA,103422.590,5533.75041,N,03759.12995,E,1,15,0.60,134.50,M,,M,,*40
$GPRMC,103422.650,A,5533.75045,N,03759.13150,E,51.08,89.20,300325,,,*2F
$GPGGA,103422.650,5533.75045,N,03759.13150,E,1,15,0.60,134.50,M,,M,,*4B
$GPRMC,103422.710,A,5533.75051,N,03759.13307,E,51.36,87.90,300325,,,*27
$GPGGA,103422.710,5533.75051,N,03759.13307,E,1,15,0.60,134.50,M,,M,,*4B
$GPRMC,103422.770,A,5533.75059,N,03759.13465,E,51.60,86.60,300325,,,*27
$GPGGA,103422.770,5533.75059,N,03759.13465,E,1,15,0.60,134.50,M,,M,,*46
$GPRMC,103422.830,A,5533.75069,N,03759.13622,E,51.86,85.40,300325,,,*27
$GPGGA,103422.830,5533.75069,N,03759.13622,E,1,15,0.60,134.50,M,,M,,*4F
$GPRMC,103422.900,A,5533.75081,N,03759.13780,E,52.06,84.10,300325,,,*25
$GPGGA,103422.900,5533.75081,N,03759.13780,E,1,15,0.60,134.50,M,,M,,*42
$GPRMC,103422.960,A,5533.75094,N,03759.13938,E,52.33,83.10,300325,,,*2B
$GPGGA,103422.960,5533.75094,N,03759.13938,E,1,15,0.60,134.50,M,,M,,*4D
$GPRMC,103423.020,A,5533.75108,N,03759.14096,E,52.57,82.20,300325,,,*29
$GPGGA,103423.020,5533.75108,N,03759.14096,E,1,15,0.60,134.50,M,,M,,*4F
$GPRMC,103423.080,A,5533.75125,N,03759.14254,E,52.85,81.10,300325,,,*2F
$GPGGA,103423.080,5533.75125,N,03759.14254,E,1,15,0.60,134.50,M,,M,,*46
$GPRMC,103423.140,A,5533.75143,N,03759.14412,E,53.04,80.10,300325,,,*2F
$GPGGA,103423.140,5533.75143,N,03759.14412,E,1,15,0.60,134.50,M,,M,,*4F
$GPRMC,103423.210,A,5533.75162,N,03759.14571,E,53.26,79.20,300325,,,*2B
$GPGGA,103423.210,5533.75162,N,03759.14571,E,1,15,0.60,134.50,M,,M,,*4E
$GPRMC,103423.270,A,5533.75181,N,03759.14731,E,53.62,78.70,300325,,,*22
$GPGGA,103423.270,5533.75181,N,03759.14731,E,1,15,0.60,134.50,M,,M,,*43
$GPRMC,103423.330,A,5533.75202,N,03759.14891,E,53.90,78.10,300325,,,*21
$GPGGA,103423.330,5533.75202,N,03759.14891,E,1,15,0.60,134.50,M,,M,,*4B
$GPRMC,103423.390,A,5533.75223,N,03759.15051,E,54.09,77.50,300325,,,*21
$GPGGA,103423.390,5533.75223,N,03759.15051,E,1,15,0.60,134.40,M,,M,,*46
$GPRMC,103423.450,A,5533.75245,N,03759.15212,E,54.34,76.90,300325,,,*2C
$GPGGA,103423.450,5533.75245,N,03759.15212,E,1,15,0.60,134.40,M,,M,,*48
$GPRMC,103423.520,A,5533.75267,N,03759.15373,E,54.56,76.50,300325,,,*24
$GPGGA,103423.520,5533.75267,N,03759.15373,E,1,15,0.60,134.40,M,,M,,*48
$GPRMC,103423.580,A,5533.75291,N,03759.15534,E,54.86,76.10,300325,,,*2B
$GPGGA,103423.580,5533.75291,N,03759.15534,E,1,15,0.60,134.40,M,,M,,*4E
$GPRMC,103423.640,A,5533.75315,N,03759.15696,E,55.07,75.70,300325,,,*2F
$GPGGA,103423.640,5533.75315,N,03759.15696,E,1,15,0.60,134.40,M,,M,,*47
$GPRMC,103423.700,A,5533.75340,N,03759.15859,E,55.44,75.20,300325,,,*25
$GPGGA,103423.700,5533.75340,N,03759.15859,E,1,15,0.60,134.40,M,,M,,*4F
$GPRMC,103423.760,A,5533.75366,N,03759.16022,E,55.62,74.80,300325,,,*2F
$GPGGA,103423.760,5533.75366,N,03759.16022,E,1,15,0.60,134.40,M,,M,,*4A
$GPRMC,103423.830,A,5533.75391,N,03759.16186,E,56.03,74.80,300325,,,*26
$GPGGA,103423.830,5533.75391,N,03759.16186,E,1,15,0.60,134.30,M,,M,,*40
$GPRMC,103423.890,A,5533.75417,N,03759.16351,E,56.30,74.50,300325,,,*20
$GPGGA,103423.890,5533.75417,N,03759.16351,E,1,15,0.60,134.30,M,,M,,*4B
$GPRMC,103423.950,A,5533.75444,N,03759.16516,E,56.48,74.30,300325,,,*27
$GPGGA,103423.950,5533.75444,N,03759.16516,E,1,15,0.60,134.30,M,,M,,*45
$GPRMC,103424.010,A,5533.75472,N,03759.16680,E,56.53,73.80,300325,,,*22
$GPGGA,103424.010,5533.75472,N,03759.16680,E,1,15,0.60,134.30,M,,M,,*46
$GPRMC,103424.070,A,5533.75500,N,03759.16846,E,56.83,73.60,300325,,,*27
$GPGGA,103424.070,5533.75500,N,03759.16846,E,1,15,0.60,134.30,M,,M,,*40
$GPRMC,103424.140,A,5533.75528,N,03759.17014,E,57.29,73.50,300325,,,*23
$GPGGA,103424.140,5533.75528,N,03759.17014,E,1,15,0.60,134.30,M,,M,,*46
$GPRMC,103424.200,A,5533.75556,N,03759.17181,E,57.43,73.50,300325,,,*2C
$GPGGA,103424.200,5533.75556,N,03759.17181,E,1,15,0.60,134.30,M,,M,,*45
$GPRMC,103424.260,A,5533.75586,N,03759.17349,E,57.67,73.10,300325,,,*23
$GPGGA,103424.260,5533.75586,N,03759.17349,E,1,15,0.60,134.30,M,,M,,*48
$GPRMC,103424.320,A,5533.75617,N,03759.17517,E,57.93,72.70,300325,,,*2C
$GPGGA,103424.320,5533.75617,N,03759.17517,E,1,15,0.60,134.30,M,,M,,*4B
