$GPRMC,084116.400,A,5559.65854,N,03616.22562,E,58.82,2.37,240924,,,*1C
$GPGGA,084116.400,5559.65854,N,03616.22562,E,1,12,,250.50,M,,M,,*56
$GPRMC,084116.500,A,5559.66016,N,03616.22568,E,59.41,1.19,240924,,,*1B
$GPGGA,084116.500,5559.66016,N,03616.22568,E,1,12,,250.50,M,,M,,*50
$GPRMC,084116.600,A,5559.66184,N,03616.22580,E,60.06,2.29,240924,,,*1D
$GPGGA,084116.600,5559.66184,N,03616.22580,E,1,12,,250.50,M,,M,,*5F
$GPRMC,084116.700,A,5559.66352,N,03616.22598,E,60.55,3.43,240924,,,*17
$GPGGA,084116.700,5559.66352,N,03616.22598,E,1,12,,250.60,M,,M,,*5D
$GPRMC,084116.800,A,5559.66520,N,03616.22610,E,60.87,2.29,240924,,,*1A
$GPGGA,084116.800,5559.66520,N,03616.22610,E,1,12,,250.60,M,,M,,*52
$GPRMC,084116.900,A,5559.66694,N,03616.22628,E,61.67,3.31,240924,,,*1B
$GPGGA,084116.900,5559.66694,N,03616.22628,E,1,12,,250.70,M,,M,,*55
$GPRMC,084117.000,A,5559.66862,N,03616.22646,E,62.14,3.43,240924,,,*1E
$GPGGA,084117.000,5559.66862,N,03616.22646,E,1,12,,250.70,M,,M,,*52
$GPRMC,084117.100,A,5559.67042,N,03616.22664,E,62.96,3.20,240924,,,*1B
$GPGGA,084117.100,5559.67042,N,03616.22664,E,1,12,,250.70,M,,M,,*58
$GPRMC,084117.200,A,5559.67216,N,03616.22682,E,63.64,3.31,240924,,,*1F
$GPGGA,084117.200,5559.67216,N,03616.22682,E,1,12,,250.70,M,,M,,*50
$GPRMC,084117.300,A,5559.67396,N,03616.22700,E,64.38,3.20,240924,,,*12
$GPGGA,084117.300,5559.67396,N,03616.22700,E,1,12,,250.70,M,,M,,*53
$GPRMC,084117.400,A,5559.67576,N,03616.22724,E,64.80,4.26,240924,,,*19
$GPGGA,084117.400,5559.67576,N,03616.22724,E,1,12,,250.70,M,,M,,*5A
$GPRMC,084117.500,A,5559.67756,N,03616.22742,E,65.34,3.20,240924,,,*17
$GPGGA,084117.500,5559.67756,N,03616.22742,E,1,12,,250.80,M,,M,,*54
$GPRMC,084117.600,A,5559.67936,N,03616.22760,E,65.62,3.20,240924,,,*1F
$GPGGA,084117.600,5559.67936,N,03616.22760,E,1,12,,250.80,M,,M,,*5F
$GPRMC,084117.700,A,5559.68122,N,03616.22778,E,66.59,3.10,240924,,,*1D
$GPGGA,084117.700,5559.68122,N,03616.22778,E,1,12,,250.80,M,,M,,*55
$GPRMC,084117.800,A,5559.68308,N,03616.22802,E,67.25,4.13,240924,,,*14
$GPGGA,084117.800,5559.68308,N,03616.22802,E,1,12,,250.80,M,,M,,*52
$GPRMC,084117.900,A,5559.68500,N,03616.22826,E,67.86,4.00,240924,,,*16
$GPGGA,084117.900,5559.68500,N,03616.22826,E,1,12,,250.80,M,,M,,*5B
$GPRMC,084118.000,A,5559.68692,N,03616.22844,E,68.46,3.00,240924,,,*18
$GPGGA,084118.000,5559.68692,N,03616.22844,E,1,12,,250.80,M,,M,,*51
$GPRMC,084118.100,A,5559.68884,N,03616.22862,E,69.02,3.00,240924,,,*15
$GPGGA,084118.100,5559.68884,N,03616.22862,E,1,12,,250.80,M,,M,,*5D
$GPRMC,084118.200,A,5559.69076,N,03616.22886,E,69.81,4.00,240924,,,*14
$GPGGA,084118.200,5559.69076,N,03616.22886,E,1,12,,250.70,M,,M,,*5F
$GPRMC,084118.300,A,5559.69274,N,03616.22910,E,70.17,3.88,240924,,,*1B
$GPGGA,084118.300,5559.69274,N,03616.22910,E,1,12,,250.70,M,,M,,*50
$GPRMC,084118.400,A,5559.69466,N,03616.22928,E,70.90,3.00,240924,,,*1D
$GPGGA,084118.400,5559.69466,N,03616.22928,E,1,12,,250.70,M,,M,,*59
$GPRMC,084118.500,A,5559.69670,N,03616.22952,E,71.40,3.76,240924,,,*19
$GPGGA,084118.500,5559.69670,N,03616.22952,E,1,12,,250.70,M,,M,,*50
$GPRMC,084118.600,A,5559.69868,N,03616.22976,E,71.87,3.88,240924,,,*11
$GPGGA,084118.600,5559.69868,N,03616.22976,E,1,12,,250.80,M,,M,,*5D
$GPRMC,084118.700,A,5559.70066,N,03616.23000,E,72.66,3.88,240924,,,*1B
$GPGGA,084118.700,5559.70066,N,03616.23000,E,1,12,,250.80,M,,M,,*5B
$GPRMC,084118.800,A,5559.70270,N,03616.23024,E,73.15,3.76,240924,,,*13
$GPGGA,084118.800,5559.70270,N,03616.23024,E,1,12,,250.70,M,,M,,*58
$GPRMC,084118.900,A,5559.70474,N,03616.23048,E,73.82,3.76,240924,,,*14
$GPGGA,084118.900,5559.70474,N,03616.23048,E,1,12,,250.70,M,,M,,*51
$GPRMC,084119.000,A,5559.70678,N,03616.23072,E,74.15,3.76,240924,,,*12
$GPGGA,084119.000,5559.70678,N,03616.23072,E,1,12,,250.70,M,,M,,*5E
$GPRMC,084119.100,A,5559.70888,N,03616.23096,E,74.76,3.66,240924,,,*1C
$GPGGA,084119.100,5559.70888,N,03616.23096,E,1,12,,250.70,M,,M,,*54
$GPRMC,084119.200,A,5559.71098,N,03616.23120,E,75.18,3.66,240924,,,*12
$GPGGA,084119.200,5559.71098,N,03616.23120,E,1,12,,250.70,M,,M,,*53
$GPRMC,084119.300,A,5559.71308,N,03616.23150,E,75.70,4.57,240924,,,*15
$GPGGA,084119.300,5559.71308,N,03616.23150,E,1,12,,250.80,M,,M,,*50
$GPRMC,084119.400,A,5559.71518,N,03616.23174,E,76.14,3.66,240924,,,*17
$GPGGA,084119.400,5559.71518,N,03616.23174,E,1,12,,250.80,M,,M,,*56
$GPRMC,084119.500,A,5559.71728,N,03616.23204,E,76.91,4.57,240924,,,*1B
$GPGGA,084119.500,5559.71728,N,03616.23204,E,1,12,,250.80,M,,M,,*52
$GPRMC,084119.600,A,5559.71944,N,03616.23228,E,77.15,3.56,240924,,,*19
$GPGGA,084119.600,5559.71944,N,03616.23228,E,1,12,,250.80,M,,M,,*5B
$GPRMC,084119.700,A,5559.72160,N,03616.23258,E,77.68,4.44,240924,,,*1C
$GPGGA,084119.700,5559.72160,N,03616.23258,E,1,12,,250.80,M,,M,,*50
$GPRMC,084119.800,A,5559.72376,N,03616.23288,E,78.24,4.44,240924,,,*1C
$GPGGA,084119.800,5559.72376,N,03616.23288,E,1,12,,250.80,M,,M,,*57
$GPRMC,084119.900,A,5559.72592,N,03616.23318,E,78.53,4.44,240924,,,*19
$GPGGA,084119.900,5559.72592,N,03616.23318,E,1,12,,250.80,M,,M,,*52
$GPRMC,084120.000,A,5559.72814,N,03616.23348,E,78.82,4.32,240924,,,*11
$GPGGA,084120.000,5559.72814,N,03616.23348,E,1,12,,250.80,M,,M,,*57
$GPRMC,084120.100,A,5559.73030,N,03616.23378,E,78.84,4.44,240924,,,*1B
$GPGGA,084120.100,5559.73030,N,03616.23378,E,1,12,,250.80,M,,M,,*5A
$GPRMC,084120.200,A,5559.73246,N,03616.23414,E,78.59,5.33,240924,,,*17
$GPGGA,084120.200,5559.73246,N,03616.23414,E,1,12,,250.80,M,,M,,*57
$GPRMC,084120.300,A,5559.73462,N,03616.23444,E,78.48,4.44,240924,,,*12
$GPGGA,084120.300,5559.73462,N,03616.23444,E,1,12,,250.80,M,,M,,*53
$GPRMC,084120.400,A,5559.73678,N,03616.23480,E,78.75,5.33,240924,,,*1B
$GPGGA,084120.400,5559.73678,N,03616.23480,E,1,12,,250.80,M,,M,,*55
$GPRMC,084120.500,A,5559.73900,N,03616.23516,E,79.63,5.18,240924,,,*1B
$GPGGA,084120.500,5559.73900,N,03616.23516,E,1,12,,250.80,M,,M,,*5A
$GPRMC,084120.600,A,5559.74122,N,03616.23552,E,79.92,5.18,240924,,,*19
$GPGGA,084120.600,5559.74122,N,03616.23552,E,1,12,,250.80,M,,M,,*56
$GPRMC,084120.700,A,5559.74344,N,03616.23582,E,80.30,4.32,240924,,,*10
$GPGGA,084120.700,5559.74344,N,03616.23582,E,1,12,,250.90,M,,M,,*59
$GPRMC,084120.800,A,5559.74566,N,03616.23618,E,80.61,5.18,240924,,,*14
$GPGGA,084120.800,5559.74566,N,03616.23618,E,1,12,,250.90,M,,M,,*50
$GPRMC,084120.900,A,5559.74794,N,03616.23654,E,81.25,5.05,240924,,,*1F
$GPGGA,084120.900,5559.74794,N,03616.23654,E,1,12,,250.90,M,,M,,*56
$GPRMC,084121.000,A,5559.75016,N,03616.23690,E,81.51,5.18,240924,,,*1C
$GPGGA,084121.000,5559.75016,N,03616.23690,E,1,12,,250.90,M,,M,,*5A
$GPRMC,084121.100,A,5559.75244,N,03616.23726,E,82.38,5.05,240924,,,*14
$GPGGA,084121.100,5559.75244,N,03616.23726,E,1,12,,250.80,M,,M,,*53
$GPRMC,084121.200,A,5559.75472,N,03616.23762,E,82.35,5.05,240924,,,*19
$GPGGA,084121.200,5559.75472,N,03616.23762,E,1,12,,250.90,M,,M,,*52
$GPRMC,084121.300,A,5559.75700,N,03616.23798,E,82.76,5.05,240924,,,*1C
$GPGGA,084121.300,5559.75700,N,03616.23798,E,1,12,,250.90,M,,M,,*50
$GPRMC,084121.400,A,5559.75934,N,03616.23834,E,83.63,4.92,240924,,,*11
$GPGGA,084121.400,5559.75934,N,03616.23834,E,1,12,,250.90,M,,M,,*57
$GPRMC,084121.500,A,5559.76168,N,03616.23864,E,83.59,4.10,240924,,,*14
$GPGGA,084121.500,5559.76168,N,03616.23864,E,1,12,,250.90,M,,M,,*51
$GPRMC,084121.600,A,5559.76396,N,03616.23900,E,84.13,5.05,240924,,,*1B
$GPGGA,084121.600,5559.76396,N,03616.23900,E,1,12,,250.90,M,,M,,*52
$GPRMC,084121.700,A,5559.76630,N,03616.23930,E,84.59,4.10,240924,,,*1B
$GPGGA,084121.700,5559.76630,N,03616.23930,E,1,12,,250.80,M,,M,,*58
$GPRMC,084121.800,A,5559.76870,N,03616.23966,E,84.95,4.80,240924,,,*14
$GPGGA,084121.800,5559.76870,N,03616.23966,E,1,12,,250.80,M,,M,,*5E
$GPRMC,084121.900,A,5559.77104,N,03616.24002,E,85.74,4.92,240924,,,*1F
$GPGGA,084121.900,5559.77104,N,03616.24002,E,1,12,,250.90,M,,M,,*59
$GPRMC,084122.000,A,5559.77344,N,03616.24038,E,85.99,4.80,240924,,,*1A
$GPGGA,084122.000,5559.77344,N,03616.24038,E,1,12,,250.90,M,,M,,*5C
$GPRMC,084122.100,A,5559.77578,N,03616.24074,E,86.23,4.92,240924,,,*1B
$GPGGA,084122.100,5559.77578,N,03616.24074,E,1,12,,250.90,M,,M,,*5C
$GPRMC,084122.200,A,5559.77824,N,03616.24110,E,86.97,4.68,240924,,,*15
$GPGGA,084122.200,5559.77824,N,03616.24110,E,1,12,,250.90,M,,M,,*58
$GPRMC,084122.300,A,5559.78064,N,03616.24146,E,87.27,4.80,240924,,,*18
$GPGGA,084122.300,5559.78064,N,03616.24146,E,1,12,,250.90,M,,M,,*59
$GPRMC,084122.400,A,5559.78304,N,03616.24182,E,87.53,4.80,240924,,,*11
$GPGGA,084122.400,5559.78304,N,03616.24182,E,1,12,,250.90,M,,M,,*53
$GPRMC,084122.500,A,5559.78550,N,03616.24218,E,88.10,4.68,240924,,,*19
$GPGGA,084122.500,5559.78550,N,03616.24218,E,1,12,,250.90,M,,M,,*55
$GPRMC,084122.600,A,5559.78790,N,03616.24254,E,88.39,4.80,240924,,,*11
$GPGGA,084122.600,5559.78790,N,03616.24254,E,1,12,,250.90,M,,M,,*50
$GPRMC,084122.700,A,5559.79036,N,03616.24290,E,88.85,4.68,240924,,,*13
$GPGGA,084122.700,5559.79036,N,03616.24290,E,1,12,,250.90,M,,M,,*53
$GPRMC,084122.800,A,5559.79282,N,03616.24326,E,89.15,4.68,240924,,,*15
$GPGGA,084122.800,5559.79282,N,03616.24326,E,1,12,,250.90,M,,M,,*5D
$GPRMC,084122.900,A,5559.79534,N,03616.24362,E,89.56,4.57,240924,,,*15
$GPGGA,084122.900,5559.79534,N,03616.24362,E,1,12,,250.90,M,,M,,*56
$GPRMC,084123.000,A,5559.79780,N,03616.24398,E,90.00,4.68,240924,,,*12
$GPGGA,084123.000,5559.79780,N,03616.24398,E,1,12,,250.90,M,,M,,*56
$GPRMC,084123.100,A,5559.80032,N,03616.24434,E,90.26,4.57,240924,,,*12
$GPGGA,084123.100,5559.80032,N,03616.24434,E,1,12,,250.90,M,,M,,*5E
$GPRMC,084123.200,A,5559.80284,N,03616.24464,E,90.65,3.81,240924,,,*10
$GPGGA,084123.200,5559.80284,N,03616.24464,E,1,12,,250.90,M,,M,,*57
$GPRMC,084123.300,A,5559.80530,N,03616.24500,E,90.56,4.68,240924,,,*1A
$GPGGA,084123.300,5559.80530,N,03616.24500,E,1,12,,250.90,M,,M,,*5D
$GPRMC,084123.400,A,5559.80782,N,03616.24524,E,90.04,3.05,240924,,,*1B
$GPGGA,084123.400,5559.80782,N,03616.24524,E,1,12,,250.90,M,,M,,*57
$GPRMC,084123.500,A,5559.81028,N,03616.24554,E,88.71,3.90,240924,,,*1C
$GPGGA,084123.500,5559.81028,N,03616.24554,E,1,12,,250.90,M,,M,,*57
$GPRMC,084123.600,A,5559.81268,N,03616.24584,E,87.19,4.00,240924,,,*1B
$GPGGA,084123.600,5559.81268,N,03616.24584,E,1,12,,250.90,M,,M,,*5F
$GPRMC,084123.700,A,5559.81502,N,03616.24608,E,85.68,3.28,240924,,,*1F
$GPGGA,084123.700,5559.81502,N,03616.24608,E,1,12,,251.00,M,,M,,*5A
$GPRMC,084123.800,A,5559.81736,N,03616.24632,E,84.18,3.28,240924,,,*1A
$GPGGA,084123.800,5559.81736,N,03616.24632,E,1,12,,251.00,M,,M,,*59
$GPRMC,084123.900,A,5559.81964,N,03616.24656,E,82.73,3.37,240924,,,*15
$GPGGA,084123.900,5559.81964,N,03616.24656,E,1,12,,251.00,M,,M,,*53
$GPRMC,084124.000,A,5559.82186,N,03616.24680,E,81.24,3.46,240924,,,*10
$GPGGA,084124.000,5559.82186,N,03616.24680,E,1,12,,251.10,M,,M,,*50
$GPRMC,084124.100,A,5559.82408,N,03616.24698,E,79.90,2.60,240924,,,*16
$GPGGA,084124.100,5559.82408,N,03616.24698,E,1,12,,251.10,M,,M,,*5B
$GPRMC,084124.200,A,5559.82624,N,03616.24716,E,78.04,2.67,240924,,,*15
$GPGGA,084124.200,5559.82624,N,03616.24716,E,1,12,,251.20,M,,M,,*50
$GPRMC,084124.300,A,5559.82834,N,03616.24728,E,76.53,1.83,240924,,,*13
$GPGGA,084124.300,5559.82834,N,03616.24728,E,1,12,,251.20,M,,M,,*53
$GPRMC,084124.400,A,5559.83038,N,03616.24740,E,75.18,1.88,240924,,,*18
$GPGGA,084124.400,5559.83038,N,03616.24740,E,1,12,,251.30,M,,M,,*5E
$GPRMC,084124.500,A,5559.83242,N,03616.24740,E,74.07,0.00,240924,,,*18
$GPGGA,084124.500,5559.83242,N,03616.24740,E,1,12,,251.30,M,,M,,*50
$GPRMC,084124.600,A,5559.83446,N,03616.24734,E,73.00,359.06,240924,,,*13
$GPGGA,084124.600,5559.83446,N,03616.24734,E,1,12,,251.30,M,,M,,*52
$GPRMC,084124.700,A,5559.83644,N,03616.24728,E,72.05,359.03,240924,,,*1E
$GPGGA,084124.700,5559.83644,N,03616.24728,E,1,12,,251.40,M,,M,,*59
$GPRMC,084124.800,A,5559.83842,N,03616.24710,E,70.94,357.09,240924,,,*1C
$GPGGA,084124.800,5559.83842,N,03616.24710,E,1,12,,251.40,M,,M,,*55
$GPRMC,084124.900,A,5559.84034,N,03616.24686,E,69.96,356.00,240924,,,*1F
$GPGGA,084124.900,5559.84034,N,03616.24686,E,1,12,,251.50,M,,M,,*55
$GPRMC,084125.000,A,5559.84226,N,03616.24656,E,69.09,355.01,240924,,,*1F
$GPGGA,084125.000,5559.84226,N,03616.24656,E,1,12,,251.50,M,,M,,*51
$GPRMC,084125.100,A,5559.84412,N,03616.24614,E,68.36,352.80,240924,,,*1A
$GPGGA,084125.100,5559.84412,N,03616.24614,E,1,12,,251.50,M,,M,,*57
$GPRMC,084125.200,A,5559.84598,N,03616.24566,E,67.47,351.79,240924,,,*10
$GPGGA,084125.200,5559.84598,N,03616.24566,E,1,12,,251.50,M,,M,,*51
$GPRMC,084125.300,A,5559.84778,N,03616.24506,E,66.76,349.44,240924,,,*1F
$GPGGA,084125.300,5559.84778,N,03616.24506,E,1,12,,251.60,M,,M,,*59
$GPRMC,084125.400,A,5559.84958,N,03616.24440,E,66.00,348.41,240924,,,*12
$GPGGA,084125.400,5559.84958,N,03616.24440,E,1,12,,251.60,M,,M,,*51
$GPRMC,084125.500,A,5559.85132,N,03616.24362,E,65.45,345.93,240924,,,*11
$GPGGA,084125.500,5559.85132,N,03616.24362,E,1,12,,251.60,M,,M,,*52
$GPRMC,084125.600,A,5559.85306,N,03616.24284,E,65.04,345.93,240924,,,*1B
$GPGGA,084125.600,5559.85306,N,03616.24284,E,1,12,,251.60,M,,M,,*5D
$GPRMC,084125.700,A,5559.85474,N,03616.24188,E,64.42,342.28,240924,,,*13
$GPGGA,084125.700,5559.85474,N,03616.24188,E,1,12,,251.70,M,,M,,*50
$GPRMC,084125.800,A,5559.85642,N,03616.24080,E,64.03,340.23,240924,,,*1E
$GPGGA,084125.800,5559.85642,N,03616.24080,E,1,12,,251.60,M,,M,,*50
$GPRMC,084125.900,A,5559.85804,N,03616.23966,E,63.30,338.52,240924,,,*1B
$GPGGA,084125.900,5559.85804,N,03616.23966,E,1,12,,251.70,M,,M,,*5A
$GPRMC,084126.000,A,5559.85966,N,03616.23846,E,62.92,337.50,240924,,,*13
$GPGGA,084126.000,5559.85966,N,03616.23846,E,1,12,,251.70,M,,M,,*56
$GPRMC,084126.100,A,5559.86122,N,03616.23708,E,62.57,333.68,240924,,,*1A
$GPGGA,084126.100,5559.86122,N,03616.23708,E,1,12,,251.70,M,,M,,*59
$GPRMC,084126.200,A,5559.86272,N,03616.23564,E,62.01,331.77,240924,,,*18
$GPGGA,084126.200,5559.86272,N,03616.23564,E,1,12,,251.70,M,,M,,*54
$GPRMC,084126.300,A,5559.86422,N,03616.23402,E,61.81,328.87,240924,,,*17
$GPGGA,084126.300,5559.86422,N,03616.23402,E,1,12,,251.80,M,,M,,*58
$GPRMC,084126.400,A,5559.86560,N,03616.23240,E,61.56,326.72,240924,,,*19
$GPGGA,084126.400,5559.86560,N,03616.23240,E,1,12,,251.90,M,,M,,*59
$GPRMC,084126.500,A,5559.86704,N,03616.23066,E,61.97,325.95,240924,,,*19
$GPGGA,084126.500,5559.86704,N,03616.23066,E,1,12,,252.00,M,,M,,*54
$GPRMC,084126.600,A,5559.86842,N,03616.22880,E,62.37,322.99,240924,,,*14
$GPGGA,084126.600,5559.86842,N,03616.22880,E,1,12,,252.00,M,,M,,*5B
$GPRMC,084126.700,A,5559.86980,N,03616.22688,E,62.68,322.12,240924,,,*15
$GPGGA,084126.700,5559.86980,N,03616.22688,E,1,12,,252.00,M,,M,,*53
$GPRMC,084126.800,A,5559.87118,N,03616.22484,E,63.54,320.42,240924,,,*15
$GPGGA,084126.800,5559.87118,N,03616.22484,E,1,12,,252.10,M,,M,,*5B
$GPRMC,084126.900,A,5559.87250,N,03616.22268,E,64.01,317.54,240924,,,*1B
$GPGGA,084126.900,5559.87250,N,03616.22268,E,1,12,,252.20,M,,M,,*52
$GPRMC,084127.000,A,5559.87376,N,03616.22052,E,64.46,316.21,240924,,,*1D
$GPGGA,084127.000,5559.87376,N,03616.22052,E,1,12,,252.30,M,,M,,*55
$GPRMC,084127.100,A,5559.87502,N,03616.21818,E,64.94,313.92,240924,,,*1E
$GPGGA,084127.100,5559.87502,N,03616.21818,E,1,12,,252.30,M,,M,,*54
$GPRMC,084127.200,A,5559.87628,N,03616.21584,E,65.64,313.92,240924,,,*10
$GPGGA,084127.200,5559.87628,N,03616.21584,E,1,12,,252.40,M,,M,,*53
$GPRMC,084127.300,A,5559.87754,N,03616.21338,E,66.15,312.49,240924,,,*18
$GPGGA,084127.300,5559.87754,N,03616.21338,E,1,12,,252.40,M,,M,,*59
$GPRMC,084127.400,A,5559.87874,N,03616.21086,E,66.64,310.42,240924,,,*1B
$GPGGA,084127.400,5559.87874,N,03616.21086,E,1,12,,252.40,M,,M,,*55
$GPRMC,084127.500,A,5559.87988,N,03616.20828,E,67.04,308.31,240924,,,*1F
$GPGGA,084127.500,5559.87988,N,03616.20828,E,1,12,,252.50,M,,M,,*5A
$GPRMC,084127.600,A,5559.88102,N,03616.20564,E,67.26,307.67,240924,,,*10
$GPGGA,084127.600,5559.88102,N,03616.20564,E,1,12,,252.50,M,,M,,*59
$GPRMC,084127.700,A,5559.88216,N,03616.20294,E,67.78,307.05,240924,,,*10
$GPGGA,084127.700,5559.88216,N,03616.20294,E,1,12,,252.60,M,,M,,*55
$GPRMC,084127.800,A,5559.88324,N,03616.20012,E,68.53,304.41,240924,,,*16
$GPGGA,084127.800,5559.88324,N,03616.20012,E,1,12,,252.60,M,,M,,*56
$GPRMC,084127.900,A,5559.88426,N,03616.19724,E,68.89,302.35,240924,,,*18
$GPGGA,084127.900,5559.88426,N,03616.19724,E,1,12,,252.70,M,,M,,*5B
$GPRMC,084128.000,A,5559.88528,N,03616.19436,E,69.42,302.35,240924,,,*17
$GPGGA,084128.000,5559.88528,N,03616.19436,E,1,12,,252.70,M,,M,,*52
$GPRMC,084128.100,A,5559.88624,N,03616.19136,E,69.93,299.78,240924,,,*1A
$GPGGA,084128.100,5559.88624,N,03616.19136,E,1,12,,252.80,M,,M,,*56
$GPRMC,084128.200,A,5559.88720,N,03616.18830,E,70.43,299.29,240924,,,*13
$GPGGA,084128.200,5559.88720,N,03616.18830,E,1,12,,252.80,M,,M,,*5E
$GPRMC,084128.300,A,5559.88816,N,03616.18524,E,70.93,299.29,240924,,,*1D
$GPGGA,084128.300,5559.88816,N,03616.18524,E,1,12,,252.80,M,,M,,*5D
$GPRMC,084128.400,A,5559.88906,N,03616.18206,E,71.51,296.84,240924,,,*1A
$GPGGA,084128.400,5559.88906,N,03616.18206,E,1,12,,252.80,M,,M,,*5D
$GPRMC,084128.500,A,5559.88996,N,03616.17894,E,71.92,297.29,240924,,,*15
$GPGGA,084128.500,5559.88996,N,03616.17894,E,1,12,,252.90,M,,M,,*5A
$GPRMC,084128.600,A,5559.89086,N,03616.17570,E,72.50,296.41,240924,,,*1A
$GPGGA,084128.600,5559.89086,N,03616.17570,E,1,12,,252.90,M,,M,,*57
$GPRMC,084128.700,A,5559.89176,N,03616.17246,E,73.06,296.41,240924,,,*15
$GPGGA,084128.700,5559.89176,N,03616.17246,E,1,12,,252.90,M,,M,,*5A
$GPRMC,084128.800,A,5559.89272,N,03616.16916,E,73.48,297.48,240924,,,*10
$GPGGA,084128.800,5559.89272,N,03616.16916,E,1,12,,253.00,M,,M,,*55
$GPRMC,084128.900,A,5559.89362,N,03616.16592,E,73.92,296.41,240924,,,*1E
$GPGGA,084128.900,5559.89362,N,03616.16592,E,1,12,,253.00,M,,M,,*54
$GPRMC,084129.000,A,5559.89452,N,03616.16256,E,74.44,295.59,240924,,,*1B
$GPGGA,084129.000,5559.89452,N,03616.16256,E,1,12,,253.10,M,,M,,*56
$GPRMC,084129.100,A,5559.89542,N,03616.15926,E,74.84,296.00,240924,,,*16
$GPGGA,084129.100,5559.89542,N,03616.15926,E,1,12,,253.10,M,,M,,*58
$GPRMC,084129.200,A,5559.89626,N,03616.15584,E,75.33,293.71,240924,,,*1E
$GPGGA,084129.200,5559.89626,N,03616.15584,E,1,12,,253.10,M,,M,,*5E
$GPRMC,084129.300,A,5559.89716,N,03616.15242,E,75.79,295.20,240924,,,*1C
$GPGGA,084129.300,5559.89716,N,03616.15242,E,1,12,,253.20,M,,M,,*53
$GPRMC,084129.400,A,5559.89806,N,03616.14906,E,75.70,295.59,240924,,,*18
$GPGGA,084129.400,5559.89806,N,03616.14906,E,1,12,,253.20,M,,M,,*50
$GPRMC,084129.500,A,5559.89884,N,03616.14564,E,74.92,292.19,240924,,,*15
$GPGGA,084129.500,5559.89884,N,03616.14564,E,1,12,,253.20,M,,M,,*53
$GPRMC,084129.600,A,5559.89968,N,03616.14228,E,74.39,294.09,240924,,,*1C
$GPGGA,084129.600,5559.89968,N,03616.14228,E,1,12,,253.20,M,,M,,*5C
$GPRMC,084129.700,A,5559.90040,N,03616.13892,E,72.84,290.97,240924,,,*19
$GPGGA,084129.700,5559.90040,N,03616.13892,E,1,12,,253.20,M,,M,,*5A
$GPRMC,084129.800,A,5559.90112,N,03616.13568,E,71.46,291.67,240924,,,*1B
$GPGGA,084129.800,5559.90112,N,03616.13568,E,1,12,,253.20,M,,M,,*5B
$GPRMC,084129.900,A,5559.90184,N,03616.13244,E,70.29,291.67,240924,,,*14
$GPGGA,084129.900,5559.90184,N,03616.13244,E,1,12,,253.30,M,,M,,*5D
$GPRMC,084130.000,A,5559.90244,N,03616.12920,E,69.00,288.32,240924,,,*19
$GPGGA,084130.000,5559.90244,N,03616.12920,E,1,12,,253.30,M,,M,,*5B
$GPRMC,084130.100,A,5559.90310,N,03616.12608,E,67.65,290.72,240924,,,*1D
$GPGGA,084130.100,5559.90310,N,03616.12608,E,1,12,,253.30,M,,M,,*5F
$GPRMC,084130.200,A,5559.90364,N,03616.12296,E,66.58,287.20,240924,,,*10
$GPGGA,084130.200,5559.90364,N,03616.12296,E,1,12,,253.30,M,,M,,*5C
$GPRMC,084130.300,A,5559.90424,N,03616.11990,E,65.45,289.32,240924,,,*1E
$GPGGA,084130.300,5559.90424,N,03616.11990,E,1,12,,253.30,M,,M,,*50
$GPRMC,084130.400,A,5559.90472,N,03616.11690,E,64.08,285.97,240924,,,*1E
$GPGGA,084130.400,5559.90472,N,03616.11690,E,1,12,,253.40,M,,M,,*5C
$GPRMC,084130.500,A,5559.90526,N,03616.11396,E,62.87,288.18,240924,,,*17
$GPGGA,084130.500,5559.90526,N,03616.11396,E,1,12,,253.40,M,,M,,*5E
$GPRMC,084130.600,A,5559.90568,N,03616.11102,E,61.65,284.33,240924,,,*1B
$GPGGA,084130.600,5559.90568,N,03616.11102,E,1,12,,253.30,M,,M,,*5F
$GPRMC,084130.700,A,5559.90616,N,03616.10820,E,60.53,286.93,240924,,,*14
$GPGGA,084130.700,5559.90616,N,03616.10820,E,1,12,,253.30,M,,M,,*5C
$GPRMC,084130.800,A,5559.90652,N,03616.10532,E,59.48,282.60,240924,,,*1D
$GPGGA,084130.800,5559.90652,N,03616.10532,E,1,12,,253.30,M,,M,,*5D
$GPRMC,084130.900,A,5559.90688,N,03616.10256,E,58.48,283.13,240924,,,*1A
$GPGGA,084130.900,5559.90688,N,03616.10256,E,1,12,,253.20,M,,M,,*5F
$GPRMC,084131.000,A,5559.90718,N,03616.09974,E,57.46,280.77,240924,,,*19
$GPGGA,084131.000,5559.90718,N,03616.09974,E,1,12,,253.20,M,,M,,*5C
$GPRMC,084131.100,A,5559.90742,N,03616.09704,E,56.73,279.03,240924,,,*1C
$GPGGA,084131.100,5559.90742,N,03616.09704,E,1,12,,253.20,M,,M,,*5B
$GPRMC,084131.200,A,5559.90760,N,03616.09428,E,55.67,276.65,240924,,,*1B
$GPGGA,084131.200,5559.90760,N,03616.09428,E,1,12,,253.20,M,,M,,*55
$GPRMC,084131.300,A,5559.90778,N,03616.09158,E,55.26,276.80,240924,,,*1F
$GPGGA,084131.300,5559.90778,N,03616.09158,E,1,12,,253.20,M,,M,,*5F
$GPRMC,084131.400,A,5559.90784,N,03616.08888,E,54.51,272.28,240924,,,*19
$GPGGA,084131.400,5559.90784,N,03616.08888,E,1,12,,253.10,M,,M,,*5D
$GPRMC,084131.500,A,5559.90790,N,03616.08630,E,53.39,272.38,240924,,,*18
$GPGGA,084131.500,5559.90790,N,03616.08630,E,1,12,,253.10,M,,M,,*54
$GPRMC,084131.600,A,5559.90784,N,03616.08366,E,53.01,267.67,240924,,,*1D
$GPGGA,084131.600,5559.90784,N,03616.08366,E,1,12,,253.10,M,,M,,*54
$GPRMC,084131.700,A,5559.90778,N,03616.08108,E,52.42,267.62,240924,,,*16
$GPGGA,084131.700,5559.90778,N,03616.08108,E,1,12,,253.10,M,,M,,*5C
$GPRMC,084131.800,A,5559.90760,N,03616.07856,E,51.40,262.72,240924,,,*18
$GPGGA,084131.800,5559.90760,N,03616.07856,E,1,12,,253.10,M,,M,,*57
$GPRMC,084131.900,A,5559.90736,N,03616.07610,E,50.74,260.10,240924,,,*16
$GPGGA,084131.900,5559.90736,N,03616.07610,E,1,12,,253.10,M,,M,,*59
$GPRMC,084132.000,A,5559.90706,N,03616.07370,E,50.33,257.40,240924,,,*1E
$GPGGA,084132.000,5559.90706,N,03616.07370,E,1,12,,253.10,M,,M,,*53
$GPRMC,084132.100,A,5559.90670,N,03616.07130,E,49.82,254.98,240924,,,*1D
$GPGGA,084132.100,5559.90670,N,03616.07130,E,1,12,,253.00,M,,M,,*55
$GPRMC,084132.200,A,5559.90634,N,03616.06902,E,48.90,254.23,240924,,,*14
$GPGGA,084132.200,5559.90634,N,03616.06902,E,1,12,,253.10,M,,M,,*5F
$GPRMC,084132.300,A,5559.90586,N,03616.06674,E,48.58,249.37,240924,,,*1C
$GPGGA,084132.300,5559.90586,N,03616.06674,E,1,12,,253.10,M,,M,,*5A
$GPRMC,084132.400,A,5559.90532,N,03616.06458,E,48.20,245.91,240924,,,*17
$GPGGA,084132.400,5559.90532,N,03616.06458,E,1,12,,253.00,M,,M,,*5F
$GPRMC,084132.500,A,5559.90478,N,03616.06242,E,47.66,245.91,240924,,,*19
$GPGGA,084132.500,5559.90478,N,03616.06242,E,1,12,,253.00,M,,M,,*5C
$GPRMC,084132.600,A,5559.90418,N,03616.06038,E,47.26,242.26,240924,,,*1C
$GPGGA,084132.600,5559.90418,N,03616.06038,E,1,12,,253.00,M,,M,,*56
$GPRMC,084132.700,A,5559.90352,N,03616.05840,E,46.99,239.20,240924,,,*1F
$GPGGA,084132.700,5559.90352,N,03616.05840,E,1,12,,253.00,M,,M,,*5A
$GPRMC,084132.800,A,5559.90280,N,03616.05642,E,47.07,236.97,240924,,,*17
$GPGGA,084132.800,5559.90280,N,03616.05642,E,1,12,,252.90,M,,M,,*5F
$GPRMC,084132.900,A,5559.90202,N,03616.05456,E,47.11,233.13,240924,,,*15
$GPGGA,084132.900,5559.90202,N,03616.05456,E,1,12,,252.90,M,,M,,*53
$GPRMC,084133.000,A,5559.90118,N,03616.05270,E,47.21,231.08,240924,,,*1C
$GPGGA,084133.000,5559.90118,N,03616.05270,E,1,12,,252.80,M,,M,,*50
$GPRMC,084133.100,A,5559.90034,N,03616.05096,E,47.34,229.20,240924,,,*1F
$GPGGA,084133.100,5559.90034,N,03616.05096,E,1,12,,252.80,M,,M,,*54
$GPRMC,084133.200,A,5559.89938,N,03616.04928,E,47.62,224.38,240924,,,*1B
$GPGGA,084133.200,5559.89938,N,03616.04928,E,1,12,,252.80,M,,M,,*57
$GPRMC,084133.300,A,5559.89842,N,03616.04760,E,48.29,224.38,240924,,,*14
$GPGGA,084133.300,5559.89842,N,03616.04760,E,1,12,,252.70,M,,M,,*57
$GPRMC,084133.400,A,5559.89740,N,03616.04604,E,48.45,220.54,240924,,,*19
$GPGGA,084133.400,5559.89740,N,03616.04604,E,1,12,,252.70,M,,M,,*5E
$GPRMC,084133.500,A,5559.89632,N,03616.04454,E,48.73,217.84,240924,,,*17
$GPGGA,084133.500,5559.89632,N,03616.04454,E,1,12,,252.70,M,,M,,*5C
$GPRMC,084133.600,A,5559.89524,N,03616.04310,E,49.37,216.71,240924,,,*1D
$GPGGA,084133.600,5559.89524,N,03616.04310,E,1,12,,252.70,M,,M,,*5C
$GPRMC,084133.700,A,5559.89404,N,03616.04178,E,49.98,211.60,240924,,,*11
$GPGGA,084133.700,5559.89404,N,03616.04178,E,1,12,,252.60,M,,M,,*53
$GPRMC,084133.800,A,5559.89284,N,03616.04052,E,50.18,210.42,240924,,,*18
$GPGGA,084133.800,5559.89284,N,03616.04052,E,1,12,,252.60,M,,M,,*5B
$GPRMC,084133.900,A,5559.89158,N,03616.03932,E,50.67,208.04,240924,,,*10
$GPGGA,084133.900,5559.89158,N,03616.03932,E,1,12,,252.60,M,,M,,*50
$GPRMC,084134.000,A,5559.89032,N,03616.03818,E,51.24,206.84,240924,,,*1A
$GPGGA,084134.000,5559.89032,N,03616.03818,E,1,12,,252.50,M,,M,,*59
$GPRMC,084134.100,A,5559.88900,N,03616.03722,E,51.85,202.13,240924,,,*15
$GPGGA,084134.100,5559.88900,N,03616.03722,E,1,12,,252.50,M,,M,,*57
$GPRMC,084134.200,A,5559.88762,N,03616.03626,E,52.24,201.26,240924,,,*14
$GPGGA,084134.200,5559.88762,N,03616.03626,E,1,12,,252.50,M,,M,,*5B
$GPRMC,084134.300,A,5559.88624,N,03616.03542,E,52.44,198.80,240924,,,*1E
$GPGGA,084134.300,5559.88624,N,03616.03542,E,1,12,,252.50,M,,M,,*58
$GPRMC,084134.400,A,5559.88486,N,03616.03470,E,53.04,196.27,240924,,,*15
$GPGGA,084134.400,5559.88486,N,03616.03470,E,1,12,,252.50,M,,M,,*55
$GPRMC,084134.500,A,5559.88336,N,03616.03404,E,54.06,193.82,240924,,,*14
$GPGGA,084134.500,5559.88336,N,03616.03404,E,1,12,,252.40,M,,M,,*5A
$GPRMC,084134.600,A,5559.88192,N,03616.03350,E,54.52,191.84,240924,,,*18
$GPGGA,084134.600,5559.88192,N,03616.03350,E,1,12,,252.40,M,,M,,*53
$GPRMC,084134.700,A,5559.88042,N,03616.03302,E,54.82,190.15,240924,,,*16
$GPGGA,084134.700,5559.88042,N,03616.03302,E,1,12,,252.40,M,,M,,*59
$GPRMC,084134.800,A,5559.87886,N,03616.03266,E,55.33,187.35,240924,,,*1A
$GPGGA,084134.800,5559.87886,N,03616.03266,E,1,12,,252.40,M,,M,,*5A
$GPRMC,084134.900,A,5559.87736,N,03616.03236,E,55.95,186.38,240924,,,*1A
$GPGGA,084134.900,5559.87736,N,03616.03236,E,1,12,,252.30,M,,M,,*5D
$GPRMC,084135.000,A,5559.87574,N,03616.03218,E,56.52,183.56,240924,,,*1F
$GPGGA,084135.000,5559.87574,N,03616.03218,E,1,12,,252.30,M,,M,,*5D
$GPRMC,084135.100,A,5559.87418,N,03616.03212,E,57.06,181.23,240924,,,*1F
$GPGGA,084135.100,5559.87418,N,03616.03212,E,1,12,,252.30,M,,M,,*5D
$GPRMC,084135.200,A,5559.87262,N,03616.03206,E,57.34,181.23,240924,,,*13
$GPGGA,084135.200,5559.87262,N,03616.03206,E,1,12,,252.20,M,,M,,*51
$GPRMC,084135.300,A,5559.87100,N,03616.03218,E,57.93,177.63,240924,,,*1A
$GPGGA,084135.300,5559.87100,N,03616.03218,E,1,12,,252.20,M,,M,,*58
$GPRMC,084135.400,A,5559.86938,N,03616.03236,E,58.69,176.44,240924,,,*1D
$GPGGA,084135.400,5559.86938,N,03616.03236,E,1,12,,252.20,M,,M,,*51
$GPRMC,084135.500,A,5559.86776,N,03616.03266,E,59.13,174.09,240924,,,*1A
$GPGGA,084135.500,5559.86776,N,03616.03266,E,1,12,,252.10,M,,M,,*52
$GPRMC,084135.600,A,5559.86608,N,03616.03302,E,59.90,173.17,240924,,,*11
$GPGGA,084135.600,5559.86608,N,03616.03302,E,1,12,,252.10,M,,M,,*5A
$GPRMC,084135.700,A,5559.86440,N,03616.03344,E,60.38,172.04,240924,,,*17
$GPGGA,084135.700,5559.86440,N,03616.03344,E,1,12,,252.00,M,,M,,*56
$GPRMC,084135.800,A,5559.86278,N,03616.03398,E,60.90,169.44,240924,,,*18
$GPGGA,084135.800,5559.86278,N,03616.03398,E,1,12,,252.00,M,,M,,*55
$GPRMC,084135.900,A,5559.86110,N,03616.03458,E,61.54,168.71,240924,,,*11
$GPGGA,084135.900,5559.86110,N,03616.03458,E,1,12,,251.90,M,,M,,*58
$GPRMC,084136.000,A,5559.85942,N,03616.03530,E,62.10,166.52,240924,,,*14
$GPGGA,084136.000,5559.85942,N,03616.03530,E,1,12,,251.90,M,,M,,*51
$GPRMC,084136.100,A,5559.85774,N,03616.03602,E,62.59,166.52,240924,,,*11
$GPGGA,084136.100,5559.85774,N,03616.03602,E,1,12,,251.80,M,,M,,*58
$GPRMC,084136.200,A,5559.85600,N,03616.03680,E,63.23,165.93,240924,,,*18
$GPGGA,084136.200,5559.85600,N,03616.03680,E,1,12,,251.80,M,,M,,*53
$GPRMC,084136.300,A,5559.85432,N,03616.03770,E,63.86,163.32,240924,,,*16
$GPGGA,084136.300,5559.85432,N,03616.03770,E,1,12,,251.70,M,,M,,*50
$GPRMC,084136.400,A,5559.85258,N,03616.03860,E,64.52,163.87,240924,,,*15
$GPGGA,084136.400,5559.85258,N,03616.03860,E,1,12,,251.70,M,,M,,*53
$GPRMC,084136.500,A,5559.85084,N,03616.03950,E,65.21,163.87,240924,,,*10
$GPGGA,084136.500,5559.85084,N,03616.03950,E,1,12,,251.70,M,,M,,*53
$GPRMC,084136.600,A,5559.84910,N,03616.04040,E,65.87,163.87,240924,,,*15
$GPGGA,084136.600,5559.84910,N,03616.04040,E,1,12,,251.60,M,,M,,*5B
$GPRMC,084136.700,A,5559.84730,N,03616.04130,E,66.47,164.38,240924,,,*12
$GPGGA,084136.700,5559.84730,N,03616.04130,E,1,12,,251.60,M,,M,,*50
$GPRMC,084136.800,A,5559.84550,N,03616.04214,E,67.16,165.37,240924,,,*17
$GPGGA,084136.800,5559.84550,N,03616.04214,E,1,12,,251.60,M,,M,,*5E
$GPRMC,084136.900,A,5559.84370,N,03616.04298,E,67.79,165.37,240924,,,*1F
$GPGGA,084136.900,5559.84370,N,03616.04298,E,1,12,,251.50,M,,M,,*5C
$GPRMC,084137.000,A,5559.84184,N,03616.04376,E,68.31,166.80,240924,,,*13
$GPGGA,084137.000,5559.84184,N,03616.04376,E,1,12,,251.40,M,,M,,*5D
$GPRMC,084137.100,A,5559.83998,N,03616.04442,E,68.95,168.78,240924,,,*17
$GPGGA,084137.100,5559.83998,N,03616.04442,E,1,12,,251.40,M,,M,,*5E
$GPRMC,084137.200,A,5559.83806,N,03616.04508,E,69.39,169.12,240924,,,*17
$GPGGA,084137.200,5559.83806,N,03616.04508,E,1,12,,251.40,M,,M,,*54
$GPRMC,084137.300,A,5559.83620,N,03616.04568,E,69.85,169.77,240924,,,*1E
$GPGGA,084137.300,5559.83620,N,03616.04568,E,1,12,,251.30,M,,M,,*5E
$GPRMC,084137.400,A,5559.83422,N,03616.04622,E,70.41,171.33,240924,,,*1D
$GPGGA,084137.400,5559.83422,N,03616.04622,E,1,12,,251.30,M,,M,,*54
$GPRMC,084137.500,A,5559.83230,N,03616.04670,E,70.75,172.04,240924,,,*1E
$GPGGA,084137.500,5559.83230,N,03616.04670,E,1,12,,251.20,M,,M,,*56
$GPRMC,084137.600,A,5559.83038,N,03616.04712,E,70.71,173.03,240924,,,*10
$GPGGA,084137.600,5559.83038,N,03616.04712,E,1,12,,251.20,M,,M,,*5A
$GPRMC,084137.700,A,5559.82840,N,03616.04748,E,70.96,174.19,240924,,,*1D
$GPGGA,084137.700,5559.82840,N,03616.04748,E,1,12,,251.10,M,,M,,*51
$GPRMC,084137.800,A,5559.82642,N,03616.04766,E,70.68,177.09,240924,,,*11
$GPGGA,084137.800,5559.82642,N,03616.04766,E,1,12,,251.10,M,,M,,*5E
$GPRMC,084137.900,A,5559.82450,N,03616.04778,E,70.15,178.00,240924,,,*12
$GPGGA,084137.900,5559.82450,N,03616.04778,E,1,12,,251.00,M,,M,,*50
$GPRMC,084138.000,A,5559.82258,N,03616.04778,E,69.97,180.00,240924,,,*1F
$GPGGA,084138.000,5559.82258,N,03616.04778,E,1,12,,251.00,M,,M,,*58
$GPRMC,084138.100,A,5559.82066,N,03616.04766,E,69.54,182.00,240924,,,*13
$GPGGA,084138.100,5559.82066,N,03616.04766,E,1,12,,250.90,M,,M,,*51
$GPRMC,084138.200,A,5559.81874,N,03616.04748,E,69.45,183.00,240924,,,*15
$GPGGA,084138.200,5559.81874,N,03616.04748,E,1,12,,250.80,M,,M,,*57
$GPRMC,084138.300,A,5559.81682,N,03616.04718,E,69.64,184.99,240924,,,*12
$GPGGA,084138.300,5559.81682,N,03616.04718,E,1,12,,250.80,M,,M,,*54
$GPRMC,084138.400,A,5559.81490,N,03616.04676,E,69.70,186.97,240924,,,*14
$GPGGA,084138.400,5559.81490,N,03616.04676,E,1,12,,250.70,M,,M,,*54
$GPRMC,084138.500,A,5559.81298,N,03616.04628,E,69.99,187.96,240924,,,*17
$GPGGA,084138.500,5559.81298,N,03616.04628,E,1,12,,250.70,M,,M,,*50
$GPRMC,084138.600,A,5559.81106,N,03616.04574,E,70.21,188.94,240924,,,*1C
$GPGGA,084138.600,5559.81106,N,03616.04574,E,1,12,,250.60,M,,M,,*5C
$GPRMC,084138.700,A,5559.80914,N,03616.04502,E,70.62,191.84,240924,,,*18
$GPGGA,084138.700,5559.80914,N,03616.04502,E,1,12,,250.50,M,,M,,*55
$GPRMC,084138.800,A,5559.80722,N,03616.04430,E,70.98,191.84,240924,,,*19
$GPGGA,084138.800,5559.80722,N,03616.04430,E,1,12,,250.40,M,,M,,*50
$GPRMC,084138.900,A,5559.80530,N,03616.04340,E,71.60,194.69,240924,,,*19
$GPGGA,084138.900,5559.80530,N,03616.04340,E,1,12,,250.30,M,,M,,*57
$GPRMC,084139.000,A,5559.80338,N,03616.04244,E,71.79,195.62,240924,,,*18
$GPGGA,084139.000,5559.80338,N,03616.04244,E,1,12,,250.20,M,,M,,*55
$GPRMC,084139.100,A,5559.80146,N,03616.04136,E,72.20,197.46,240924,,,*1F
$GPGGA,084139.100,5559.80146,N,03616.04136,E,1,12,,250.10,M,,M,,*5A
$GPRMC,084139.200,A,5559.79954,N,03616.04022,E,72.32,198.37,240924,,,*1F
$GPGGA,084139.200,5559.79954,N,03616.04022,E,1,12,,250.10,M,,M,,*50
$GPRMC,084139.300,A,5559.79768,N,03616.03896,E,72.74,200.75,240924,,,*19
$GPGGA,084139.300,5559.79768,N,03616.03896,E,1,12,,249.90,M,,M,,*50
$GPRMC,084139.400,A,5559.79582,N,03616.03764,E,73.15,201.65,240924,,,*1C
$GPGGA,084139.400,5559.79582,N,03616.03764,E,1,12,,249.80,M,,M,,*52
$GPRMC,084139.500,A,5559.79390,N,03616.03626,E,73.44,201.90,240924,,,*11
$GPGGA,084139.500,5559.79390,N,03616.03626,E,1,12,,249.70,M,,M,,*5E
$GPRMC,084139.600,A,5559.79210,N,03616.03470,E,73.86,205.86,240924,,,*17
$GPGGA,084139.600,5559.79210,N,03616.03470,E,1,12,,249.60,M,,M,,*54
$GPRMC,084139.700,A,5559.79024,N,03616.03308,E,74.11,205.97,240924,,,*12
$GPGGA,084139.700,5559.79024,N,03616.03308,E,1,12,,249.50,M,,M,,*5B
$GPRMC,084139.800,A,5559.78844,N,03616.03140,E,73.78,207.56,240924,,,*1B
$GPGGA,084139.800,5559.78844,N,03616.03140,E,1,12,,249.40,M,,M,,*54
$GPRMC,084139.900,A,5559.78670,N,03616.02954,E,73.83,210.87,240924,,,*11
$GPGGA,084139.900,5559.78670,N,03616.02954,E,1,12,,249.20,M,,M,,*56
$GPRMC,084140.000,A,5559.78490,N,03616.02768,E,73.65,210.02,240924,,,*1E
$GPGGA,084140.000,5559.78490,N,03616.02768,E,1,12,,249.10,M,,M,,*5F
$GPRMC,084140.100,A,5559.78322,N,03616.02570,E,73.38,213.39,240924,,,*19
$GPGGA,084140.100,5559.78322,N,03616.02570,E,1,12,,249.00,M,,M,,*5A
$GPRMC,084140.200,A,5559.78160,N,03616.02360,E,73.15,215.94,240924,,,*17
$GPGGA,084140.200,5559.78160,N,03616.02360,E,1,12,,248.90,M,,M,,*52
$GPRMC,084140.300,A,5559.77998,N,03616.02150,E,72.58,215.94,240924,,,*1F
$GPGGA,084140.300,5559.77998,N,03616.02150,E,1,12,,248.70,M,,M,,*5C
$GPRMC,084140.400,A,5559.77842,N,03616.01928,E,71.43,218.51,240924,,,*17
$GPGGA,084140.400,5559.77842,N,03616.01928,E,1,12,,248.60,M,,M,,*58
$GPRMC,084140.500,A,5559.77692,N,03616.01706,E,70.49,219.61,240924,,,*1E
$GPGGA,084140.500,5559.77692,N,03616.01706,E,1,12,,248.50,M,,M,,*5B
$GPRMC,084140.600,A,5559.77548,N,03616.01484,E,69.67,220.77,240924,,,*19
$GPGGA,084140.600,5559.77548,N,03616.01484,E,1,12,,248.30,M,,M,,*53
$GPRMC,084140.700,A,5559.77410,N,03616.01256,E,68.62,222.74,240924,,,*18
$GPGGA,084140.700,5559.77410,N,03616.01256,E,1,12,,248.20,M,,M,,*56
$GPRMC,084140.800,A,5559.77272,N,03616.01022,E,67.69,223.48,240924,,,*1E
$GPGGA,084140.800,5559.77272,N,03616.01022,E,1,12,,248.10,M,,M,,*59
$GPRMC,084140.900,A,5559.77140,N,03616.00788,E,67.03,224.75,240924,,,*1E
$GPGGA,084140.900,5559.77140,N,03616.00788,E,1,12,,248.00,M,,M,,*5D
$GPRMC,084141.000,A,5559.77020,N,03616.00554,E,66.12,227.48,240924,,,*1E
$GPGGA,084141.000,5559.77020,N,03616.00554,E,1,12,,247.90,M,,M,,*57
$GPRMC,084141.100,A,5559.76900,N,03616.00314,E,65.32,228.20,240924,,,*17
$GPGGA,084141.100,5559.76900,N,03616.00314,E,1,12,,247.80,M,,M,,*5F
$GPRMC,084141.200,A,5559.76780,N,03616.00068,E,64.72,228.90,240924,,,*14
$GPGGA,084141.200,5559.76780,N,03616.00068,E,1,12,,247.70,M,,M,,*5D
$GPRMC,084141.300,A,5559.76672,N,03615.99822,E,63.82,231.87,240924,,,*1A
$GPGGA,084141.300,5559.76672,N,03615.99822,E,1,12,,247.60,M,,M,,*54
$GPRMC,084141.400,A,5559.76564,N,03615.99576,E,62.97,231.87,240924,,,*10
$GPGGA,084141.400,5559.76564,N,03615.99576,E,1,12,,247.40,M,,M,,*59
$GPRMC,084141.500,A,5559.76468,N,03615.99324,E,62.30,235.74,240924,,,*18
$GPGGA,084141.500,5559.76468,N,03615.99324,E,1,12,,247.40,M,,M,,*54
$GPRMC,084141.600,A,5559.76372,N,03615.99072,E,61.51,235.74,240924,,,*13
$GPGGA,084141.600,5559.76372,N,03615.99072,E,1,12,,247.20,M,,M,,*5D
$GPRMC,084141.700,A,5559.76276,N,03615.98826,E,60.65,235.09,240924,,,*13
$GPGGA,084141.700,5559.76276,N,03615.98826,E,1,12,,247.10,M,,M,,*52
$GPRMC,084141.800,A,5559.76192,N,03615.98574,E,59.79,239.20,240924,,,*1F
$GPGGA,084141.800,5559.76192,N,03615.98574,E,1,12,,247.00,M,,M,,*5F
$GPRMC,084141.900,A,5559.76114,N,03615.98322,E,58.89,241.04,240924,,,*12
$GPGGA,084141.900,5559.76114,N,03615.98322,E,1,12,,247.00,M,,M,,*55
$GPRMC,084142.000,A,5559.76036,N,03615.98070,E,57.94,241.04,240924,,,*1E
$GPGGA,084142.000,5559.76036,N,03615.98070,E,1,12,,246.90,M,,M,,*52
$GPRMC,084142.100,A,5559.75964,N,03615.97818,E,56.85,242.94,240924,,,*10
$GPGGA,084142.100,5559.75964,N,03615.97818,E,1,12,,246.80,M,,M,,*56
$GPRMC,084142.200,A,5559.75898,N,03615.97572,E,56.11,244.37,240924,,,*12
$GPGGA,084142.200,5559.75898,N,03615.97572,E,1,12,,246.70,M,,M,,*59
$GPRMC,084142.300,A,5559.75832,N,03615.97320,E,55.33,244.91,240924,,,*1D
$GPGGA,084142.300,5559.75832,N,03615.97320,E,1,12,,246.60,M,,M,,*58
$GPRMC,084142.400,A,5559.75778,N,03615.97074,E,54.49,248.57,240924,,,*13
$GPGGA,084142.400,5559.75778,N,03615.97074,E,1,12,,246.50,M,,M,,*5F
$GPRMC,084142.500,A,5559.75724,N,03615.96822,E,53.71,249.03,240924,,,*1D
$GPGGA,084142.500,5559.75724,N,03615.96822,E,1,12,,246.50,M,,M,,*5D
$GPRMC,084142.600,A,5559.75676,N,03615.96576,E,52.87,250.77,240924,,,*17
$GPGGA,084142.600,5559.75676,N,03615.96576,E,1,12,,246.40,M,,M,,*55
$GPRMC,084142.700,A,5559.75628,N,03615.96336,E,51.59,250.32,240924,,,*1E
$GPGGA,084142.700,5559.75628,N,03615.96336,E,1,12,,246.30,M,,M,,*5A
$GPRMC,084142.800,A,5559.75592,N,03615.96096,E,50.69,254.99,240924,,,*1D
$GPGGA,084142.800,5559.75592,N,03615.96096,E,1,12,,246.20,M,,M,,*5F
$GPRMC,084142.900,A,5559.75556,N,03615.95862,E,49.57,254.62,240924,,,*15
$GPGGA,084142.900,5559.75556,N,03615.95862,E,1,12,,246.20,M,,M,,*56
$GPRMC,084143.000,A,5559.75526,N,03615.95628,E,48.55,257.09,240924,,,*17
$GPGGA,084143.000,5559.75526,N,03615.95628,E,1,12,,246.10,M,,M,,*5A
$GPRMC,084143.100,A,5559.75502,N,03615.95400,E,47.44,259.34,240924,,,*17
$GPGGA,084143.100,5559.75502,N,03615.95400,E,1,12,,246.10,M,,M,,*55
$GPRMC,084143.200,A,5559.75478,N,03615.95172,E,46.30,259.34,240924,,,*1A
$GPGGA,084143.200,5559.75478,N,03615.95172,E,1,12,,246.00,M,,M,,*5B
$GPRMC,084143.300,A,5559.75460,N,03615.94950,E,45.41,261.75,240924,,,*10
$GPGGA,084143.300,5559.75460,N,03615.94950,E,1,12,,246.00,M,,M,,*5A
$GPRMC,084143.400,A,5559.75448,N,03615.94728,E,44.61,264.48,240924,,,*14
$GPGGA,084143.400,5559.75448,N,03615.94728,E,1,12,,245.90,M,,M,,*5C
$GPRMC,084143.500,A,5559.75442,N,03615.94512,E,43.94,267.16,240924,,,*11
$GPGGA,084143.500,5559.75442,N,03615.94512,E,1,12,,245.90,M,,M,,*5C
$GPRMC,084143.600,A,5559.75442,N,03615.94296,E,43.25,270.00,240924,,,*12
$GPGGA,084143.600,5559.75442,N,03615.94296,E,1,12,,245.80,M,,M,,*55
$GPRMC,084143.700,A,5559.75442,N,03615.94086,E,42.36,270.00,240924,,,*13
$GPGGA,084143.700,5559.75442,N,03615.94086,E,1,12,,245.80,M,,M,,*57
$GPRMC,084143.800,A,5559.75448,N,03615.93882,E,41.50,273.01,240924,,,*1C
$GPGGA,084143.800,5559.75448,N,03615.93882,E,1,12,,245.80,M,,M,,*59
$GPRMC,084143.900,A,5559.75466,N,03615.93684,E,40.94,279.23,240924,,,*1A
$GPGGA,084143.900,5559.75466,N,03615.93684,E,1,12,,245.70,M,,M,,*53
$GPRMC,084144.000,A,5559.75484,N,03615.93486,E,39.82,279.23,240924,,,*11
$GPGGA,084144.000,5559.75484,N,03615.93486,E,1,12,,245.70,M,,M,,*51
$GPRMC,084144.100,A,5559.75502,N,03615.93300,E,38.98,279.82,240924,,,*17
$GPGGA,084144.100,5559.75502,N,03615.93300,E,1,12,,245.70,M,,M,,*56
$GPRMC,084144.200,A,5559.75532,N,03615.93114,E,38.40,286.09,240924,,,*16
$GPGGA,084144.200,5559.75532,N,03615.93114,E,1,12,,245.70,M,,M,,*51
$GPRMC,084144.300,A,5559.75562,N,03615.92940,E,37.56,287.13,240924,,,*18
$GPGGA,084144.300,5559.75562,N,03615.92940,E,1,12,,245.60,M,,M,,*5C
$GPRMC,084144.400,A,5559.75598,N,03615.92766,E,37.17,290.30,240924,,,*12
$GPGGA,084144.400,5559.75598,N,03615.92766,E,1,12,,245.60,M,,M,,*54
$GPRMC,084144.500,A,5559.75646,N,03615.92604,E,36.46,297.92,240924,,,*1C
$GPGGA,084144.500,5559.75646,N,03615.92604,E,1,12,,245.50,M,,M,,*53
$GPRMC,084144.600,A,5559.75688,N,03615.92448,E,35.84,295.71,240924,,,*15
$GPGGA,084144.600,5559.75688,N,03615.92448,E,1,12,,245.50,M,,M,,*58
$GPRMC,084144.700,A,5559.75742,N,03615.92298,E,35.41,302.77,240924,,,*18
$GPGGA,084144.700,5559.75742,N,03615.92298,E,1,12,,245.50,M,,M,,*55
$GPRMC,084144.800,A,5559.75802,N,03615.92160,E,34.87,307.86,240924,,,*18
$GPGGA,084144.800,5559.75802,N,03615.92160,E,1,12,,245.40,M,,M,,*54
$GPRMC,084144.900,A,5559.75862,N,03615.92028,E,34.21,309.10,240924,,,*1F
$GPGGA,084144.900,5559.75862,N,03615.92028,E,1,12,,245.40,M,,M,,*5E
$GPRMC,084145.000,A,5559.75928,N,03615.91902,E,33.82,313.13,240924,,,*1C
$GPGGA,084145.000,5559.75928,N,03615.91902,E,1,12,,245.40,M,,M,,*5B
$GPRMC,084145.100,A,5559.76000,N,03615.91794,E,34.08,320.01,240924,,,*1A
$GPGGA,084145.100,5559.76000,N,03615.91794,E,1,12,,245.30,M,,M,,*5C
$GPRMC,084145.200,A,5559.76078,N,03615.91692,E,34.30,323.82,240924,,,*12
$GPGGA,084145.200,5559.76078,N,03615.91692,E,1,12,,245.30,M,,M,,*57
$GPRMC,084145.300,A,5559.76156,N,03615.91590,E,34.79,323.82,240924,,,*12
$GPGGA,084145.300,5559.76156,N,03615.91590,E,1,12,,245.30,M,,M,,*5A
$GPRMC,084145.400,A,5559.76240,N,03615.91506,E,35.08,330.78,240924,,,*1E
$GPGGA,084145.400,5559.76240,N,03615.91506,E,1,12,,245.30,M,,M,,*56
$GPRMC,084145.500,A,5559.76330,N,03615.91422,E,35.35,332.44,240924,,,*1D
$GPGGA,084145.500,5559.76330,N,03615.91422,E,1,12,,245.30,M,,M,,*56
$GPRMC,084145.600,A,5559.76426,N,03615.91350,E,36.15,337.25,240924,,,*1F
$GPGGA,084145.600,5559.76426,N,03615.91350,E,1,12,,245.30,M,,M,,*57
$GPRMC,084145.700,A,5559.76522,N,03615.91284,E,36.57,338.97,240924,,,*13
$GPGGA,084145.700,5559.76522,N,03615.91284,E,1,12,,245.30,M,,M,,*5B
$GPRMC,084145.800,A,5559.76618,N,03615.91230,E,37.13,342.54,240924,,,*1A
$GPGGA,084145.800,5559.76618,N,03615.91230,E,1,12,,245.30,M,,M,,*51
$GPRMC,084145.900,A,5559.76726,N,03615.91182,E,38.15,346.04,240924,,,*15
$GPGGA,084145.900,5559.76726,N,03615.91182,E,1,12,,245.30,M,,M,,*56
$GPRMC,084146.000,A,5559.76828,N,03615.91152,E,38.48,350.66,240924,,,*18
$GPGGA,084146.000,5559.76828,N,03615.91152,E,1,12,,245.30,M,,M,,*50
$GPRMC,084146.100,A,5559.76936,N,03615.91128,E,39.19,352.92,240924,,,*16
$GPGGA,084146.100,5559.76936,N,03615.91128,E,1,12,,245.30,M,,M,,*52
$GPRMC,084146.200,A,5559.77050,N,03615.91110,E,40.16,354.95,240924,,,*16
$GPGGA,084146.200,5559.77050,N,03615.91110,E,1,12,,245.30,M,,M,,*52
$GPRMC,084146.300,A,5559.77158,N,03615.91104,E,40.50,358.22,240924,,,*19
$GPGGA,084146.300,5559.77158,N,03615.91104,E,1,12,,245.40,M,,M,,*58
$GPRMC,084146.400,A,5559.77272,N,03615.91110,E,40.84,1.69,240924,,,*19
$GPGGA,084146.400,5559.77272,N,03615.91110,E,1,12,,245.40,M,,M,,*51
$GPRMC,084146.500,A,5559.77392,N,03615.91116,E,41.98,1.60,240924,,,*14
$GPGGA,084146.500,5559.77392,N,03615.91116,E,1,12,,245.50,M,,M,,*58
$GPRMC,084146.600,A,5559.77512,N,03615.91140,E,42.52,6.38,240924,,,*15
$GPGGA,084146.600,5559.77512,N,03615.91140,E,1,12,,245.50,M,,M,,*56
$GPRMC,084146.700,A,5559.77632,N,03615.91170,E,43.61,7.96,240924,,,*12
$GPGGA,084146.700,5559.77632,N,03615.91170,E,1,12,,245.60,M,,M,,*56
$GPRMC,084146.800,A,5559.77752,N,03615.91212,E,44.74,11.07,240924,,,*21
$GPGGA,084146.800,5559.77752,N,03615.91212,E,1,12,,245.70,M,,M,,*58
$GPRMC,084146.900,A,5559.77872,N,03615.91266,E,44.70,14.13,240924,,,*2A
$GPGGA,084146.900,5559.77872,N,03615.91266,E,1,12,,245.70,M,,M,,*57
$GPRMC,084147.000,A,5559.77998,N,03615.91326,E,45.47,14.91,240924,,,*2D
$GPGGA,084147.000,5559.77998,N,03615.91326,E,1,12,,245.80,M,,M,,*50
$GPRMC,084147.100,A,5559.78118,N,03615.91398,E,46.08,18.55,240924,,,*2A
$GPGGA,084147.100,5559.78118,N,03615.91398,E,1,12,,245.90,M,,M,,*5A
$GPRMC,084147.200,A,5559.78238,N,03615.91476,E,47.46,19.98,240924,,,*24
$GPGGA,084147.200,5559.78238,N,03615.91476,E,1,12,,246.00,M,,M,,*55
$GPRMC,084147.300,A,5559.78364,N,03615.91560,E,48.04,20.45,240924,,,*28
$GPGGA,084147.300,5559.78364,N,03615.91560,E,1,12,,245.90,M,,M,,*50
$GPRMC,084147.400,A,5559.78490,N,03615.91656,E,48.78,23.08,240924,,,*24
$GPGGA,084147.400,5559.78490,N,03615.91656,E,1,12,,245.90,M,,M,,*5D
$GPRMC,084147.500,A,5559.78616,N,03615.91764,E,49.73,25.61,240924,,,*2A
$GPGGA,084147.500,5559.78616,N,03615.91764,E,1,12,,246.00,M,,M,,*5A
$GPRMC,084147.600,A,5559.78736,N,03615.91878,E,50.28,27.98,240924,,,*2A
$GPGGA,084147.600,5559.78736,N,03615.91878,E,1,12,,246.10,M,,M,,*59
$GPRMC,084147.700,A,5559.78862,N,03615.91998,E,51.04,28.04,240924,,,*2F
$GPGGA,084147.700,5559.78862,N,03615.91998,E,1,12,,246.20,M,,M,,*5A
$GPRMC,084147.800,A,5559.78988,N,03615.92124,E,51.77,29.22,240924,,,*28
$GPGGA,084147.800,5559.78988,N,03615.92124,E,1,12,,246.20,M,,M,,*5C
$GPRMC,084147.900,A,5559.79114,N,03615.92262,E,52.58,31.49,240924,,,*2E
$GPGGA,084147.900,5559.79114,N,03615.92262,E,1,12,,246.30,M,,M,,*51
$GPRMC,084148.000,A,5559.79234,N,03615.92412,E,52.87,34.96,240924,,,*2D
$GPGGA,084148.000,5559.79234,N,03615.92412,E,1,12,,246.40,M,,M,,*50
$GPRMC,084148.100,A,5559.79354,N,03615.92562,E,53.66,34.96,240924,,,*23
$GPGGA,084148.100,5559.79354,N,03615.92562,E,1,12,,246.50,M,,M,,*51
$GPRMC,084148.200,A,5559.79474,N,03615.92718,E,53.45,36.02,240924,,,*24
$GPGGA,084148.200,5559.79474,N,03615.92718,E,1,12,,246.60,M,,M,,*5B
$GPRMC,084148.300,A,5559.79594,N,03615.92880,E,53.28,37.05,240924,,,*29
$GPGGA,084148.300,5559.79594,N,03615.92880,E,1,12,,246.70,M,,M,,*5A
$GPRMC,084148.400,A,5559.79708,N,03615.93048,E,53.27,39.49,240924,,,*2D
$GPGGA,084148.400,5559.79708,N,03615.93048,E,1,12,,246.80,M,,M,,*58
$GPRMC,084148.500,A,5559.79822,N,03615.93216,E,53.01,39.49,240924,,,*26
$GPGGA,084148.500,5559.79822,N,03615.93216,E,1,12,,246.90,M,,M,,*56
$GPRMC,084148.600,A,5559.79930,N,03615.93384,E,52.98,41.02,240924,,,*2C
$GPGGA,084148.600,5559.79930,N,03615.93384,E,1,12,,247.00,M,,M,,*55
$GPRMC,084148.700,A,5559.80044,N,03615.93564,E,53.87,41.44,240924,,,*24
$GPGGA,084148.700,5559.80044,N,03615.93564,E,1,12,,247.10,M,,M,,*51
$GPRMC,084148.800,A,5559.80158,N,03615.93744,E,54.45,41.44,240924,,,*2E
$GPGGA,084148.800,5559.80158,N,03615.93744,E,1,12,,247.30,M,,M,,*50
$GPRMC,084148.900,A,5559.80272,N,03615.93918,E,54.76,40.48,240924,,,*2E
$GPGGA,084148.900,5559.80272,N,03615.93918,E,1,12,,247.40,M,,M,,*5A
$GPRMC,084149.000,A,5559.80392,N,03615.94098,E,55.04,39.99,240924,,,*29
$GPGGA,084149.000,5559.80392,N,03615.94098,E,1,12,,247.50,M,,M,,*5A
$GPRMC,084149.100,A,5559.80512,N,03615.94266,E,55.69,38.06,240924,,,*29
$GPGGA,084149.100,5559.80512,N,03615.94266,E,1,12,,247.70,M,,M,,*54
$GPRMC,084149.200,A,5559.80632,N,03615.94440,E,56.07,39.04,240924,,,*21
$GPGGA,084149.200,5559.80632,N,03615.94440,E,1,12,,247.80,M,,M,,*5B
$GPRMC,084149.300,A,5559.80764,N,03615.94602,E,56.47,34.46,240924,,,*29
$GPGGA,084149.300,5559.80764,N,03615.94602,E,1,12,,247.90,M,,M,,*5D
$GPRMC,084149.400,A,5559.80896,N,03615.94752,E,56.87,32.44,240924,,,*20
$GPGGA,084149.400,5559.80896,N,03615.94752,E,1,12,,248.10,M,,M,,*5B
$GPRMC,084149.500,A,5559.81028,N,03615.94902,E,56.81,32.44,240924,,,*20
$GPGGA,084149.500,5559.81028,N,03615.94902,E,1,12,,248.20,M,,M,,*5E
$GPRMC,084149.600,A,5559.81166,N,03615.95040,E,56.26,29.22,240924,,,*21
$GPGGA,084149.600,5559.81166,N,03615.95040,E,1,12,,248.30,M,,M,,*59
$GPRMC,084149.700,A,5559.81304,N,03615.95166,E,55.97,27.05,240924,,,*21
$GPGGA,084149.700,5559.81304,N,03615.95166,E,1,12,,248.40,M,,M,,*5C
$GPRMC,084149.800,A,5559.81436,N,03615.95286,E,54.91,26.95,240924,,,*2A
$GPGGA,084149.800,5559.81436,N,03615.95286,E,1,12,,248.50,M,,M,,*59
$GPRMC,084149.900,A,5559.81574,N,03615.95394,E,53.61,23.64,240924,,,*2D
$GPGGA,084149.900,5559.81574,N,03615.95394,E,1,12,,248.60,M,,M,,*5E
$GPRMC,084150.000,A,5559.81712,N,03615.95490,E,52.52,21.26,240924,,,*28
$GPGGA,084150.000,5559.81712,N,03615.95490,E,1,12,,248.70,M,,M,,*5F
$GPRMC,084150.100,A,5559.81844,N,03615.95574,E,51.76,19.59,240924,,,*28
$GPGGA,084150.100,5559.81844,N,03615.95574,E,1,12,,248.70,M,,M,,*59
$GPRMC,084150.200,A,5559.81976,N,03615.95652,E,50.66,18.29,240924,,,*2A
$GPGGA,084150.200,5559.81976,N,03615.95652,E,1,12,,248.80,M,,M,,*52
$GPRMC,084150.300,A,5559.82108,N,03615.95718,E,49.57,15.62,240924,,,*2E
$GPGGA,084150.300,5559.82108,N,03615.95718,E,1,12,,248.90,M,,M,,*5F
$GPRMC,084150.400,A,5559.82240,N,03615.95772,E,48.67,12.89,240924,,,*2A
$GPGGA,084150.400,5559.82240,N,03615.95772,E,1,12,,249.00,M,,M,,*53
$GPRMC,084150.500,A,5559.82372,N,03615.95820,E,48.18,11.49,240924,,,*24
$GPGGA,084150.500,5559.82372,N,03615.95820,E,1,12,,249.00,M,,M,,*5A
$GPRMC,084150.600,A,5559.82504,N,03615.95850,E,47.50,7.24,240924,,,*18
$GPGGA,084150.600,5559.82504,N,03615.95850,E,1,12,,249.10,M,,M,,*58
$GPRMC,084150.700,A,5559.82630,N,03615.95874,E,46.61,6.08,240924,,,*17
$GPGGA,084150.700,5559.82630,N,03615.95874,E,1,12,,249.10,M,,M,,*5B
$GPRMC,084150.800,A,5559.82762,N,03615.95892,E,46.19,4.36,240924,,,*16
$GPGGA,084150.800,5559.82762,N,03615.95892,E,1,12,,249.20,M,,M,,*59
$GPRMC,084150.900,A,5559.82882,N,03615.95892,E,45.36,0.00,240924,,,*19
$GPGGA,084150.900,5559.82882,N,03615.95892,E,1,12,,249.20,M,,M,,*59
$GPRMC,084151.000,A,5559.83008,N,03615.95886,E,44.69,358.47,240924,,,*19
$GPGGA,084151.000,5559.83008,N,03615.95886,E,1,12,,249.20,M,,M,,*5F
$GPRMC,084151.100,A,5559.83128,N,03615.95862,E,44.37,353.62,240924,,,*16
$GPGGA,084151.100,5559.83128,N,03615.95862,E,1,12,,249.30,M,,M,,*56
$GPRMC,084151.200,A,5559.83254,N,03615.95832,E,43.76,352.42,240924,,,*19
$GPGGA,084151.200,5559.83254,N,03615.95832,E,1,12,,249.30,M,,M,,*58
$GPRMC,084151.300,A,5559.83368,N,03615.95790,E,43.20,348.36,240924,,,*1A
$GPGGA,084151.300,5559.83368,N,03615.95790,E,1,12,,249.30,M,,M,,*50
$GPRMC,084151.400,A,5559.83482,N,03615.95742,E,42.41,346.75,240924,,,*1E
$GPGGA,084151.400,5559.83482,N,03615.95742,E,1,12,,249.40,M,,M,,*5C
$GPRMC,084151.500,A,5559.83596,N,03615.95676,E,42.44,342.06,240924,,,*18
$GPGGA,084151.500,5559.83596,N,03615.95676,E,1,12,,249.40,M,,M,,*5F
$GPRMC,084151.600,A,5559.83704,N,03615.95604,E,41.79,339.55,240924,,,*10
$GPGGA,084151.600,5559.83704,N,03615.95604,E,1,12,,249.50,M,,M,,*51
$GPRMC,084151.700,A,5559.83806,N,03615.95526,E,40.90,336.85,240924,,,*1B
$GPGGA,084151.700,5559.83806,N,03615.95526,E,1,12,,249.50,M,,M,,*5E
$GPRMC,084151.800,A,5559.83908,N,03615.95430,E,41.15,332.24,240924,,,*1E
$GPGGA,084151.800,5559.83908,N,03615.95430,E,1,12,,249.60,M,,M,,*5B
$GPRMC,084151.900,A,5559.84004,N,03615.95328,E,40.78,329.28,240924,,,*1F
$GPGGA,084151.900,5559.84004,N,03615.95328,E,1,12,,249.60,M,,M,,*56
$GPRMC,084152.000,A,5559.84100,N,03615.95226,E,40.02,329.28,240924,,,*12
$GPGGA,084152.000,5559.84100,N,03615.95226,E,1,12,,249.60,M,,M,,*56
$GPRMC,084152.100,A,5559.84184,N,03615.95106,E,39.97,321.38,240924,,,*15
$GPGGA,084152.100,5559.84184,N,03615.95106,E,1,12,,249.60,M,,M,,*5A
$GPRMC,084152.200,A,5559.84268,N,03615.94980,E,39.81,320.01,240924,,,*1C
$GPGGA,084152.200,5559.84268,N,03615.94980,E,1,12,,249.60,M,,M,,*5F
$GPRMC,084152.300,A,5559.84352,N,03615.94848,E,39.49,318.69,240924,,,*11
$GPGGA,084152.300,5559.84352,N,03615.94848,E,1,12,,249.70,M,,M,,*52
$GPRMC,084152.400,A,5559.84424,N,03615.94710,E,39.42,313.01,240924,,,*1C
$GPGGA,084152.400,5559.84424,N,03615.94710,E,1,12,,249.70,M,,M,,*51
$GPRMC,084152.500,A,5559.84496,N,03615.94566,E,39.05,311.80,240924,,,*1F
$GPGGA,084152.500,5559.84496,N,03615.94566,E,1,12,,249.70,M,,M,,*5A
$GPRMC,084152.600,A,5559.84562,N,03615.94410,E,39.13,307.11,240924,,,*1E
$GPGGA,084152.600,5559.84562,N,03615.94410,E,1,12,,249.70,M,,M,,*53
$GPRMC,084152.700,A,5559.84622,N,03615.94248,E,39.20,303.52,240924,,,*10
$GPGGA,084152.700,5559.84622,N,03615.94248,E,1,12,,249.70,M,,M,,*5E
$GPRMC,084152.800,A,5559.84682,N,03615.94086,E,39.26,303.52,240924,,,*13
$GPGGA,084152.800,5559.84682,N,03615.94086,E,1,12,,249.70,M,,M,,*5B
$GPRMC,084152.900,A,5559.84736,N,03615.93918,E,39.09,299.89,240924,,,*1C
$GPGGA,084152.900,5559.84736,N,03615.93918,E,1,12,,249.70,M,,M,,*5D
$GPRMC,084153.000,A,5559.84784,N,03615.93744,E,39.33,296.26,240924,,,*19
$GPGGA,084153.000,5559.84784,N,03615.93744,E,1,12,,249.70,M,,M,,*5B
$GPRMC,084153.100,A,5559.84826,N,03615.93564,E,39.93,292.65,240924,,,*16
$GPGGA,084153.100,5559.84826,N,03615.93564,E,1,12,,249.60,M,,M,,*5C
$GPRMC,084153.200,A,5559.84868,N,03615.93378,E,40.04,291.99,240924,,,*14
$GPGGA,084153.200,5559.84868,N,03615.93378,E,1,12,,249.60,M,,M,,*5E
$GPRMC,084153.300,A,5559.84898,N,03615.93180,E,40.74,285.16,240924,,,*1A
$GPGGA,084153.300,5559.84898,N,03615.93180,E,1,12,,249.50,M,,M,,*56
$GPRMC,084153.400,A,5559.84928,N,03615.92982,E,41.59,285.16,240924,,,*12
$GPGGA,084153.400,5559.84928,N,03615.92982,E,1,12,,249.50,M,,M,,*50
$GPRMC,084153.500,A,5559.84958,N,03615.92784,E,42.08,285.16,240924,,,*1B
$GPGGA,084153.500,5559.84958,N,03615.92784,E,1,12,,249.50,M,,M,,*5E
$GPRMC,084153.600,A,5559.84976,N,03615.92574,E,42.35,278.71,240924,,,*14
$GPGGA,084153.600,5559.84976,N,03615.92574,E,1,12,,249.50,M,,M,,*5C
$GPRMC,084153.700,A,5559.84994,N,03615.92370,E,42.62,278.97,240924,,,*11
$GPGGA,084153.700,5559.84994,N,03615.92370,E,1,12,,249.40,M,,M,,*52
$GPRMC,084153.800,A,5559.85006,N,03615.92154,E,43.16,275.67,240924,,,*19
$GPGGA,084153.800,5559.85006,N,03615.92154,E,1,12,,249.40,M,,M,,*5A
$GPRMC,084153.900,A,5559.85012,N,03615.91944,E,43.60,272.92,240924,,,*1B
$GPGGA,084153.900,5559.85012,N,03615.91944,E,1,12,,249.30,M,,M,,*53
$GPRMC,084154.000,A,5559.85012,N,03615.91722,E,43.96,270.00,240924,,,*1B
$GPGGA,084154.000,5559.85012,N,03615.91722,E,1,12,,249.30,M,,M,,*53
$GPRMC,084154.100,A,5559.85012,N,03615.91500,E,44.53,270.00,240924,,,*16
$GPGGA,084154.100,5559.85012,N,03615.91500,E,1,12,,249.20,M,,M,,*51
$GPRMC,084154.200,A,5559.85000,N,03615.91278,E,45.09,264.48,240924,,,*19
$GPGGA,084154.200,5559.85000,N,03615.91278,E,1,12,,249.20,M,,M,,*59
$GPRMC,084154.300,A,5559.84982,N,03615.91056,E,45.70,261.75,240924,,,*11
$GPGGA,084154.300,5559.84982,N,03615.91056,E,1,12,,249.10,M,,M,,*57
$GPRMC,084154.400,A,5559.84964,N,03615.90834,E,45.80,261.75,240924,,,*1C
$GPGGA,084154.400,5559.84964,N,03615.90834,E,1,12,,249.00,M,,M,,*54
$GPRMC,084154.500,A,5559.84934,N,03615.90606,E,46.23,256.76,240924,,,*1A
$GPGGA,084154.500,5559.84934,N,03615.90606,E,1,12,,249.00,M,,M,,*5F
$GPRMC,084154.600,A,5559.84904,N,03615.90384,E,47.20,256.42,240924,,,*10
$GPGGA,084154.600,5559.84904,N,03615.90384,E,1,12,,249.00,M,,M,,*50
$GPRMC,084154.700,A,5559.84862,N,03615.90156,E,47.57,251.77,240924,,,*1C
$GPGGA,084154.700,5559.84862,N,03615.90156,E,1,12,,249.00,M,,M,,*5D
$GPRMC,084154.800,A,5559.84820,N,03615.89928,E,48.04,251.77,240924,,,*15
$GPGGA,084154.800,5559.84820,N,03615.89928,E,1,12,,248.90,M,,M,,*55
$GPRMC,084154.900,A,5559.84778,N,03615.89700,E,48.86,251.77,240924,,,*18
$GPGGA,084154.900,5559.84778,N,03615.89700,E,1,12,,248.90,M,,M,,*52
$GPRMC,084155.000,A,5559.84724,N,03615.89472,E,49.27,247.05,240924,,,*17
$GPGGA,084155.000,5559.84724,N,03615.89472,E,1,12,,248.90,M,,M,,*55
$GPRMC,084155.100,A,5559.84670,N,03615.89244,E,50.02,247.05,240924,,,*1A
$GPGGA,084155.100,5559.84670,N,03615.89244,E,1,12,,248.80,M,,M,,*56
$GPRMC,084155.200,A,5559.84616,N,03615.89016,E,50.73,247.05,240924,,,*1A
$GPGGA,084155.200,5559.84616,N,03615.89016,E,1,12,,248.70,M,,M,,*5F
$GPRMC,084155.300,A,5559.84550,N,03615.88788,E,51.38,242.63,240924,,,*10
$GPGGA,084155.300,5559.84550,N,03615.88788,E,1,12,,248.70,M,,M,,*5E
$GPRMC,084155.400,A,5559.84490,N,03615.88554,E,52.10,245.37,240924,,,*16
$GPGGA,084155.400,5559.84490,N,03615.88554,E,1,12,,248.60,M,,M,,*56
$GPRMC,084155.500,A,5559.84424,N,03615.88320,E,52.95,243.24,240924,,,*14
$GPGGA,084155.500,5559.84424,N,03615.88320,E,1,12,,248.50,M,,M,,*5E
$GPRMC,084155.600,A,5559.84352,N,03615.88086,E,53.63,241.18,240924,,,*1B
$GPGGA,084155.600,5559.84352,N,03615.88086,E,1,12,,248.40,M,,M,,*55
$GPRMC,084155.700,A,5559.84286,N,03615.87840,E,54.43,244.37,240924,,,*12
$GPGGA,084155.700,5559.84286,N,03615.87840,E,1,12,,248.30,M,,M,,*56
$GPRMC,084155.800,A,5559.84220,N,03615.87594,E,55.15,244.37,240924,,,*17
$GPGGA,084155.800,5559.84220,N,03615.87594,E,1,12,,248.20,M,,M,,*50
$GPRMC,084155.900,A,5559.84154,N,03615.87348,E,55.85,244.37,240924,,,*18
$GPGGA,084155.900,5559.84154,N,03615.87348,E,1,12,,248.10,M,,M,,*55
$GPRMC,084156.000,A,5559.84088,N,03615.87090,E,56.60,245.42,240924,,,*1F
$GPGGA,084156.000,5559.84088,N,03615.87090,E,1,12,,248.00,M,,M,,*58
$GPRMC,084156.100,A,5559.84022,N,03615.86832,E,57.29,245.42,240924,,,*13
$GPGGA,084156.100,5559.84022,N,03615.86832,E,1,12,,247.90,M,,M,,*5E
$GPRMC,084156.200,A,5559.83962,N,03615.86568,E,57.91,247.88,240924,,,*1F
$GPGGA,084156.200,5559.83962,N,03615.86568,E,1,12,,247.80,M,,M,,*54
$GPRMC,084156.300,A,5559.83902,N,03615.86298,E,58.57,248.33,240924,,,*1A
$GPGGA,084156.300,5559.83902,N,03615.86298,E,1,12,,247.60,M,,M,,*55
$GPRMC,084156.400,A,5559.83842,N,03615.86028,E,59.35,248.33,240924,,,*14
$GPGGA,084156.400,5559.83842,N,03615.86028,E,1,12,,247.50,M,,M,,*5D
$GPRMC,084156.500,A,5559.83782,N,03615.85746,E,59.94,249.17,240924,,,*16
$GPGGA,084156.500,5559.83782,N,03615.85746,E,1,12,,247.40,M,,M,,*52
$GPRMC,084156.600,A,5559.83728,N,03615.85464,E,60.67,251.10,240924,,,*1E
$GPGGA,084156.600,5559.83728,N,03615.85464,E,1,12,,247.20,M,,M,,*54
$GPRMC,084156.700,A,5559.83674,N,03615.85176,E,61.25,251.46,240924,,,*15
$GPGGA,084156.700,5559.83674,N,03615.85176,E,1,12,,247.10,M,,M,,*58
$GPRMC,084156.800,A,5559.83620,N,03615.84882,E,61.94,251.82,240924,,,*1A
$GPGGA,084156.800,5559.83620,N,03615.84882,E,1,12,,246.90,M,,M,,*5C
$GPRMC,084156.900,A,5559.83578,N,03615.84588,E,62.65,255.67,240924,,,*10
$GPGGA,084156.900,5559.83578,N,03615.84588,E,1,12,,246.70,M,,M,,*5A
$GPRMC,084157.000,A,5559.83530,N,03615.84282,E,63.31,254.33,240924,,,*19
$GPGGA,084157.000,5559.83530,N,03615.84282,E,1,12,,246.60,M,,M,,*52
$GPRMC,084157.100,A,5559.83488,N,03615.83976,E,63.82,256.21,240924,,,*14
$GPGGA,084157.100,5559.83488,N,03615.83976,E,1,12,,246.40,M,,M,,*54
$GPRMC,084157.200,A,5559.83452,N,03615.83664,E,64.53,258.34,240924,,,*1D
$GPGGA,084157.200,5559.83452,N,03615.83664,E,1,12,,246.30,M,,M,,*5B
$GPRMC,084157.300,A,5559.83422,N,03615.83346,E,65.07,260.42,240924,,,*14
$GPGGA,084157.300,5559.83422,N,03615.83346,E,1,12,,246.10,M,,M,,*5A
$GPRMC,084157.400,A,5559.83386,N,03615.83028,E,65.77,258.56,240924,,,*18
$GPGGA,084157.400,5559.83386,N,03615.83028,E,1,12,,245.90,M,,M,,*54
$GPRMC,084157.500,A,5559.83362,N,03615.82698,E,66.11,262.59,240924,,,*1A
$GPGGA,084157.500,5559.83362,N,03615.82698,E,1,12,,245.70,M,,M,,*5D
$GPRMC,084157.600,A,5559.83344,N,03615.82368,E,66.70,264.43,240924,,,*1D
$GPGGA,084157.600,5559.83344,N,03615.82368,E,1,12,,245.60,M,,M,,*51
$GPRMC,084157.700,A,5559.83332,N,03615.82038,E,67.40,266.28,240924,,,*16
$GPGGA,084157.700,5559.83332,N,03615.82038,E,1,12,,245.50,M,,M,,*54
$GPRMC,084157.800,A,5559.83320,N,03615.81702,E,67.94,266.35,240924,,,*12
$GPGGA,084157.800,5559.83320,N,03615.81702,E,1,12,,245.30,M,,M,,*53
$GPRMC,084157.900,A,5559.83314,N,03615.81360,E,68.51,268.20,240924,,,*18
$GPGGA,084157.900,5559.83314,N,03615.81360,E,1,12,,245.20,M,,M,,*54
$GPRMC,084158.000,A,5559.83308,N,03615.81018,E,69.29,268.20,240924,,,*11
$GPGGA,084158.000,5559.83308,N,03615.81018,E,1,12,,245.00,M,,M,,*51
$GPRMC,084158.100,A,5559.83308,N,03615.80670,E,69.90,270.00,240924,,,*10
$GPGGA,084158.100,5559.83308,N,03615.80670,E,1,12,,244.90,M,,M,,*51
$GPRMC,084158.200,A,5559.83314,N,03615.80322,E,70.45,271.77,240924,,,*1D
$GPGGA,084158.200,5559.83314,N,03615.80322,E,1,12,,244.70,M,,M,,*53
$GPRMC,084158.300,A,5559.83320,N,03615.79968,E,71.06,271.74,240924,,,*1C
$GPGGA,084158.300,5559.83320,N,03615.79968,E,1,12,,244.50,M,,M,,*55
$GPRMC,084158.400,A,5559.83332,N,03615.79614,E,71.67,273.47,240924,,,*19
$GPGGA,084158.400,5559.83332,N,03615.79614,E,1,12,,244.30,M,,M,,*53
$GPRMC,084158.500,A,5559.83344,N,03615.79260,E,72.22,273.47,240924,,,*1C
$GPGGA,084158.500,5559.83344,N,03615.79260,E,1,12,,244.10,M,,M,,*56
$GPRMC,084158.600,A,5559.83362,N,03615.78900,E,72.84,275.11,240924,,,*1E
$GPGGA,084158.600,5559.83362,N,03615.78900,E,1,12,,244.00,M,,M,,*5C
$GPRMC,084158.700,A,5559.83380,N,03615.78534,E,73.26,275.03,240924,,,*12
$GPGGA,084158.700,5559.83380,N,03615.78534,E,1,12,,243.80,M,,M,,*55
$GPRMC,084158.800,A,5559.83404,N,03615.78174,E,73.88,276.80,240924,,,*1A
$GPGGA,084158.800,5559.83404,N,03615.78174,E,1,12,,243.60,M,,M,,*5F
$GPRMC,084158.900,A,5559.83422,N,03615.77802,E,74.44,274.95,240924,,,*19
$GPGGA,084158.900,5559.83422,N,03615.77802,E,1,12,,243.40,M,,M,,*5F
$GPRMC,084159.000,A,5559.83446,N,03615.77436,E,75.17,276.69,240924,,,*1E
$GPGGA,084159.000,5559.83446,N,03615.77436,E,1,12,,243.20,M,,M,,*58
