$GPRMC,135802.698,A,5559.66574,N,03616.22574,E,56.91,3.69,240924,,,*15
$GPGGA,135802.698,5559.66574,N,03616.22574,E,1,12,,246.90,M,,M,,*52
$GPRMC,135802.798,A,5559.66736,N,03616.22592,E,57.31,3.56,240924,,,*1F
$GPGGA,135802.798,5559.66736,N,03616.22592,E,1,12,,246.90,M,,M,,*5F
$GPRMC,135802.898,A,5559.66892,N,03616.22610,E,57.56,3.69,240924,,,*15
$GPGGA,135802.898,5559.66892,N,03616.22610,E,1,12,,246.90,M,,M,,*58
$GPRMC,135802.998,A,5559.67054,N,03616.22628,E,57.93,3.56,240924,,,*19
$GPGGA,135802.998,5559.67054,N,03616.22628,E,1,12,,246.80,M,,M,,*50
$GPRMC,135803.098,A,5559.67216,N,03616.22652,E,58.33,4.74,240924,,,*1A
$GPGGA,135803.098,5559.67216,N,03616.22652,E,1,12,,246.80,M,,M,,*51
$GPRMC,135803.198,A,5559.67378,N,03616.22670,E,58.82,3.56,240924,,,*1F
$GPGGA,135803.198,5559.67378,N,03616.22670,E,1,12,,246.80,M,,M,,*59
$GPRMC,135803.298,A,5559.67546,N,03616.22688,E,59.03,3.43,240924,,,*1C
$GPGGA,135803.298,5559.67546,N,03616.22688,E,1,12,,246.80,M,,M,,*56
$GPRMC,135803.398,A,5559.67708,N,03616.22712,E,59.42,4.74,240924,,,*11
$GPGGA,135803.398,5559.67708,N,03616.22712,E,1,12,,246.80,M,,M,,*5D
$GPRMC,135803.498,A,5559.67876,N,03616.22730,E,59.83,3.43,240924,,,*1E
$GPGGA,135803.498,5559.67876,N,03616.22730,E,1,12,,246.80,M,,M,,*5C
$GPRMC,135803.598,A,5559.68038,N,03616.22754,E,60.18,4.74,240924,,,*1B
$GPGGA,135803.598,5559.68038,N,03616.22754,E,1,12,,246.80,M,,M,,*52
$GPRMC,135803.698,A,5559.68212,N,03616.22772,E,60.53,3.31,240924,,,*1F
$GPGGA,135803.698,5559.68212,N,03616.22772,E,1,12,,246.80,M,,M,,*5F
$GPRMC,135803.798,A,5559.68380,N,03616.22796,E,60.83,4.57,240924,,,*14
$GPGGA,135803.798,5559.68380,N,03616.22796,E,1,12,,246.90,M,,M,,*5F
$GPRMC,135803.898,A,5559.68548,N,03616.22814,E,61.04,3.43,240924,,,*10
$GPGGA,135803.898,5559.68548,N,03616.22814,E,1,12,,246.90,M,,M,,*57
$GPRMC,135803.998,A,5559.68716,N,03616.22838,E,61.73,4.57,240924,,,*14
$GPGGA,135803.998,5559.68716,N,03616.22838,E,1,12,,246.90,M,,M,,*51
$GPRMC,135804.098,A,5559.68890,N,03616.22862,E,62.05,4.41,240924,,,*11
$GPGGA,135804.098,5559.68890,N,03616.22862,E,1,12,,246.90,M,,M,,*51
$GPRMC,135804.198,A,5559.69064,N,03616.22880,E,62.36,3.31,240924,,,*1E
$GPGGA,135804.198,5559.69064,N,03616.22880,E,1,12,,246.90,M,,M,,*5E
$GPRMC,135804.298,A,5559.69238,N,03616.22904,E,62.84,4.41,240924,,,*12
$GPGGA,135804.298,5559.69238,N,03616.22904,E,1,12,,246.90,M,,M,,*5B
$GPRMC,135804.398,A,5559.69412,N,03616.22922,E,63.21,3.31,240924,,,*17
$GPGGA,135804.398,5559.69412,N,03616.22922,E,1,12,,246.90,M,,M,,*50
$GPRMC,135804.498,A,5559.69592,N,03616.22946,E,63.47,4.26,240924,,,*1A
$GPGGA,135804.498,5559.69592,N,03616.22946,E,1,12,,246.90,M,,M,,*5C
$GPRMC,135804.598,A,5559.69766,N,03616.22964,E,63.91,3.31,240924,,,*18
$GPGGA,135804.598,5559.69766,N,03616.22964,E,1,12,,246.90,M,,M,,*54
$GPRMC,135804.698,A,5559.69946,N,03616.22982,E,64.19,3.20,240924,,,*18
$GPGGA,135804.698,5559.69946,N,03616.22982,E,1,12,,246.90,M,,M,,*53
$GPRMC,135804.798,A,5559.70126,N,03616.23006,E,64.51,4.26,240924,,,*16
$GPGGA,135804.798,5559.70126,N,03616.23006,E,1,12,,246.90,M,,M,,*50
$GPRMC,135804.898,A,5559.70306,N,03616.23024,E,64.80,3.20,240924,,,*14
$GPGGA,135804.898,5559.70306,N,03616.23024,E,1,12,,246.90,M,,M,,*5F
$GPRMC,135804.998,A,5559.70486,N,03616.23042,E,64.95,3.20,240924,,,*1E
$GPGGA,135804.998,5559.70486,N,03616.23042,E,1,12,,246.90,M,,M,,*51
$GPRMC,135805.098,A,5559.70660,N,03616.23066,E,64.78,4.41,240924,,,*19
$GPGGA,135805.098,5559.70660,N,03616.23066,E,1,12,,246.90,M,,M,,*55
$GPRMC,135805.198,A,5559.70840,N,03616.23084,E,64.97,3.20,240924,,,*19
$GPGGA,135805.198,5559.70840,N,03616.23084,E,1,12,,246.90,M,,M,,*54
$GPRMC,135805.298,A,5559.71026,N,03616.23102,E,65.68,3.10,240924,,,*1E
$GPGGA,135805.298,5559.71026,N,03616.23102,E,1,12,,246.90,M,,M,,*51
$GPRMC,135805.398,A,5559.71212,N,03616.23126,E,65.99,4.13,240924,,,*16
$GPGGA,135805.398,5559.71212,N,03616.23126,E,1,12,,246.90,M,,M,,*53
$GPRMC,135805.498,A,5559.71392,N,03616.23150,E,66.36,4.26,240924,,,*19
$GPGGA,135805.498,5559.71392,N,03616.23150,E,1,12,,246.90,M,,M,,*5C
$GPRMC,135805.598,A,5559.71578,N,03616.23174,E,66.70,4.13,240924,,,*18
$GPGGA,135805.598,5559.71578,N,03616.23174,E,1,12,,246.90,M,,M,,*59
$GPRMC,135805.698,A,5559.71764,N,03616.23198,E,67.02,4.13,240924,,,*12
$GPGGA,135805.698,5559.71764,N,03616.23198,E,1,12,,246.90,M,,M,,*57
$GPRMC,135805.798,A,5559.71950,N,03616.23222,E,67.32,4.13,240924,,,*1B
$GPGGA,135805.798,5559.71950,N,03616.23222,E,1,12,,246.90,M,,M,,*5D
$GPRMC,135805.898,A,5559.72136,N,03616.23246,E,67.68,4.13,240924,,,*12
$GPGGA,135805.898,5559.72136,N,03616.23246,E,1,12,,246.90,M,,M,,*5B
$GPRMC,135805.998,A,5559.72322,N,03616.23270,E,67.90,4.13,240924,,,*16
$GPGGA,135805.998,5559.72322,N,03616.23270,E,1,12,,246.90,M,,M,,*58
$GPRMC,135806.098,A,5559.72514,N,03616.23294,E,68.25,4.00,240924,,,*16
$GPGGA,135806.098,5559.72514,N,03616.23294,E,1,12,,246.90,M,,M,,*5B
$GPRMC,135806.198,A,5559.72700,N,03616.23318,E,68.54,4.13,240924,,,*11
$GPGGA,135806.198,5559.72700,N,03616.23318,E,1,12,,247.00,M,,M,,*50
$GPRMC,135806.298,A,5559.72892,N,03616.23348,E,68.78,4.99,240924,,,*1F
$GPGGA,135806.298,5559.72892,N,03616.23348,E,1,12,,246.90,M,,M,,*5A
$GPRMC,135806.398,A,5559.73084,N,03616.23372,E,69.25,4.00,240924,,,*10
$GPGGA,135806.398,5559.73084,N,03616.23372,E,1,12,,247.00,M,,M,,*54
$GPRMC,135806.498,A,5559.73276,N,03616.23402,E,69.39,4.99,240924,,,*15
$GPGGA,135806.498,5559.73276,N,03616.23402,E,1,12,,247.00,M,,M,,*5C
$GPRMC,135806.598,A,5559.73468,N,03616.23426,E,69.75,4.00,240924,,,*13
$GPGGA,135806.598,5559.73468,N,03616.23426,E,1,12,,246.90,M,,M,,*5A
$GPRMC,135806.698,A,5559.73666,N,03616.23456,E,70.09,4.84,240924,,,*14
$GPGGA,135806.698,5559.73666,N,03616.23456,E,1,12,,246.90,M,,M,,*52
$GPRMC,135806.798,A,5559.73858,N,03616.23486,E,70.27,4.99,240924,,,*1B
$GPGGA,135806.798,5559.73858,N,03616.23486,E,1,12,,246.90,M,,M,,*5D
$GPRMC,135806.898,A,5559.74056,N,03616.23510,E,70.51,3.88,240924,,,*1D
$GPGGA,135806.898,5559.74056,N,03616.23510,E,1,12,,247.00,M,,M,,*55
$GPRMC,135806.998,A,5559.74248,N,03616.23540,E,70.75,4.99,240924,,,*15
$GPGGA,135806.998,5559.74248,N,03616.23540,E,1,12,,247.00,M,,M,,*5C
$GPRMC,135807.098,A,5559.74446,N,03616.23570,E,71.18,4.84,240924,,,*10
$GPGGA,135807.098,5559.74446,N,03616.23570,E,1,12,,247.00,M,,M,,*5F
$GPRMC,135807.198,A,5559.74644,N,03616.23600,E,71.44,4.84,240924,,,*1C
$GPGGA,135807.198,5559.74644,N,03616.23600,E,1,12,,247.00,M,,M,,*5A
$GPRMC,135807.298,A,5559.74842,N,03616.23636,E,71.70,5.81,240924,,,*11
$GPGGA,135807.298,5559.74842,N,03616.23636,E,1,12,,247.00,M,,M,,*54
$GPRMC,135807.398,A,5559.75040,N,03616.23660,E,72.05,3.88,240924,,,*16
$GPGGA,135807.398,5559.75040,N,03616.23660,E,1,12,,247.00,M,,M,,*5D
$GPRMC,135807.498,A,5559.75244,N,03616.23690,E,72.82,4.70,240924,,,*17
$GPGGA,135807.498,5559.75244,N,03616.23690,E,1,12,,246.90,M,,M,,*5B
$GPRMC,135807.598,A,5559.75448,N,03616.23726,E,72.84,5.64,240924,,,*12
$GPGGA,135807.598,5559.75448,N,03616.23726,E,1,12,,246.90,M,,M,,*5C
$GPRMC,135807.698,A,5559.75646,N,03616.23756,E,73.30,4.84,240924,,,*1B
$GPGGA,135807.698,5559.75646,N,03616.23756,E,1,12,,246.80,M,,M,,*55
$GPRMC,135807.798,A,5559.75850,N,03616.23786,E,73.43,4.70,240924,,,*11
$GPGGA,135807.798,5559.75850,N,03616.23786,E,1,12,,246.80,M,,M,,*50
$GPRMC,135807.898,A,5559.76054,N,03616.23816,E,73.34,4.70,240924,,,*17
$GPGGA,135807.898,5559.76054,N,03616.23816,E,1,12,,246.80,M,,M,,*56
$GPRMC,135807.998,A,5559.76258,N,03616.23846,E,73.67,4.70,240924,,,*1B
$GPGGA,135807.998,5559.76258,N,03616.23846,E,1,12,,246.80,M,,M,,*5C
$GPRMC,135808.098,A,5559.76462,N,03616.23876,E,73.83,4.70,240924,,,*1B
$GPGGA,135808.098,5559.76462,N,03616.23876,E,1,12,,246.80,M,,M,,*56
$GPRMC,135808.198,A,5559.76666,N,03616.23906,E,73.92,4.70,240924,,,*1A
$GPGGA,135808.198,5559.76666,N,03616.23906,E,1,12,,246.80,M,,M,,*57
$GPRMC,135808.298,A,5559.76876,N,03616.23930,E,74.59,3.66,240924,,,*13
$GPGGA,135808.298,5559.76876,N,03616.23930,E,1,12,,246.80,M,,M,,*5E
$GPRMC,135808.398,A,5559.77080,N,03616.23960,E,74.72,4.70,240924,,,*1E
$GPGGA,135808.398,5559.77080,N,03616.23960,E,1,12,,246.80,M,,M,,*5A
$GPRMC,135808.498,A,5559.77290,N,03616.23990,E,74.86,4.57,240924,,,*1B
$GPGGA,135808.498,5559.77290,N,03616.23990,E,1,12,,246.80,M,,M,,*51
$GPRMC,135808.598,A,5559.77494,N,03616.24020,E,75.07,4.70,240924,,,*10
$GPGGA,135808.598,5559.77494,N,03616.24020,E,1,12,,246.80,M,,M,,*57
$GPRMC,135808.698,A,5559.77704,N,03616.24050,E,75.53,4.57,240924,,,*1A
$GPGGA,135808.698,5559.77704,N,03616.24050,E,1,12,,246.80,M,,M,,*59
$GPRMC,135808.798,A,5559.77914,N,03616.24074,E,75.54,3.66,240924,,,*10
$GPGGA,135808.798,5559.77914,N,03616.24074,E,1,12,,246.80,M,,M,,*51
$GPRMC,135808.898,A,5559.78124,N,03616.24110,E,75.84,5.48,240924,,,*1F
$GPGGA,135808.898,5559.78124,N,03616.24110,E,1,12,,246.80,M,,M,,*59
$GPRMC,135808.998,A,5559.78334,N,03616.24140,E,76.10,4.57,240924,,,*19
$GPGGA,135808.998,5559.78334,N,03616.24140,E,1,12,,246.80,M,,M,,*5E
$GPRMC,135809.098,A,5559.78544,N,03616.24170,E,76.24,4.57,240924,,,*14
$GPGGA,135809.098,5559.78544,N,03616.24170,E,1,12,,246.80,M,,M,,*54
$GPRMC,135809.198,A,5559.78760,N,03616.24206,E,76.61,5.33,240924,,,*11
$GPGGA,135809.198,5559.78760,N,03616.24206,E,1,12,,246.80,M,,M,,*53
$GPRMC,135809.298,A,5559.78970,N,03616.24236,E,76.80,4.57,240924,,,*12
$GPGGA,135809.298,5559.78970,N,03616.24236,E,1,12,,246.80,M,,M,,*5C
$GPRMC,135809.398,A,5559.79180,N,03616.24272,E,76.96,5.48,240924,,,*1D
$GPGGA,135809.398,5559.79180,N,03616.24272,E,1,12,,246.80,M,,M,,*5B
$GPRMC,135809.498,A,5559.79396,N,03616.24308,E,77.42,5.32,240924,,,*16
$GPGGA,135809.498,5559.79396,N,03616.24308,E,1,12,,246.80,M,,M,,*55
$GPRMC,135809.598,A,5559.79612,N,03616.24344,E,77.38,5.32,240924,,,*1B
$GPGGA,135809.598,5559.79612,N,03616.24344,E,1,12,,246.80,M,,M,,*55
$GPRMC,135809.698,A,5559.79822,N,03616.24380,E,77.68,5.48,240924,,,*15
$GPGGA,135809.698,5559.79822,N,03616.24380,E,1,12,,246.80,M,,M,,*53
$GPRMC,135809.798,A,5559.80038,N,03616.24410,E,77.98,4.44,240924,,,*1D
$GPGGA,135809.798,5559.80038,N,03616.24410,E,1,12,,246.90,M,,M,,*58
$GPRMC,135809.898,A,5559.80254,N,03616.24446,E,78.12,5.32,240924,,,*14
$GPGGA,135809.898,5559.80254,N,03616.24446,E,1,12,,246.90,M,,M,,*5C
$GPRMC,135809.998,A,5559.80470,N,03616.24482,E,78.33,5.32,240924,,,*1E
$GPGGA,135809.998,5559.80470,N,03616.24482,E,1,12,,246.90,M,,M,,*55
$GPRMC,135810.098,A,5559.80692,N,03616.24518,E,78.69,5.18,240924,,,*14
$GPGGA,135810.098,5559.80692,N,03616.24518,E,1,12,,246.90,M,,M,,*58
$GPRMC,135810.198,A,5559.80908,N,03616.24548,E,78.70,4.44,240924,,,*1C
$GPGGA,135810.198,5559.80908,N,03616.24548,E,1,12,,246.90,M,,M,,*50
$GPRMC,135810.298,A,5559.81130,N,03616.24584,E,79.00,5.18,240924,,,*13
$GPGGA,135810.298,5559.81130,N,03616.24584,E,1,12,,246.90,M,,M,,*51
$GPRMC,135810.398,A,5559.81346,N,03616.24620,E,79.00,5.32,240924,,,*14
$GPGGA,135810.398,5559.81346,N,03616.24620,E,1,12,,246.90,M,,M,,*5E
$GPRMC,135810.498,A,5559.81562,N,03616.24656,E,78.43,5.32,240924,,,*14
$GPGGA,135810.498,5559.81562,N,03616.24656,E,1,12,,246.90,M,,M,,*58
$GPRMC,135810.598,A,5559.81778,N,03616.24686,E,77.70,4.44,240924,,,*1E
$GPGGA,135810.598,5559.81778,N,03616.24686,E,1,12,,247.00,M,,M,,*55
$GPRMC,135810.698,A,5559.81988,N,03616.24722,E,77.09,5.48,240924,,,*10
$GPGGA,135810.698,5559.81988,N,03616.24722,E,1,12,,247.00,M,,M,,*58
$GPRMC,135810.798,A,5559.82198,N,03616.24758,E,76.20,5.48,240924,,,*1C
$GPGGA,135810.798,5559.82198,N,03616.24758,E,1,12,,247.00,M,,M,,*5E
$GPRMC,135810.898,A,5559.82402,N,03616.24788,E,74.94,4.70,240924,,,*1F
$GPGGA,135810.898,5559.82402,N,03616.24788,E,1,12,,247.10,M,,M,,*5B
$GPRMC,135810.998,A,5559.82606,N,03616.24824,E,73.29,5.64,240924,,,*14
$GPGGA,135810.998,5559.82606,N,03616.24824,E,1,12,,247.20,M,,M,,*56
$GPRMC,135811.098,A,5559.82804,N,03616.24848,E,71.59,3.88,240924,,,*1B
$GPGGA,135811.098,5559.82804,N,03616.24848,E,1,12,,247.20,M,,M,,*58
$GPRMC,135811.198,A,5559.82996,N,03616.24866,E,70.15,3.00,240924,,,*15
$GPGGA,135811.198,5559.82996,N,03616.24866,E,1,12,,247.30,M,,M,,*5E
$GPRMC,135811.298,A,5559.83188,N,03616.24878,E,69.36,2.00,240924,,,*17
$GPGGA,135811.298,5559.83188,N,03616.24878,E,1,12,,247.40,M,,M,,*53
$GPRMC,135811.398,A,5559.83380,N,03616.24884,E,68.85,1.00,240924,,,*15
$GPGGA,135811.398,5559.83380,N,03616.24884,E,1,12,,247.40,M,,M,,*5B
$GPRMC,135811.498,A,5559.83572,N,03616.24884,E,68.61,0.00,240924,,,*12
$GPGGA,135811.498,5559.83572,N,03616.24884,E,1,12,,247.40,M,,M,,*57
$GPRMC,135811.598,A,5559.83758,N,03616.24872,E,68.38,357.93,240924,,,*17
$GPGGA,135811.598,5559.83758,N,03616.24872,E,1,12,,247.40,M,,M,,*55
$GPRMC,135811.698,A,5559.83944,N,03616.24854,E,68.32,356.90,240924,,,*1B
$GPGGA,135811.698,5559.83944,N,03616.24854,E,1,12,,247.50,M,,M,,*50
$GPRMC,135811.798,A,5559.84136,N,03616.24824,E,68.57,355.01,240924,,,*1F
$GPGGA,135811.798,5559.84136,N,03616.24824,E,1,12,,247.50,M,,M,,*5C
$GPRMC,135811.898,A,5559.84322,N,03616.24782,E,68.13,352.80,240924,,,*1A
$GPGGA,135811.898,5559.84322,N,03616.24782,E,1,12,,247.50,M,,M,,*57
$GPRMC,135811.998,A,5559.84508,N,03616.24734,E,67.81,351.79,240924,,,*19
$GPGGA,135811.998,5559.84508,N,03616.24734,E,1,12,,247.50,M,,M,,*55
$GPRMC,135812.098,A,5559.84694,N,03616.24674,E,68.04,349.77,240924,,,*15
$GPGGA,135812.098,5559.84694,N,03616.24674,E,1,12,,247.60,M,,M,,*5F
$GPRMC,135812.198,A,5559.84880,N,03616.24608,E,67.84,348.78,240924,,,*1D
$GPGGA,135812.198,5559.84880,N,03616.24608,E,1,12,,247.60,M,,M,,*5E
$GPRMC,135812.298,A,5559.85066,N,03616.24530,E,68.02,346.80,240924,,,*1F
$GPGGA,135812.298,5559.85066,N,03616.24530,E,1,12,,247.60,M,,M,,*54
$GPRMC,135812.398,A,5559.85246,N,03616.24440,E,68.25,344.38,240924,,,*1C
$GPGGA,135812.398,5559.85246,N,03616.24440,E,1,12,,247.70,M,,M,,*52
$GPRMC,135812.498,A,5559.85432,N,03616.24344,E,68.61,343.90,240924,,,*18
$GPGGA,135812.498,5559.85432,N,03616.24344,E,1,12,,247.70,M,,M,,*53
$GPRMC,135812.598,A,5559.85612,N,03616.24236,E,68.40,341.45,240924,,,*14
$GPGGA,135812.598,5559.85612,N,03616.24236,E,1,12,,247.70,M,,M,,*56
$GPRMC,135812.698,A,5559.85792,N,03616.24116,E,68.63,339.55,240924,,,*10
$GPGGA,135812.698,5559.85792,N,03616.24116,E,1,12,,247.70,M,,M,,*5D
$GPRMC,135812.798,A,5559.85966,N,03616.23990,E,68.97,337.95,240924,,,*1C
$GPGGA,135812.798,5559.85966,N,03616.23990,E,1,12,,247.70,M,,M,,*58
$GPRMC,135812.898,A,5559.86140,N,03616.23846,E,68.73,335.16,240924,,,*15
$GPGGA,135812.898,5559.86140,N,03616.23846,E,1,12,,247.70,M,,M,,*52
$GPRMC,135812.998,A,5559.86308,N,03616.23696,E,68.44,333.47,240924,,,*1F
$GPGGA,135812.998,5559.86308,N,03616.23696,E,1,12,,247.70,M,,M,,*5E
$GPRMC,135813.098,A,5559.86476,N,03616.23534,E,68.44,331.66,240924,,,*13
$GPGGA,135813.098,5559.86476,N,03616.23534,E,1,12,,247.80,M,,M,,*5C
$GPRMC,135813.198,A,5559.86638,N,03616.23360,E,68.13,329.01,240924,,,*17
$GPGGA,135813.198,5559.86638,N,03616.23360,E,1,12,,247.90,M,,M,,*53
$GPRMC,135813.298,A,5559.86800,N,03616.23186,E,68.15,329.01,240924,,,*1D
$GPGGA,135813.298,5559.86800,N,03616.23186,E,1,12,,248.00,M,,M,,*59
$GPRMC,135813.398,A,5559.86962,N,03616.23000,E,68.39,327.30,240924,,,*14
$GPGGA,135813.398,5559.86962,N,03616.23000,E,1,12,,248.00,M,,M,,*52
$GPRMC,135813.498,A,5559.87118,N,03616.22808,E,68.32,325.46,240924,,,*1E
$GPGGA,135813.498,5559.87118,N,03616.22808,E,1,12,,248.10,M,,M,,*51
$GPRMC,135813.598,A,5559.87268,N,03616.22598,E,68.50,321.94,240924,,,*10
$GPGGA,135813.598,5559.87268,N,03616.22598,E,1,12,,248.20,M,,M,,*53
$GPRMC,135813.698,A,5559.87412,N,03616.22382,E,68.59,320.01,240924,,,*11
$GPGGA,135813.698,5559.87412,N,03616.22382,E,1,12,,248.20,M,,M,,*56
$GPRMC,135813.798,A,5559.87556,N,03616.22160,E,68.57,319.23,240924,,,*1B
$GPGGA,135813.798,5559.87556,N,03616.22160,E,1,12,,248.30,M,,M,,*59
$GPRMC,135813.898,A,5559.87694,N,03616.21926,E,68.77,316.52,240924,,,*1B
$GPGGA,135813.898,5559.87694,N,03616.21926,E,1,12,,248.40,M,,M,,*55
$GPRMC,135813.998,A,5559.87826,N,03616.21686,E,68.56,314.52,240924,,,*19
$GPGGA,135813.998,5559.87826,N,03616.21686,E,1,12,,248.40,M,,M,,*56
$GPRMC,135814.098,A,5559.87958,N,03616.21440,E,68.66,313.82,240924,,,*1E
$GPGGA,135814.098,5559.87958,N,03616.21440,E,1,12,,248.50,M,,M,,*59
$GPRMC,135814.198,A,5559.88084,N,03616.21182,E,68.63,311.13,240924,,,*1C
$GPGGA,135814.198,5559.88084,N,03616.21182,E,1,12,,248.60,M,,M,,*57
$GPRMC,135814.298,A,5559.88204,N,03616.20918,E,68.58,309.10,240924,,,*1D
$GPGGA,135814.298,5559.88204,N,03616.20918,E,1,12,,248.60,M,,M,,*54
$GPRMC,135814.398,A,5559.88318,N,03616.20648,E,68.84,307.05,240924,,,*11
$GPGGA,135814.398,5559.88318,N,03616.20648,E,1,12,,248.70,M,,M,,*52
$GPRMC,135814.498,A,5559.88432,N,03616.20366,E,68.93,305.86,240924,,,*1F
$GPGGA,135814.498,5559.88432,N,03616.20366,E,1,12,,248.70,M,,M,,*53
$GPRMC,135814.598,A,5559.88540,N,03616.20084,E,69.03,304.41,240924,,,*17
$GPGGA,135814.598,5559.88540,N,03616.20084,E,1,12,,248.80,M,,M,,*56
$GPRMC,135814.698,A,5559.88642,N,03616.19802,E,68.78,302.89,240924,,,*16
$GPGGA,135814.698,5559.88642,N,03616.19802,E,1,12,,248.80,M,,M,,*58
$GPRMC,135814.798,A,5559.88744,N,03616.19508,E,69.21,301.82,240924,,,*12
$GPGGA,135814.798,5559.88744,N,03616.19508,E,1,12,,248.90,M,,M,,*58
$GPRMC,135814.898,A,5559.88846,N,03616.19214,E,69.48,301.82,240924,,,*15
$GPGGA,135814.898,5559.88846,N,03616.19214,E,1,12,,248.90,M,,M,,*50
$GPRMC,135814.998,A,5559.88942,N,03616.18914,E,69.29,299.78,240924,,,*19
$GPGGA,135814.998,5559.88942,N,03616.18914,E,1,12,,249.00,M,,M,,*56
$GPRMC,135815.098,A,5559.89032,N,03616.18614,E,69.78,298.21,240924,,,*18
$GPGGA,135815.098,5559.89032,N,03616.18614,E,1,12,,249.00,M,,M,,*5E
$GPRMC,135815.198,A,5559.89122,N,03616.18308,E,69.93,297.74,240924,,,*1B
$GPGGA,135815.198,5559.89122,N,03616.18308,E,1,12,,249.10,M,,M,,*56
$GPRMC,135815.298,A,5559.89212,N,03616.17996,E,70.19,297.29,240924,,,*18
$GPGGA,135815.298,5559.89212,N,03616.17996,E,1,12,,249.10,M,,M,,*57
$GPRMC,135815.398,A,5559.89302,N,03616.17684,E,70.49,297.29,240924,,,*10
$GPGGA,135815.398,5559.89302,N,03616.17684,E,1,12,,249.20,M,,M,,*59
$GPRMC,135815.498,A,5559.89392,N,03616.17372,E,70.67,297.29,240924,,,*1E
$GPGGA,135815.498,5559.89392,N,03616.17372,E,1,12,,249.20,M,,M,,*5B
$GPRMC,135815.598,A,5559.89476,N,03616.17054,E,70.81,295.28,240924,,,*1E
$GPGGA,135815.598,5559.89476,N,03616.17054,E,1,12,,249.30,M,,M,,*51
$GPRMC,135815.698,A,5559.89560,N,03616.16736,E,71.15,295.28,240924,,,*15
$GPGGA,135815.698,5559.89560,N,03616.16736,E,1,12,,249.30,M,,M,,*56
$GPRMC,135815.798,A,5559.89644,N,03616.16412,E,71.38,294.87,240924,,,*1F
$GPGGA,135815.798,5559.89644,N,03616.16412,E,1,12,,249.30,M,,M,,*57
$GPRMC,135815.898,A,5559.89728,N,03616.16094,E,71.52,295.28,240924,,,*19
$GPGGA,135815.898,5559.89728,N,03616.16094,E,1,12,,249.40,M,,M,,*5E
$GPRMC,135815.998,A,5559.89812,N,03616.15770,E,71.77,294.87,240924,,,*13
$GPGGA,135815.998,5559.89812,N,03616.15770,E,1,12,,249.40,M,,M,,*57
$GPRMC,135816.098,A,5559.89896,N,03616.15446,E,71.98,294.87,240924,,,*12
$GPGGA,135816.098,5559.89896,N,03616.15446,E,1,12,,249.50,M,,M,,*56
$GPRMC,135816.198,A,5559.89974,N,03616.15116,E,72.33,292.91,240924,,,*1D
$GPGGA,135816.198,5559.89974,N,03616.15116,E,1,12,,249.50,M,,M,,*5A
$GPRMC,135816.298,A,5559.90058,N,03616.14792,E,72.57,294.87,240924,,,*19
$GPGGA,135816.298,5559.90058,N,03616.14792,E,1,12,,249.60,M,,M,,*5E
$GPRMC,135816.398,A,5559.90136,N,03616.14462,E,72.50,292.91,240924,,,*1B
$GPGGA,135816.398,5559.90136,N,03616.14462,E,1,12,,249.60,M,,M,,*5A
$GPRMC,135816.498,A,5559.90220,N,03616.14126,E,73.02,294.09,240924,,,*1C
$GPGGA,135816.498,5559.90220,N,03616.14126,E,1,12,,249.60,M,,M,,*5C
$GPRMC,135816.598,A,5559.90298,N,03616.13796,E,72.73,292.91,240924,,,*14
$GPGGA,135816.598,5559.90298,N,03616.13796,E,1,12,,249.60,M,,M,,*54
$GPRMC,135816.698,A,5559.90370,N,03616.13472,E,71.21,291.67,240924,,,*17
$GPGGA,135816.698,5559.90370,N,03616.13472,E,1,12,,249.70,M,,M,,*58
$GPRMC,135816.798,A,5559.90442,N,03616.13154,E,70.06,292.04,240924,,,*13
$GPGGA,135816.798,5559.90442,N,03616.13154,E,1,12,,249.70,M,,M,,*5E
$GPRMC,135816.898,A,5559.90508,N,03616.12836,E,68.86,290.36,240924,,,*1D
$GPGGA,135816.898,5559.90508,N,03616.12836,E,1,12,,249.70,M,,M,,*52
$GPRMC,135816.998,A,5559.90574,N,03616.12530,E,66.88,291.09,240924,,,*11
$GPGGA,135816.998,5559.90574,N,03616.12530,E,1,12,,249.80,M,,M,,*5C
$GPRMC,135817.098,A,5559.90634,N,03616.12230,E,65.15,289.68,240924,,,*10
$GPGGA,135817.098,5559.90634,N,03616.12230,E,1,12,,249.80,M,,M,,*54
$GPRMC,135817.198,A,5559.90688,N,03616.11936,E,63.67,288.18,240924,,,*1D
$GPGGA,135817.198,5559.90688,N,03616.11936,E,1,12,,249.80,M,,M,,*5C
$GPRMC,135817.298,A,5559.90742,N,03616.11642,E,62.17,288.18,240924,,,*13
$GPGGA,135817.298,5559.90742,N,03616.11642,E,1,12,,249.80,M,,M,,*54
$GPRMC,135817.398,A,5559.90790,N,03616.11360,E,60.33,286.93,240924,,,*11
$GPGGA,135817.398,5559.90790,N,03616.11360,E,1,12,,249.80,M,,M,,*5F
$GPRMC,135817.498,A,5559.90832,N,03616.11084,E,58.57,285.22,240924,,,*18
$GPGGA,135817.498,5559.90832,N,03616.11084,E,1,12,,249.80,M,,M,,*56
$GPRMC,135817.598,A,5559.90874,N,03616.10808,E,57.69,285.22,240924,,,*14
$GPGGA,135817.598,5559.90874,N,03616.10808,E,1,12,,249.80,M,,M,,*58
$GPRMC,135817.698,A,5559.90910,N,03616.10538,E,56.92,283.41,240924,,,*1C
$GPGGA,135817.698,5559.90910,N,03616.10538,E,1,12,,249.80,M,,M,,*56
$GPRMC,135817.798,A,5559.90940,N,03616.10268,E,55.94,281.24,240924,,,*1E
$GPGGA,135817.798,5559.90940,N,03616.10268,E,1,12,,249.80,M,,M,,*50
$GPRMC,135817.898,A,5559.90970,N,03616.09998,E,55.02,281.24,240924,,,*11
$GPGGA,135817.898,5559.90970,N,03616.09998,E,1,12,,249.80,M,,M,,*50
$GPRMC,135817.998,A,5559.90994,N,03616.09734,E,54.19,279.23,240924,,,*19
$GPGGA,135817.998,5559.90994,N,03616.09734,E,1,12,,249.70,M,,M,,*5C
$GPRMC,135818.098,A,5559.91012,N,03616.09482,E,52.62,277.28,240924,,,*18
$GPGGA,135818.098,5559.91012,N,03616.09482,E,1,12,,249.80,M,,M,,*5D
$GPRMC,135818.198,A,5559.91030,N,03616.09230,E,51.75,277.28,240924,,,*13
$GPGGA,135818.198,5559.91030,N,03616.09230,E,1,12,,249.90,M,,M,,*52
$GPRMC,135818.298,A,5559.91042,N,03616.08978,E,50.82,274.87,240924,,,*1C
$GPGGA,135818.298,5559.91042,N,03616.08978,E,1,12,,250.00,M,,M,,*53
$GPRMC,135818.398,A,5559.91042,N,03616.08732,E,50.40,270.00,240924,,,*18
$GPGGA,135818.398,5559.91042,N,03616.08732,E,1,12,,250.10,M,,M,,*53
$GPRMC,135818.498,A,5559.91036,N,03616.08486,E,49.53,267.50,240924,,,*19
$GPGGA,135818.498,5559.91036,N,03616.08486,E,1,12,,250.20,M,,M,,*58
$GPRMC,135818.598,A,5559.91024,N,03616.08246,E,48.83,264.89,240924,,,*1A
$GPGGA,135818.598,5559.91024,N,03616.08246,E,1,12,,250.10,M,,M,,*53
$GPRMC,135818.698,A,5559.91000,N,03616.08006,E,48.94,259.86,240924,,,*1E
$GPGGA,135818.698,5559.91000,N,03616.08006,E,1,12,,250.10,M,,M,,*50
$GPRMC,135818.798,A,5559.90976,N,03616.07772,E,48.86,259.61,240924,,,*17
$GPGGA,135818.798,5559.90976,N,03616.07772,E,1,12,,250.10,M,,M,,*53
$GPRMC,135818.898,A,5559.90940,N,03616.07538,E,48.77,254.62,240924,,,*11
$GPGGA,135818.898,5559.90940,N,03616.07538,E,1,12,,250.20,M,,M,,*56
$GPRMC,135818.998,A,5559.90904,N,03616.07304,E,49.21,254.62,240924,,,*1B
$GPGGA,135818.998,5559.90904,N,03616.07304,E,1,12,,250.20,M,,M,,*5E
$GPRMC,135819.098,A,5559.90862,N,03616.07070,E,49.68,252.21,240924,,,*1E
$GPGGA,135819.098,5559.90862,N,03616.07070,E,1,12,,250.20,M,,M,,*57
$GPRMC,135819.198,A,5559.90808,N,03616.06836,E,49.99,247.58,240924,,,*1C
$GPGGA,135819.198,5559.90808,N,03616.06836,E,1,12,,250.20,M,,M,,*51
$GPRMC,135819.298,A,5559.90748,N,03616.06614,E,50.07,244.21,240924,,,*18
$GPGGA,135819.298,5559.90748,N,03616.06614,E,1,12,,250.20,M,,M,,*57
$GPRMC,135819.398,A,5559.90682,N,03616.06386,E,50.63,242.63,240924,,,*12
$GPGGA,135819.398,5559.90682,N,03616.06386,E,1,12,,250.20,M,,M,,*5F
$GPRMC,135819.498,A,5559.90616,N,03616.06170,E,50.98,241.35,240924,,,*17
$GPGGA,135819.498,5559.90616,N,03616.06170,E,1,12,,250.20,M,,M,,*5E
$GPRMC,135819.598,A,5559.90538,N,03616.05954,E,51.03,237.15,240924,,,*14
$GPGGA,135819.598,5559.90538,N,03616.05954,E,1,12,,250.10,M,,M,,*5E
$GPRMC,135819.698,A,5559.90460,N,03616.05750,E,51.03,235.64,240924,,,*15
$GPGGA,135819.698,5559.90460,N,03616.05750,E,1,12,,250.10,M,,M,,*5B
$GPRMC,135819.798,A,5559.90376,N,03616.05546,E,51.38,233.63,240924,,,*18
$GPGGA,135819.798,5559.90376,N,03616.05546,E,1,12,,250.00,M,,M,,*5E
$GPRMC,135819.898,A,5559.90280,N,03616.05348,E,51.70,229.07,240924,,,*12
$GPGGA,135819.898,5559.90280,N,03616.05348,E,1,12,,250.00,M,,M,,*51
$GPRMC,135819.998,A,5559.90184,N,03616.05156,E,51.81,228.20,240924,,,*13
$GPGGA,135819.998,5559.90184,N,03616.05156,E,1,12,,249.90,M,,M,,*5B
$GPRMC,135820.098,A,5559.90088,N,03616.04970,E,51.72,227.29,240924,,,*1A
$GPGGA,135820.098,5559.90088,N,03616.04970,E,1,12,,249.80,M,,M,,*59
$GPRMC,135820.198,A,5559.89986,N,03616.04790,E,52.27,224.62,240924,,,*1B
$GPGGA,135820.198,5559.89986,N,03616.04790,E,1,12,,249.80,M,,M,,*57
$GPRMC,135820.298,A,5559.89872,N,03616.04622,E,52.53,219.49,240924,,,*1E
$GPGGA,135820.298,5559.89872,N,03616.04622,E,1,12,,249.70,M,,M,,*59
$GPRMC,135820.398,A,5559.89758,N,03616.04460,E,52.48,218.47,240924,,,*19
$GPGGA,135820.398,5559.89758,N,03616.04460,E,1,12,,249.70,M,,M,,*5B
$GPRMC,135820.498,A,5559.89638,N,03616.04310,E,52.60,214.95,240924,,,*10
$GPGGA,135820.498,5559.89638,N,03616.04310,E,1,12,,249.60,M,,M,,*5A
$GPRMC,135820.598,A,5559.89518,N,03616.04166,E,52.95,213.86,240924,,,*1C
$GPGGA,135820.598,5559.89518,N,03616.04166,E,1,12,,249.50,M,,M,,*5A
$GPRMC,135820.698,A,5559.89392,N,03616.04028,E,53.08,211.49,240924,,,*14
$GPGGA,135820.698,5559.89392,N,03616.04028,E,1,12,,249.50,M,,M,,*56
$GPRMC,135820.798,A,5559.89260,N,03616.03902,E,53.57,208.09,240924,,,*19
$GPGGA,135820.798,5559.89260,N,03616.03902,E,1,12,,249.40,M,,M,,*5C
$GPRMC,135820.898,A,5559.89128,N,03616.03782,E,53.78,206.95,240924,,,*19
$GPGGA,135820.898,5559.89128,N,03616.03782,E,1,12,,249.40,M,,M,,*5A
$GPRMC,135820.998,A,5559.88990,N,03616.03668,E,54.02,204.80,240924,,,*1B
$GPGGA,135820.998,5559.88990,N,03616.03668,E,1,12,,249.40,M,,M,,*54
$GPRMC,135821.098,A,5559.88852,N,03616.03566,E,54.48,202.46,240924,,,*13
$GPGGA,135821.098,5559.88852,N,03616.03566,E,1,12,,249.40,M,,M,,*5E
$GPRMC,135821.198,A,5559.88708,N,03616.03470,E,54.39,200.45,240924,,,*13
$GPGGA,135821.198,5559.88708,N,03616.03470,E,1,12,,249.30,M,,M,,*5E
$GPRMC,135821.298,A,5559.88564,N,03616.03392,E,54.68,196.85,240924,,,*17
$GPGGA,135821.298,5559.88564,N,03616.03392,E,1,12,,249.30,M,,M,,*5E
$GPRMC,135821.398,A,5559.88414,N,03616.03320,E,54.80,195.03,240924,,,*12
$GPGGA,135821.398,5559.88414,N,03616.03320,E,1,12,,249.30,M,,M,,*50
$GPRMC,135821.498,A,5559.88264,N,03616.03248,E,55.21,195.03,240924,,,*11
$GPGGA,135821.498,5559.88264,N,03616.03248,E,1,12,,249.20,M,,M,,*58
$GPRMC,135821.598,A,5559.88114,N,03616.03188,E,55.30,192.61,240924,,,*18
$GPGGA,135821.598,5559.88114,N,03616.03188,E,1,12,,249.20,M,,M,,*52
$GPRMC,135821.698,A,5559.87964,N,03616.03140,E,55.52,190.15,240924,,,*1A
$GPGGA,135821.698,5559.87964,N,03616.03140,E,1,12,,249.10,M,,M,,*56
$GPRMC,135821.798,A,5559.87808,N,03616.03098,E,56.01,188.56,240924,,,*1F
$GPGGA,135821.798,5559.87808,N,03616.03098,E,1,12,,249.10,M,,M,,*58
$GPRMC,135821.898,A,5559.87658,N,03616.03068,E,56.07,186.38,240924,,,*14
$GPGGA,135821.898,5559.87658,N,03616.03068,E,1,12,,249.00,M,,M,,*52
$GPRMC,135821.998,A,5559.87496,N,03616.03044,E,56.78,184.74,240924,,,*19
$GPGGA,135821.998,5559.87496,N,03616.03044,E,1,12,,249.00,M,,M,,*5D
$GPRMC,135822.098,A,5559.87340,N,03616.03032,E,57.03,182.46,240924,,,*14
$GPGGA,135822.098,5559.87340,N,03616.03032,E,1,12,,248.90,M,,M,,*52
$GPRMC,135822.198,A,5559.87178,N,03616.03026,E,57.66,181.19,240924,,,*13
$GPGGA,135822.198,5559.87178,N,03616.03026,E,1,12,,248.90,M,,M,,*5F
$GPRMC,135822.298,A,5559.87016,N,03616.03026,E,57.55,180.00,240924,,,*10
$GPGGA,135822.298,5559.87016,N,03616.03026,E,1,12,,248.80,M,,M,,*54
$GPRMC,135822.398,A,5559.86854,N,03616.03038,E,57.92,177.63,240924,,,*17
$GPGGA,135822.398,5559.86854,N,03616.03038,E,1,12,,248.80,M,,M,,*55
$GPRMC,135822.498,A,5559.86698,N,03616.03056,E,58.21,176.31,240924,,,*17
$GPGGA,135822.498,5559.86698,N,03616.03056,E,1,12,,248.70,M,,M,,*5B
$GPRMC,135822.598,A,5559.86536,N,03616.03080,E,58.48,175.26,240924,,,*10
$GPGGA,135822.598,5559.86536,N,03616.03080,E,1,12,,248.70,M,,M,,*56
$GPRMC,135822.698,A,5559.86368,N,03616.03110,E,58.84,174.30,240924,,,*10
$GPGGA,135822.698,5559.86368,N,03616.03110,E,1,12,,248.60,M,,M,,*51
$GPRMC,135822.798,A,5559.86206,N,03616.03146,E,59.30,172.92,240924,,,*1B
$GPGGA,135822.798,5559.86206,N,03616.03146,E,1,12,,248.60,M,,M,,*5A
$GPRMC,135822.898,A,5559.86044,N,03616.03188,E,59.61,171.75,240924,,,*1C
$GPGGA,135822.898,5559.86044,N,03616.03188,E,1,12,,248.50,M,,M,,*50
$GPRMC,135822.998,A,5559.85876,N,03616.03230,E,60.13,172.04,240924,,,*1D
$GPGGA,135822.998,5559.85876,N,03616.03230,E,1,12,,248.50,M,,M,,*5B
$GPRMC,135823.098,A,5559.85714,N,03616.03278,E,60.40,170.59,240924,,,*1E
$GPGGA,135823.098,5559.85714,N,03616.03278,E,1,12,,248.40,M,,M,,*55
$GPRMC,135823.198,A,5559.85546,N,03616.03332,E,60.82,169.81,240924,,,*16
$GPGGA,135823.198,5559.85546,N,03616.03332,E,1,12,,248.40,M,,M,,*5E
$GPRMC,135823.298,A,5559.85378,N,03616.03386,E,61.13,169.81,240924,,,*18
$GPGGA,135823.298,5559.85378,N,03616.03386,E,1,12,,248.40,M,,M,,*59
$GPRMC,135823.398,A,5559.85210,N,03616.03446,E,61.53,168.71,240924,,,*17
$GPGGA,135823.398,5559.85210,N,03616.03446,E,1,12,,248.30,M,,M,,*5B
$GPRMC,135823.498,A,5559.85042,N,03616.03506,E,61.92,168.71,240924,,,*1D
$GPGGA,135823.498,5559.85042,N,03616.03506,E,1,12,,248.30,M,,M,,*5C
$GPRMC,135823.598,A,5559.84874,N,03616.03572,E,62.27,167.61,240924,,,*10
$GPGGA,135823.598,5559.84874,N,03616.03572,E,1,12,,248.30,M,,M,,*52
$GPRMC,135823.698,A,5559.84706,N,03616.03638,E,62.58,167.61,240924,,,*1C
$GPGGA,135823.698,5559.84706,N,03616.03638,E,1,12,,248.30,M,,M,,*56
$GPRMC,135823.798,A,5559.84532,N,03616.03704,E,62.84,168.02,240924,,,*1D
$GPGGA,135823.798,5559.84532,N,03616.03704,E,1,12,,248.30,M,,M,,*5C
$GPRMC,135823.898,A,5559.84364,N,03616.03776,E,63.09,166.52,240924,,,*1D
$GPGGA,135823.898,5559.84364,N,03616.03776,E,1,12,,248.20,M,,M,,*52
$GPRMC,135823.998,A,5559.84196,N,03616.03848,E,62.77,166.52,240924,,,*19
$GPGGA,135823.998,5559.84196,N,03616.03848,E,1,12,,248.20,M,,M,,*5E
$GPRMC,135824.098,A,5559.84022,N,03616.03914,E,62.81,168.02,240924,,,*13
$GPGGA,135824.098,5559.84022,N,03616.03914,E,1,12,,248.20,M,,M,,*56
$GPRMC,135824.198,A,5559.83848,N,03616.03980,E,63.46,168.02,240924,,,*16
$GPGGA,135824.198,5559.83848,N,03616.03980,E,1,12,,248.20,M,,M,,*59
$GPRMC,135824.298,A,5559.83674,N,03616.04046,E,63.89,168.02,240924,,,*13
$GPGGA,135824.298,5559.83674,N,03616.04046,E,1,12,,248.10,M,,M,,*5C
$GPRMC,135824.398,A,5559.83500,N,03616.04106,E,63.88,169.09,240924,,,*1C
$GPGGA,135824.398,5559.83500,N,03616.04106,E,1,12,,248.10,M,,M,,*58
$GPRMC,135824.498,A,5559.83326,N,03616.04160,E,64.38,170.15,240924,,,*10
$GPGGA,135824.498,5559.83326,N,03616.04160,E,1,12,,248.10,M,,M,,*5D
$GPRMC,135824.598,A,5559.83152,N,03616.04214,E,64.52,170.15,240924,,,*1C
$GPGGA,135824.598,5559.83152,N,03616.04214,E,1,12,,248.10,M,,M,,*5D
$GPRMC,135824.698,A,5559.82972,N,03616.04256,E,64.73,172.57,240924,,,*15
$GPGGA,135824.698,5559.82972,N,03616.04256,E,1,12,,248.00,M,,M,,*52
$GPRMC,135824.798,A,5559.82792,N,03616.04292,E,65.08,173.62,240924,,,*16
$GPGGA,135824.798,5559.82792,N,03616.04292,E,1,12,,248.00,M,,M,,*5B
$GPRMC,135824.898,A,5559.82612,N,03616.04322,E,65.58,174.68,240924,,,*12
$GPGGA,135824.898,5559.82612,N,03616.04322,E,1,12,,247.90,M,,M,,*51
$GPRMC,135824.998,A,5559.82426,N,03616.04346,E,65.91,175.87,240924,,,*11
$GPGGA,135824.998,5559.82426,N,03616.04346,E,1,12,,247.90,M,,M,,*57
$GPRMC,135825.098,A,5559.82246,N,03616.04352,E,65.54,178.93,240924,,,*1D
$GPGGA,135825.098,5559.82246,N,03616.04352,E,1,12,,247.90,M,,M,,*5A
$GPRMC,135825.198,A,5559.82066,N,03616.04352,E,65.86,180.00,240924,,,*1E
$GPGGA,135825.198,5559.82066,N,03616.04352,E,1,12,,247.80,M,,M,,*5A
$GPRMC,135825.298,A,5559.81880,N,03616.04352,E,65.99,180.00,240924,,,*10
$GPGGA,135825.298,5559.81880,N,03616.04352,E,1,12,,247.80,M,,M,,*5A
$GPRMC,135825.398,A,5559.81700,N,03616.04334,E,66.14,183.20,240924,,,*11
$GPGGA,135825.398,5559.81700,N,03616.04334,E,1,12,,247.70,M,,M,,*53
$GPRMC,135825.498,A,5559.81514,N,03616.04304,E,66.26,185.15,240924,,,*13
$GPGGA,135825.498,5559.81514,N,03616.04304,E,1,12,,247.60,M,,M,,*51
$GPRMC,135825.598,A,5559.81334,N,03616.04262,E,66.42,187.43,240924,,,*14
$GPGGA,135825.598,5559.81334,N,03616.04262,E,1,12,,247.60,M,,M,,*55
$GPRMC,135825.698,A,5559.81148,N,03616.04214,E,66.70,188.21,240924,,,*15
$GPGGA,135825.698,5559.81148,N,03616.04214,E,1,12,,247.50,M,,M,,*5D
$GPRMC,135825.798,A,5559.80968,N,03616.04160,E,66.89,189.52,240924,,,*1C
$GPGGA,135825.798,5559.80968,N,03616.04160,E,1,12,,247.40,M,,M,,*56
$GPRMC,135825.898,A,5559.80782,N,03616.04094,E,67.01,191.22,240924,,,*1C
$GPGGA,135825.898,5559.80782,N,03616.04094,E,1,12,,247.30,M,,M,,*5E
$GPRMC,135825.998,A,5559.80602,N,03616.04022,E,67.23,192.61,240924,,,*1D
$GPGGA,135825.998,5559.80602,N,03616.04022,E,1,12,,247.30,M,,M,,*5B
$GPRMC,135826.098,A,5559.80416,N,03616.03938,E,67.37,194.17,240924,,,*17
$GPGGA,135826.098,5559.80416,N,03616.03938,E,1,12,,247.20,M,,M,,*52
$GPRMC,135826.198,A,5559.80236,N,03616.03848,E,67.63,195.62,240924,,,*16
$GPGGA,135826.198,5559.80236,N,03616.03848,E,1,12,,247.10,M,,M,,*52
$GPRMC,135826.298,A,5559.80056,N,03616.03746,E,67.97,197.58,240924,,,*10
$GPGGA,135826.298,5559.80056,N,03616.03746,E,1,12,,247.00,M,,M,,*55
$GPRMC,135826.398,A,5559.79882,N,03616.03632,E,67.97,200.12,240924,,,*17
$GPGGA,135826.398,5559.79882,N,03616.03632,E,1,12,,246.90,M,,M,,*59
$GPRMC,135826.498,A,5559.79702,N,03616.03512,E,68.30,200.45,240924,,,*16
$GPGGA,135826.498,5559.79702,N,03616.03512,E,1,12,,246.90,M,,M,,*58
$GPRMC,135826.598,A,5559.79528,N,03616.03386,E,68.22,202.05,240924,,,*13
$GPGGA,135826.598,5559.79528,N,03616.03386,E,1,12,,246.70,M,,M,,*56
$GPRMC,135826.698,A,5559.79354,N,03616.03248,E,68.39,203.92,240924,,,*1B
$GPGGA,135826.698,5559.79354,N,03616.03248,E,1,12,,246.60,M,,M,,*5A
$GPRMC,135826.798,A,5559.79180,N,03616.03104,E,68.31,204.84,240924,,,*12
$GPGGA,135826.798,5559.79180,N,03616.03104,E,1,12,,246.50,M,,M,,*58
$GPRMC,135826.898,A,5559.79012,N,03616.02948,E,68.48,207.44,240924,,,*17
$GPGGA,135826.898,5559.79012,N,03616.02948,E,1,12,,246.40,M,,M,,*5D
$GPRMC,135826.998,A,5559.78844,N,03616.02786,E,68.92,208.34,240924,,,*1F
$GPGGA,135826.998,5559.78844,N,03616.02786,E,1,12,,246.20,M,,M,,*5C
$GPRMC,135827.098,A,5559.78682,N,03616.02612,E,68.75,210.99,240924,,,*18
$GPGGA,135827.098,5559.78682,N,03616.02612,E,1,12,,246.10,M,,M,,*5F
$GPRMC,135827.198,A,5559.78520,N,03616.02432,E,68.78,211.86,240924,,,*10
$GPGGA,135827.198,5559.78520,N,03616.02432,E,1,12,,246.00,M,,M,,*54
$GPRMC,135827.298,A,5559.78358,N,03616.02240,E,68.92,213.54,240924,,,*10
$GPGGA,135827.298,5559.78358,N,03616.02240,E,1,12,,245.80,M,,M,,*56
$GPRMC,135827.398,A,5559.78202,N,03616.02042,E,68.90,215.37,240924,,,*1E
$GPGGA,135827.398,5559.78202,N,03616.02042,E,1,12,,245.70,M,,M,,*56
$GPRMC,135827.498,A,5559.78046,N,03616.01838,E,68.93,216.18,240924,,,*10
$GPGGA,135827.498,5559.78046,N,03616.01838,E,1,12,,245.60,M,,M,,*54
$GPRMC,135827.598,A,5559.77896,N,03616.01628,E,69.05,218.06,240924,,,*1B
$GPGGA,135827.598,5559.77896,N,03616.01628,E,1,12,,245.50,M,,M,,*53
$GPRMC,135827.698,A,5559.77752,N,03616.01406,E,68.76,220.77,240924,,,*19
$GPGGA,135827.698,5559.77752,N,03616.01406,E,1,12,,245.40,M,,M,,*58
$GPRMC,135827.798,A,5559.77614,N,03616.01178,E,68.22,222.74,240924,,,*17
$GPGGA,135827.798,5559.77614,N,03616.01178,E,1,12,,245.30,M,,M,,*51
$GPRMC,135827.898,A,5559.77482,N,03616.00944,E,67.70,224.75,240924,,,*1C
$GPGGA,135827.898,5559.77482,N,03616.00944,E,1,12,,245.20,M,,M,,*54
$GPRMC,135827.998,A,5559.77350,N,03616.00692,E,67.74,226.87,240924,,,*1A
$GPGGA,135827.998,5559.77350,N,03616.00692,E,1,12,,245.10,M,,M,,*5A
$GPRMC,135828.098,A,5559.77230,N,03616.00446,E,67.04,228.90,240924,,,*1F
$GPGGA,135828.098,5559.77230,N,03616.00446,E,1,12,,244.90,M,,M,,*59
$GPRMC,135828.198,A,5559.77110,N,03616.00194,E,66.60,229.59,240924,,,*12
$GPGGA,135828.198,5559.77110,N,03616.00194,E,1,12,,244.80,M,,M,,*52
$GPRMC,135828.298,A,5559.76996,N,03615.99942,E,65.89,231.03,240924,,,*14
$GPGGA,135828.298,5559.76996,N,03615.99942,E,1,12,,244.70,M,,M,,*59
$GPRMC,135828.398,A,5559.76888,N,03615.99684,E,65.00,233.18,240924,,,*17
$GPGGA,135828.398,5559.76888,N,03615.99684,E,1,12,,244.50,M,,M,,*51
$GPRMC,135828.498,A,5559.76786,N,03615.99426,E,64.47,234.74,240924,,,*14
$GPGGA,135828.498,5559.76786,N,03615.99426,E,1,12,,244.40,M,,M,,*5C
$GPRMC,135828.598,A,5559.76690,N,03615.99156,E,63.84,237.55,240924,,,*19
$GPGGA,135828.598,5559.76690,N,03615.99156,E,1,12,,244.30,M,,M,,*5E
$GPRMC,135828.698,A,5559.76600,N,03615.98892,E,62.95,238.63,240924,,,*18
$GPGGA,135828.698,5559.76600,N,03615.98892,E,1,12,,244.30,M,,M,,*54
$GPRMC,135828.798,A,5559.76516,N,03615.98628,E,62.02,240.36,240924,,,*13
$GPGGA,135828.798,5559.76516,N,03615.98628,E,1,12,,244.10,M,,M,,*5C
$GPRMC,135828.898,A,5559.76438,N,03615.98358,E,61.19,242.68,240924,,,*13
$GPGGA,135828.898,5559.76438,N,03615.98358,E,1,12,,244.10,M,,M,,*5C
$GPRMC,135828.998,A,5559.76366,N,03615.98094,E,59.82,244.00,240924,,,*1C
$GPGGA,135828.998,5559.76366,N,03615.98094,E,1,12,,243.90,M,,M,,*5D
$GPRMC,135829.098,A,5559.76300,N,03615.97836,E,58.49,245.42,240924,,,*1A
$GPGGA,135829.098,5559.76300,N,03615.97836,E,1,12,,243.80,M,,M,,*5B
$GPRMC,135829.198,A,5559.76240,N,03615.97578,E,57.05,247.42,240924,,,*1C
$GPGGA,135829.198,5559.76240,N,03615.97578,E,1,12,,243.70,M,,M,,*57
$GPRMC,135829.298,A,5559.76180,N,03615.97320,E,55.37,247.42,240924,,,*18
$GPGGA,135829.298,5559.76180,N,03615.97320,E,1,12,,243.60,M,,M,,*51
$GPRMC,135829.398,A,5559.76132,N,03615.97074,E,54.19,250.77,240924,,,*1F
$GPGGA,135829.398,5559.76132,N,03615.97074,E,1,12,,243.50,M,,M,,*58
$GPRMC,135829.498,A,5559.76078,N,03615.96828,E,52.62,248.57,240924,,,*16
$GPGGA,135829.498,5559.76078,N,03615.96828,E,1,12,,243.40,M,,M,,*51
$GPRMC,135829.598,A,5559.76036,N,03615.96588,E,51.30,252.62,240924,,,*13
$GPGGA,135829.598,5559.76036,N,03615.96588,E,1,12,,243.30,M,,M,,*5A
$GPRMC,135829.698,A,5559.76000,N,03615.96354,E,50.28,254.62,240924,,,*1C
$GPGGA,135829.698,5559.76000,N,03615.96354,E,1,12,,243.30,M,,M,,*5B
$GPRMC,135829.798,A,5559.75964,N,03615.96120,E,48.91,254.62,240924,,,*1F
$GPGGA,135829.798,5559.75964,N,03615.96120,E,1,12,,243.20,M,,M,,*52
$GPRMC,135829.898,A,5559.75934,N,03615.95886,E,48.13,257.09,240924,,,*17
$GPGGA,135829.898,5559.75934,N,03615.95886,E,1,12,,243.10,M,,M,,*5D
$GPRMC,135829.998,A,5559.75910,N,03615.95658,E,47.38,259.34,240924,,,*1B
$GPGGA,135829.998,5559.75910,N,03615.95658,E,1,12,,243.10,M,,M,,*57
$GPRMC,135830.098,A,5559.75886,N,03615.95442,E,45.73,258.76,240924,,,*17
$GPGGA,135830.098,5559.75886,N,03615.95442,E,1,12,,243.00,M,,M,,*50
$GPRMC,135830.198,A,5559.75874,N,03615.95226,E,44.76,264.33,240924,,,*15
$GPGGA,135830.198,5559.75874,N,03615.95226,E,1,12,,243.00,M,,M,,*58
$GPRMC,135830.298,A,5559.75862,N,03615.95004,E,44.61,264.48,240924,,,*19
$GPGGA,135830.298,5559.75862,N,03615.95004,E,1,12,,242.90,M,,M,,*56
$GPRMC,135830.398,A,5559.75856,N,03615.94788,E,43.69,267.16,240924,,,*1A
$GPGGA,135830.398,5559.75856,N,03615.94788,E,1,12,,242.90,M,,M,,*52
$GPRMC,135830.498,A,5559.75856,N,03615.94584,E,42.46,270.00,240924,,,*1E
$GPGGA,135830.498,5559.75856,N,03615.94584,E,1,12,,242.90,M,,M,,*5B
$GPRMC,135830.598,A,5559.75862,N,03615.94386,E,41.17,273.10,240924,,,*19
$GPGGA,135830.598,5559.75862,N,03615.94386,E,1,12,,242.80,M,,M,,*58
$GPRMC,135830.698,A,5559.75862,N,03615.94188,E,40.12,270.00,240924,,,*10
$GPGGA,135830.698,5559.75862,N,03615.94188,E,1,12,,242.70,M,,M,,*58
$GPRMC,135830.798,A,5559.75880,N,03615.94002,E,38.68,279.82,240924,,,*1F
$GPGGA,135830.798,5559.75880,N,03615.94002,E,1,12,,242.70,M,,M,,*56
$GPRMC,135830.898,A,5559.75892,N,03615.93816,E,37.85,276.58,240924,,,*1D
$GPGGA,135830.898,5559.75892,N,03615.93816,E,1,12,,242.70,M,,M,,*50
$GPRMC,135830.998,A,5559.75916,N,03615.93642,E,37.21,283.85,240924,,,*1A
$GPGGA,135830.998,5559.75916,N,03615.93642,E,1,12,,242.60,M,,M,,*52
$GPRMC,135831.098,A,5559.75940,N,03615.93462,E,36.99,283.41,240924,,,*1B
$GPGGA,135831.098,5559.75940,N,03615.93462,E,1,12,,242.50,M,,M,,*5A
$GPRMC,135831.198,A,5559.75970,N,03615.93294,E,36.39,287.71,240924,,,*1B
$GPGGA,135831.198,5559.75970,N,03615.93294,E,1,12,,242.40,M,,M,,*56
$GPRMC,135831.298,A,5559.76006,N,03615.93132,E,35.79,291.67,240924,,,*1B
$GPGGA,135831.298,5559.76006,N,03615.93132,E,1,12,,242.40,M,,M,,*51
$GPRMC,135831.398,A,5559.76048,N,03615.92982,E,34.98,296.60,240924,,,*1C
$GPGGA,135831.398,5559.76048,N,03615.92982,E,1,12,,242.40,M,,M,,*58
$GPRMC,135831.498,A,5559.76096,N,03615.92838,E,34.81,300.80,240924,,,*10
$GPGGA,135831.498,5559.76096,N,03615.92838,E,1,12,,242.30,M,,M,,*5B
$GPRMC,135831.598,A,5559.76150,N,03615.92694,E,34.83,303.84,240924,,,*17
$GPGGA,135831.598,5559.76150,N,03615.92694,E,1,12,,242.30,M,,M,,*59
$GPRMC,135831.698,A,5559.76210,N,03615.92556,E,34.81,307.86,240924,,,*1A
$GPGGA,135831.698,5559.76210,N,03615.92556,E,1,12,,242.30,M,,M,,*50
$GPRMC,135831.798,A,5559.76270,N,03615.92430,E,34.77,310.41,240924,,,*18
$GPGGA,135831.798,5559.76270,N,03615.92430,E,1,12,,242.20,M,,M,,*57
$GPRMC,135831.898,A,5559.76342,N,03615.92304,E,34.73,315.62,240924,,,*17
$GPGGA,135831.898,5559.76342,N,03615.92304,E,1,12,,242.20,M,,M,,*58
$GPRMC,135831.998,A,5559.76414,N,03615.92184,E,35.01,317.01,240924,,,*1B
$GPGGA,135831.998,5559.76414,N,03615.92184,E,1,12,,242.20,M,,M,,*57
$GPRMC,135832.098,A,5559.76492,N,03615.92070,E,35.95,320.74,240924,,,*1E
$GPGGA,135832.098,5559.76492,N,03615.92070,E,1,12,,242.20,M,,M,,*59
$GPRMC,135832.198,A,5559.76570,N,03615.91968,E,35.82,323.82,240924,,,*1D
$GPGGA,135832.198,5559.76570,N,03615.91968,E,1,12,,242.20,M,,M,,*56
$GPRMC,135832.298,A,5559.76660,N,03615.91872,E,35.96,329.18,240924,,,*1A
$GPGGA,135832.298,5559.76660,N,03615.91872,E,1,12,,242.20,M,,M,,*5D
$GPRMC,135832.398,A,5559.76744,N,03615.91782,E,36.42,329.07,240924,,,*18
$GPGGA,135832.398,5559.76744,N,03615.91782,E,1,12,,242.20,M,,M,,*5B
$GPRMC,135832.498,A,5559.76840,N,03615.91704,E,36.72,335.56,240924,,,*10
$GPGGA,135832.498,5559.76840,N,03615.91704,E,1,12,,242.20,M,,M,,*59
$GPRMC,135832.598,A,5559.76936,N,03615.91632,E,37.05,337.25,240924,,,*12
$GPGGA,135832.598,5559.76936,N,03615.91632,E,1,12,,242.20,M,,M,,*5C
$GPRMC,135832.698,A,5559.77032,N,03615.91572,E,37.08,340.73,240924,,,*14
$GPGGA,135832.698,5559.77032,N,03615.91572,E,1,12,,242.20,M,,M,,*54
$GPRMC,135832.798,A,5559.77140,N,03615.91524,E,37.85,346.04,240924,,,*11
$GPGGA,135832.798,5559.77140,N,03615.91524,E,1,12,,242.30,M,,M,,*53
$GPRMC,135832.898,A,5559.77242,N,03615.91482,E,37.85,347.03,240924,,,*14
$GPGGA,135832.898,5559.77242,N,03615.91482,E,1,12,,242.30,M,,M,,*50
$GPRMC,135832.998,A,5559.77344,N,03615.91452,E,37.97,350.66,240924,,,*19
$GPGGA,135832.998,5559.77344,N,03615.91452,E,1,12,,242.30,M,,M,,*5B
$GPRMC,135833.098,A,5559.77452,N,03615.91422,E,38.45,351.17,240924,,,*11
$GPGGA,135833.098,5559.77452,N,03615.91422,E,1,12,,242.40,M,,M,,*53
$GPRMC,135833.198,A,5559.77560,N,03615.91410,E,38.46,356.44,240924,,,*13
$GPGGA,135833.198,5559.77560,N,03615.91410,E,1,12,,242.40,M,,M,,*53
$GPRMC,135833.298,A,5559.77668,N,03615.91404,E,38.87,358.22,240924,,,*1D
$GPGGA,135833.298,5559.77668,N,03615.91404,E,1,12,,242.50,M,,M,,*5F
$GPRMC,135833.398,A,5559.77776,N,03615.91404,E,39.14,0.00,240924,,,*17
$GPGGA,135833.398,5559.77776,N,03615.91404,E,1,12,,242.50,M,,M,,*50
$GPRMC,135833.498,A,5559.77884,N,03615.91416,E,38.85,3.56,240924,,,*18
$GPGGA,135833.498,5559.77884,N,03615.91416,E,1,12,,242.60,M,,M,,*55
$GPRMC,135833.598,A,5559.77998,N,03615.91434,E,39.82,5.05,240924,,,*13
$GPGGA,135833.598,5559.77998,N,03615.91434,E,1,12,,242.60,M,,M,,*58
$GPRMC,135833.698,A,5559.78106,N,03615.91470,E,40.17,10.56,240924,,,*20
$GPGGA,135833.698,5559.78106,N,03615.91470,E,1,12,,242.70,M,,M,,*5A
$GPRMC,135833.798,A,5559.78220,N,03615.91512,E,40.37,11.64,240924,,,*21
$GPGGA,135833.798,5559.78220,N,03615.91512,E,1,12,,242.80,M,,M,,*56
$GPRMC,135833.898,A,5559.78328,N,03615.91566,E,40.91,15.62,240924,,,*2A
$GPGGA,135833.898,5559.78328,N,03615.91566,E,1,12,,242.80,M,,M,,*53
$GPRMC,135833.998,A,5559.78436,N,03615.91626,E,41.33,17.26,240924,,,*2F
$GPGGA,135833.998,5559.78436,N,03615.91626,E,1,12,,243.00,M,,M,,*54
$GPRMC,135834.098,A,5559.78550,N,03615.91692,E,41.75,17.94,240924,,,*24
$GPGGA,135834.098,5559.78550,N,03615.91692,E,1,12,,243.10,M,,M,,*55
$GPRMC,135834.198,A,5559.78658,N,03615.91764,E,42.21,20.45,240924,,,*2C
$GPGGA,135834.198,5559.78658,N,03615.91764,E,1,12,,243.10,M,,M,,*57
$GPRMC,135834.298,A,5559.78772,N,03615.91848,E,42.60,22.40,240924,,,*25
$GPGGA,135834.298,5559.78772,N,03615.91848,E,1,12,,243.20,M,,M,,*5F
$GPRMC,135834.398,A,5559.78874,N,03615.91938,E,42.96,26.26,240924,,,*26
$GPGGA,135834.398,5559.78874,N,03615.91938,E,1,12,,243.20,M,,M,,*51
$GPRMC,135834.498,A,5559.78982,N,03615.92034,E,43.25,26.43,240924,,,*25
$GPGGA,135834.498,5559.78982,N,03615.92034,E,1,12,,243.30,M,,M,,*59
$GPRMC,135834.598,A,5559.79090,N,03615.92136,E,43.67,27.84,240924,,,*20
$GPGGA,135834.598,5559.79090,N,03615.92136,E,1,12,,243.40,M,,M,,*57
$GPRMC,135834.698,A,5559.79198,N,03615.92250,E,43.96,30.55,240924,,,*2D
$GPGGA,135834.698,5559.79198,N,03615.92250,E,1,12,,243.40,M,,M,,*5E
$GPRMC,135834.798,A,5559.79300,N,03615.92358,E,44.28,30.63,240924,,,*21
$GPGGA,135834.798,5559.79300,N,03615.92358,E,1,12,,243.50,M,,M,,*54
$GPRMC,135834.898,A,5559.79408,N,03615.92484,E,44.69,33.12,240924,,,*27
$GPGGA,135834.898,5559.79408,N,03615.92484,E,1,12,,243.60,M,,M,,*51
$GPRMC,135834.998,A,5559.79516,N,03615.92604,E,45.23,31.86,240924,,,*22
$GPGGA,135834.998,5559.79516,N,03615.92604,E,1,12,,243.70,M,,M,,*55
$GPRMC,135835.098,A,5559.79618,N,03615.92730,E,45.71,34.64,240924,,,*2F
$GPGGA,135835.098,5559.79618,N,03615.92730,E,1,12,,243.70,M,,M,,*56
$GPRMC,135835.198,A,5559.79726,N,03615.92862,E,46.04,34.35,240924,,,*2F
$GPGGA,135835.198,5559.79726,N,03615.92862,E,1,12,,243.80,M,,M,,*5C
$GPRMC,135835.298,A,5559.79834,N,03615.92994,E,46.52,34.35,240924,,,*2B
$GPGGA,135835.298,5559.79834,N,03615.92994,E,1,12,,243.90,M,,M,,*5A
$GPRMC,135835.398,A,5559.79936,N,03615.93126,E,46.85,35.89,240924,,,*25
$GPGGA,135835.398,5559.79936,N,03615.93126,E,1,12,,244.00,M,,M,,*56
$GPRMC,135835.498,A,5559.80044,N,03615.93270,E,47.49,36.71,240924,,,*2D
$GPGGA,135835.498,5559.80044,N,03615.93270,E,1,12,,244.10,M,,M,,*5A
$GPRMC,135835.598,A,5559.80146,N,03615.93414,E,47.72,38.29,240924,,,*20
$GPGGA,135835.598,5559.80146,N,03615.93414,E,1,12,,244.20,M,,M,,*5F
$GPRMC,135835.698,A,5559.80254,N,03615.93564,E,48.19,37.84,240924,,,*2F
$GPGGA,135835.698,5559.80254,N,03615.93564,E,1,12,,244.30,M,,M,,*5B
$GPRMC,135835.798,A,5559.80356,N,03615.93714,E,48.48,39.43,240924,,,*29
$GPGGA,135835.798,5559.80356,N,03615.93714,E,1,12,,244.50,M,,M,,*5A
$GPRMC,135835.898,A,5559.80464,N,03615.93870,E,48.92,38.93,240924,,,*26
$GPGGA,135835.898,5559.80464,N,03615.93870,E,1,12,,244.60,M,,M,,*5D
$GPRMC,135835.998,A,5559.80572,N,03615.94020,E,49.37,37.84,240924,,,*2C
$GPGGA,135835.998,5559.80572,N,03615.94020,E,1,12,,244.70,M,,M,,*51
$GPRMC,135836.098,A,5559.80680,N,03615.94176,E,49.75,38.93,240924,,,*25
$GPGGA,135836.098,5559.80680,N,03615.94176,E,1,12,,244.80,M,,M,,*58
$GPRMC,135836.198,A,5559.80794,N,03615.94326,E,50.16,36.35,240924,,,*28
$GPGGA,135836.198,5559.80794,N,03615.94326,E,1,12,,245.00,M,,M,,*53
$GPRMC,135836.298,A,5559.80902,N,03615.94476,E,50.43,37.84,240924,,,*23
$GPGGA,135836.298,5559.80902,N,03615.94476,E,1,12,,245.10,M,,M,,*52
$GPRMC,135836.398,A,5559.81022,N,03615.94620,E,50.76,33.87,240924,,,*28
$GPGGA,135836.398,5559.81022,N,03615.94620,E,1,12,,245.30,M,,M,,*5A
$GPRMC,135836.498,A,5559.81142,N,03615.94758,E,51.26,32.75,240924,,,*2E
$GPGGA,135836.498,5559.81142,N,03615.94758,E,1,12,,245.40,M,,M,,*53
$GPRMC,135836.598,A,5559.81262,N,03615.94890,E,51.62,31.60,240924,,,*22
$GPGGA,135836.598,5559.81262,N,03615.94890,E,1,12,,245.50,M,,M,,*59
$GPRMC,135836.698,A,5559.81388,N,03615.95016,E,51.83,29.22,240924,,,*23
$GPGGA,135836.698,5559.81388,N,03615.95016,E,1,12,,245.60,M,,M,,*5B
$GPRMC,135836.798,A,5559.81514,N,03615.95136,E,51.89,28.04,240924,,,*2D
$GPGGA,135836.798,5559.81514,N,03615.95136,E,1,12,,245.70,M,,M,,*5B
$GPRMC,135836.898,A,5559.81646,N,03615.95250,E,51.74,25.78,240924,,,*21
$GPGGA,135836.898,5559.81646,N,03615.95250,E,1,12,,245.80,M,,M,,*5C
$GPRMC,135836.998,A,5559.81778,N,03615.95352,E,51.53,23.37,240924,,,*27
$GPGGA,135836.998,5559.81778,N,03615.95352,E,1,12,,245.90,M,,M,,*53
$GPRMC,135837.098,A,5559.81910,N,03615.95442,E,50.72,20.87,240924,,,*23
$GPGGA,135837.098,5559.81910,N,03615.95442,E,1,12,,246.00,M,,M,,*57
$GPRMC,135837.198,A,5559.82042,N,03615.95520,E,50.19,18.29,240924,,,*28
$GPGGA,135837.198,5559.82042,N,03615.95520,E,1,12,,246.10,M,,M,,*5F
$GPRMC,135837.298,A,5559.82174,N,03615.95592,E,49.29,16.96,240924,,,*27
$GPGGA,135837.298,5559.82174,N,03615.95592,E,1,12,,246.20,M,,M,,*52
$GPRMC,135837.398,A,5559.82300,N,03615.95652,E,48.60,14.91,240924,,,*21
$GPGGA,135837.398,5559.82300,N,03615.95652,E,1,12,,246.20,M,,M,,*5D
$GPRMC,135837.498,A,5559.82432,N,03615.95706,E,48.14,12.89,240924,,,*2C
$GPGGA,135837.498,5559.82432,N,03615.95706,E,1,12,,246.20,M,,M,,*5C
$GPRMC,135837.598,A,5559.82558,N,03615.95748,E,47.83,10.56,240924,,,*2B
$GPGGA,135837.598,5559.82558,N,03615.95748,E,1,12,,246.20,M,,M,,*5A
$GPRMC,135837.698,A,5559.82690,N,03615.95778,E,47.39,7.24,240924,,,*1E
$GPGGA,135837.698,5559.82690,N,03615.95778,E,1,12,,246.30,M,,M,,*5C
$GPRMC,135837.798,A,5559.82822,N,03615.95802,E,47.21,5.81,240924,,,*1E
$GPGGA,135837.798,5559.82822,N,03615.95802,E,1,12,,246.40,M,,M,,*5F
$GPRMC,135837.898,A,5559.82954,N,03615.95814,E,46.91,2.91,240924,,,*1A
$GPGGA,135837.898,5559.82954,N,03615.95814,E,1,12,,246.40,M,,M,,*57
$GPRMC,135837.998,A,5559.83080,N,03615.95820,E,46.52,1.53,240924,,,*1F
$GPGGA,135837.998,5559.83080,N,03615.95820,E,1,12,,246.40,M,,M,,*50
$GPRMC,135838.098,A,5559.83206,N,03615.95814,E,45.81,358.47,240924,,,*15
$GPGGA,135838.098,5559.83206,N,03615.95814,E,1,12,,246.40,M,,M,,*5D
$GPRMC,135838.198,A,5559.83332,N,03615.95796,E,45.46,355.43,240924,,,*15
$GPGGA,135838.198,5559.83332,N,03615.95796,E,1,12,,246.40,M,,M,,*5F
$GPRMC,135838.298,A,5559.83452,N,03615.95772,E,44.11,353.62,240924,,,*1B
$GPGGA,135838.298,5559.83452,N,03615.95772,E,1,12,,246.50,M,,M,,*56
$GPRMC,135838.398,A,5559.83572,N,03615.95736,E,43.44,350.48,240924,,,*15
$GPGGA,135838.398,5559.83572,N,03615.95736,E,1,12,,246.60,M,,M,,*57
$GPRMC,135838.498,A,5559.83686,N,03615.95694,E,42.92,348.36,240924,,,*19
$GPGGA,135838.498,5559.83686,N,03615.95694,E,1,12,,246.70,M,,M,,*50
$GPRMC,135838.598,A,5559.83800,N,03615.95634,E,42.61,343.60,240924,,,*16
$GPGGA,135838.598,5559.83800,N,03615.95634,E,1,12,,246.70,M,,M,,*5B
$GPRMC,135838.698,A,5559.83908,N,03615.95568,E,41.57,341.13,240924,,,*16
$GPGGA,135838.698,5559.83908,N,03615.95568,E,1,12,,246.80,M,,M,,*54
$GPRMC,135838.798,A,5559.84010,N,03615.95496,E,40.49,338.46,240924,,,*10
$GPGGA,135838.798,5559.84010,N,03615.95496,E,1,12,,246.80,M,,M,,*52
$GPRMC,135838.898,A,5559.84112,N,03615.95412,E,39.98,335.27,240924,,,*18
$GPGGA,135838.898,5559.84112,N,03615.95412,E,1,12,,246.80,M,,M,,*52
$GPRMC,135838.998,A,5559.84208,N,03615.95322,E,39.47,332.33,240924,,,*15
$GPGGA,135838.998,5559.84208,N,03615.95322,E,1,12,,246.80,M,,M,,*5F
$GPRMC,135839.098,A,5559.84304,N,03615.95220,E,39.35,329.28,240924,,,*16
$GPGGA,135839.098,5559.84304,N,03615.95220,E,1,12,,246.80,M,,M,,*59
$GPRMC,135839.198,A,5559.84388,N,03615.95118,E,38.67,325.82,240924,,,*11
$GPGGA,135839.198,5559.84388,N,03615.95118,E,1,12,,246.90,M,,M,,*55
$GPRMC,135839.298,A,5559.84472,N,03615.94998,E,38.39,321.38,240924,,,*1F
$GPGGA,135839.298,5559.84472,N,03615.94998,E,1,12,,246.90,M,,M,,*55
$GPRMC,135839.398,A,5559.84556,N,03615.94878,E,38.02,321.38,240924,,,*1E
$GPGGA,135839.398,5559.84556,N,03615.94878,E,1,12,,246.90,M,,M,,*5C
$GPRMC,135839.498,A,5559.84628,N,03615.94740,E,38.30,313.01,240924,,,*1D
$GPGGA,135839.498,5559.84628,N,03615.94740,E,1,12,,246.90,M,,M,,*55
$GPRMC,135839.598,A,5559.84700,N,03615.94602,E,38.44,313.01,240924,,,*13
$GPGGA,135839.598,5559.84700,N,03615.94602,E,1,12,,246.90,M,,M,,*58
$GPRMC,135839.698,A,5559.84772,N,03615.94458,E,38.49,311.80,240924,,,*1E
$GPGGA,135839.698,5559.84772,N,03615.94458,E,1,12,,246.90,M,,M,,*53
$GPRMC,135839.798,A,5559.84832,N,03615.94302,E,38.44,304.52,240924,,,*1A
$GPGGA,135839.798,5559.84832,N,03615.94302,E,1,12,,246.90,M,,M,,*51
$GPRMC,135839.898,A,5559.84892,N,03615.94140,E,39.01,303.52,240924,,,*1C
$GPGGA,135839.898,5559.84892,N,03615.94140,E,1,12,,246.90,M,,M,,*50
$GPRMC,135839.998,A,5559.84952,N,03615.93972,E,38.86,302.56,240924,,,*15
$GPGGA,135839.998,5559.84952,N,03615.93972,E,1,12,,246.90,M,,M,,*52
$GPRMC,135840.098,A,5559.85000,N,03615.93798,E,39.37,296.26,240924,,,*17
$GPGGA,135840.098,5559.85000,N,03615.93798,E,1,12,,247.00,M,,M,,*58
$GPRMC,135840.198,A,5559.85048,N,03615.93612,E,39.67,294.77,240924,,,*1A
$GPGGA,135840.198,5559.85048,N,03615.93612,E,1,12,,246.90,M,,M,,*5E
$GPRMC,135840.298,A,5559.85090,N,03615.93432,E,40.04,292.65,240924,,,*12
$GPGGA,135840.298,5559.85090,N,03615.93432,E,1,12,,246.90,M,,M,,*58
$GPRMC,135840.398,A,5559.85120,N,03615.93234,E,40.33,285.16,240924,,,*1F
$GPGGA,135840.398,5559.85120,N,03615.93234,E,1,12,,246.90,M,,M,,*53
$GPRMC,135840.498,A,5559.85156,N,03615.93042,E,40.76,288.54,240924,,,*10
$GPGGA,135840.498,5559.85156,N,03615.93042,E,1,12,,246.90,M,,M,,*56
$GPRMC,135840.598,A,5559.85180,N,03615.92838,E,41.29,281.88,240924,,,*1D
$GPGGA,135840.598,5559.85180,N,03615.92838,E,1,12,,246.80,M,,M,,*59
$GPRMC,135840.698,A,5559.85198,N,03615.92628,E,41.74,278.71,240924,,,*10
$GPGGA,135840.698,5559.85198,N,03615.92628,E,1,12,,246.80,M,,M,,*5C
$GPRMC,135840.798,A,5559.85216,N,03615.92424,E,42.07,278.97,240924,,,*15
$GPGGA,135840.798,5559.85216,N,03615.92424,E,1,12,,246.80,M,,M,,*56
$GPRMC,135840.898,A,5559.85222,N,03615.92208,E,42.68,272.84,240924,,,*14
$GPGGA,135840.898,5559.85222,N,03615.92208,E,1,12,,246.80,M,,M,,*56
$GPRMC,135840.998,A,5559.85234,N,03615.91992,E,43.18,275.67,240924,,,*15
$GPGGA,135840.998,5559.85234,N,03615.91992,E,1,12,,246.70,M,,M,,*54
$GPRMC,135841.098,A,5559.85234,N,03615.91776,E,43.49,270.00,240924,,,*19
$GPGGA,135841.098,5559.85234,N,03615.91776,E,1,12,,246.70,M,,M,,*58
$GPRMC,135841.198,A,5559.85234,N,03615.91560,E,43.88,270.00,240924,,,*10
$GPGGA,135841.198,5559.85234,N,03615.91560,E,1,12,,246.70,M,,M,,*5C
$GPRMC,135841.298,A,5559.85222,N,03615.91338,E,44.44,264.48,240924,,,*11
$GPGGA,135841.298,5559.85222,N,03615.91338,E,1,12,,246.70,M,,M,,*53
$GPRMC,135841.398,A,5559.85210,N,03615.91116,E,44.81,264.48,240924,,,*16
$GPGGA,135841.398,5559.85210,N,03615.91116,E,1,12,,246.70,M,,M,,*5D
$GPRMC,135841.498,A,5559.85192,N,03615.90894,E,45.10,261.75,240924,,,*18
$GPGGA,135841.498,5559.85192,N,03615.90894,E,1,12,,246.60,M,,M,,*50
$GPRMC,135841.598,A,5559.85162,N,03615.90672,E,45.39,256.42,240924,,,*1B
$GPGGA,135841.598,5559.85162,N,03615.90672,E,1,12,,246.50,M,,M,,*5B
$GPRMC,135841.698,A,5559.85132,N,03615.90450,E,46.10,256.42,240924,,,*17
$GPGGA,135841.698,5559.85132,N,03615.90450,E,1,12,,246.60,M,,M,,*5C
$GPRMC,135841.798,A,5559.85096,N,03615.90228,E,46.54,253.83,240924,,,*18
$GPGGA,135841.798,5559.85096,N,03615.90228,E,1,12,,246.60,M,,M,,*5B
$GPRMC,135841.898,A,5559.85060,N,03615.90006,E,46.77,253.83,240924,,,*11
$GPGGA,135841.898,5559.85060,N,03615.90006,E,1,12,,246.50,M,,M,,*50
$GPRMC,135841.998,A,5559.85012,N,03615.89784,E,47.10,248.86,240924,,,*1F
$GPGGA,135841.998,5559.85012,N,03615.89784,E,1,12,,246.50,M,,M,,*51
$GPRMC,135842.098,A,5559.84964,N,03615.89568,E,47.83,248.33,240924,,,*18
$GPGGA,135842.098,5559.84964,N,03615.89568,E,1,12,,246.40,M,,M,,*53
$GPRMC,135842.198,A,5559.84910,N,03615.89346,E,48.05,246.49,240924,,,*12
$GPGGA,135842.198,5559.84910,N,03615.89346,E,1,12,,246.40,M,,M,,*5B
$GPRMC,135842.298,A,5559.84856,N,03615.89124,E,48.57,246.49,240924,,,*13
$GPGGA,135842.298,5559.84856,N,03615.89124,E,1,12,,246.30,M,,M,,*5A
$GPRMC,135842.398,A,5559.84796,N,03615.88908,E,48.90,243.59,240924,,,*19
$GPGGA,135842.398,5559.84796,N,03615.88908,E,1,12,,246.30,M,,M,,*5F
$GPRMC,135842.498,A,5559.84730,N,03615.88692,E,49.44,241.35,240924,,,*1E
$GPGGA,135842.498,5559.84730,N,03615.88692,E,1,12,,246.20,M,,M,,*59
$GPRMC,135842.598,A,5559.84670,N,03615.88470,E,49.91,244.21,240924,,,*1C
$GPGGA,135842.598,5559.84670,N,03615.88470,E,1,12,,246.10,M,,M,,*50
$GPRMC,135842.698,A,5559.84604,N,03615.88248,E,50.35,242.00,240924,,,*12
$GPGGA,135842.698,5559.84604,N,03615.88248,E,1,12,,246.10,M,,M,,*5D
$GPRMC,135842.798,A,5559.84538,N,03615.88020,E,50.74,242.63,240924,,,*13
$GPGGA,135842.798,5559.84538,N,03615.88020,E,1,12,,246.00,M,,M,,*5D
$GPRMC,135842.898,A,5559.84472,N,03615.87792,E,51.17,242.63,240924,,,*16
$GPGGA,135842.898,5559.84472,N,03615.87792,E,1,12,,245.90,M,,M,,*56
$GPRMC,135842.998,A,5559.84406,N,03615.87564,E,51.60,242.63,240924,,,*1F
$GPGGA,135842.998,5559.84406,N,03615.87564,E,1,12,,245.80,M,,M,,*5E
$GPRMC,135843.098,A,5559.84346,N,03615.87336,E,52.14,244.80,240924,,,*1E
$GPGGA,135843.098,5559.84346,N,03615.87336,E,1,12,,245.70,M,,M,,*5B
$GPRMC,135843.198,A,5559.84280,N,03615.87096,E,52.44,243.81,240924,,,*1E
$GPGGA,135843.198,5559.84280,N,03615.87096,E,1,12,,245.60,M,,M,,*59
$GPRMC,135843.298,A,5559.84220,N,03615.86862,E,52.92,245.37,240924,,,*15
$GPGGA,135843.298,5559.84220,N,03615.86862,E,1,12,,245.50,M,,M,,*51
$GPRMC,135843.398,A,5559.84160,N,03615.86616,E,53.38,246.44,240924,,,*18
$GPGGA,135843.398,5559.84160,N,03615.86616,E,1,12,,245.40,M,,M,,*5B
$GPRMC,135843.498,A,5559.84100,N,03615.86370,E,53.88,246.44,240924,,,*17
$GPGGA,135843.498,5559.84100,N,03615.86370,E,1,12,,245.30,M,,M,,*58
$GPRMC,135843.598,A,5559.84046,N,03615.86118,E,54.35,249.03,240924,,,*14
$GPGGA,135843.598,5559.84046,N,03615.86118,E,1,12,,245.20,M,,M,,*57
$GPRMC,135843.698,A,5559.83992,N,03615.85866,E,54.80,249.03,240924,,,*1D
$GPGGA,135843.698,5559.83992,N,03615.85866,E,1,12,,245.00,M,,M,,*52
$GPRMC,135843.798,A,5559.83938,N,03615.85608,E,54.93,249.48,240924,,,*17
$GPGGA,135843.798,5559.83938,N,03615.85608,E,1,12,,244.90,M,,M,,*5D
$GPRMC,135843.898,A,5559.83884,N,03615.85350,E,55.39,249.48,240924,,,*17
$GPGGA,135843.898,5559.83884,N,03615.85350,E,1,12,,244.80,M,,M,,*5D
$GPRMC,135843.998,A,5559.83842,N,03615.85080,E,56.11,254.46,240924,,,*19
$GPGGA,135843.998,5559.83842,N,03615.85080,E,1,12,,244.60,M,,M,,*56
$GPRMC,135844.098,A,5559.83794,N,03615.84816,E,56.39,251.99,240924,,,*18
$GPGGA,135844.098,5559.83794,N,03615.84816,E,1,12,,244.50,M,,M,,*59
$GPRMC,135844.198,A,5559.83758,N,03615.84546,E,56.64,256.59,240924,,,*12
$GPGGA,135844.198,5559.83758,N,03615.84546,E,1,12,,244.40,M,,M,,*51
$GPRMC,135844.298,A,5559.83716,N,03615.84264,E,57.30,255.09,240924,,,*1A
$GPGGA,135844.298,5559.83716,N,03615.84264,E,1,12,,244.20,M,,M,,*59
$GPRMC,135844.398,A,5559.83686,N,03615.83988,E,57.49,259.00,240924,,,*16
$GPGGA,135844.398,5559.83686,N,03615.83988,E,1,12,,244.10,M,,M,,*5D
$GPRMC,135844.498,A,5559.83656,N,03615.83706,E,57.92,259.23,240924,,,*13
$GPGGA,135844.498,5559.83656,N,03615.83706,E,1,12,,243.90,M,,M,,*50
$GPRMC,135844.598,A,5559.83632,N,03615.83418,E,58.06,261.52,240924,,,*13
$GPGGA,135844.598,5559.83632,N,03615.83418,E,1,12,,243.80,M,,M,,*5E
$GPRMC,135844.698,A,5559.83608,N,03615.83130,E,58.50,261.52,240924,,,*15
$GPGGA,135844.698,5559.83608,N,03615.83130,E,1,12,,243.60,M,,M,,*55
$GPRMC,135844.798,A,5559.83590,N,03615.82842,E,59.06,263.62,240924,,,*18
$GPGGA,135844.798,5559.83590,N,03615.82842,E,1,12,,243.40,M,,M,,*59
$GPRMC,135844.898,A,5559.83578,N,03615.82548,E,59.46,265.83,240924,,,*1B
$GPGGA,135844.898,5559.83578,N,03615.82548,E,1,12,,243.30,M,,M,,*50
$GPRMC,135844.998,A,5559.83572,N,03615.82248,E,60.01,267.95,240924,,,*1B
$GPGGA,135844.998,5559.83572,N,03615.82248,E,1,12,,243.10,M,,M,,*5E
$GPRMC,135845.098,A,5559.83566,N,03615.81948,E,60.42,267.95,240924,,,*19
$GPGGA,135845.098,5559.83566,N,03615.81948,E,1,12,,243.00,M,,M,,*5A
$GPRMC,135845.198,A,5559.83560,N,03615.81648,E,60.87,267.95,240924,,,*18
$GPGGA,135845.198,5559.83560,N,03615.81648,E,1,12,,242.90,M,,M,,*5A
$GPRMC,135845.298,A,5559.83560,N,03615.81342,E,61.31,270.00,240924,,,*12
$GPGGA,135845.298,5559.83560,N,03615.81342,E,1,12,,242.80,M,,M,,*57
