$GPRMC,145737.900,A,5533.86823,N,03759.52620,E,67.97,273.42,080525,,,*1C
$GPGGA,145737.900,5533.86823,N,03759.52620,E,1,12,0.60,124.00,M,,M,,*46
$GPRMC,145738.000,A,5533.86834,N,03759.52284,E,68.66,273.34,080525,,,*16
$GPGGA,145738.000,5533.86834,N,03759.52284,E,1,12,0.60,124.00,M,,M,,*4C
$GPRMC,145738.100,A,5533.86845,N,03759.51944,E,69.35,273.32,080525,,,*14
$GPGGA,145738.100,5533.86845,N,03759.51944,E,1,12,0.60,124.00,M,,M,,*4F
$GPRMC,145738.200,A,5533.86856,N,03759.51603,E,69.84,273.24,080525,,,*14
$GPGGA,145738.200,5533.86856,N,03759.51603,E,1,12,0.60,124.00,M,,M,,*42
$GPRMC,145738.300,A,5533.86867,N,03759.51255,E,70.70,273.37,080525,,,*11
$GPGGA,145738.300,5533.86867,N,03759.51255,E,1,12,0.60,124.00,M,,M,,*46
$GPRMC,145738.400,A,5533.86879,N,03759.50909,E,70.93,273.46,080525,,,*11
$GPGGA,145738.400,5533.86879,N,03759.50909,E,1,12,0.60,124.00,M,,M,,*4D
$GPRMC,145738.500,A,5533.86891,N,03759.50565,E,70.64,273.46,080525,,,*18
$GPGGA,145738.500,5533.86891,N,03759.50565,E,1,12,0.60,124.00,M,,M,,*4C
$GPRMC,145738.600,A,5533.86904,N,03759.50219,E,70.83,273.61,080525,,,*16
$GPGGA,145738.600,5533.86904,N,03759.50219,E,1,12,0.60,124.00,M,,M,,*4E
$GPRMC,145738.700,A,5533.86916,N,03759.49866,E,71.87,273.49,080525,,,*11
$GPGGA,145738.700,5533.86916,N,03759.49866,E,1,12,0.60,124.00,M,,M,,*46
$GPRMC,145738.800,A,5533.86928,N,03759.49511,E,72.33,273.38,080525,,,*14
$GPGGA,145738.800,5533.86928,N,03759.49511,E,1,12,0.60,124.00,M,,M,,*49
$GPRMC,145738.900,A,5533.86939,N,03759.49154,E,72.93,273.29,080525,,,*1A
$GPGGA,145738.900,5533.86939,N,03759.49154,E,1,12,0.60,124.00,M,,M,,*4D
$GPRMC,145739.000,A,5533.86951,N,03759.48795,E,73.25,273.21,080525,,,*12
$GPGGA,145739.000,5533.86951,N,03759.48795,E,1,12,0.60,124.00,M,,M,,*41
$GPRMC,145739.100,A,5533.86962,N,03759.48435,E,73.64,273.23,080525,,,*1D
$GPGGA,145739.100,5533.86962,N,03759.48435,E,1,12,0.60,124.00,M,,M,,*49
$GPRMC,145739.200,A,5533.86973,N,03759.48069,E,74.32,273.03,080525,,,*15
$GPGGA,145739.200,5533.86973,N,03759.48069,E,1,12,0.60,124.00,M,,M,,*47
$GPRMC,145739.300,A,5533.86984,N,03759.47703,E,74.99,273.15,080525,,,*1E
$GPGGA,145739.300,5533.86984,N,03759.47703,E,1,12,0.60,124.00,M,,M,,*4A
$GPRMC,145739.400,A,5533.86996,N,03759.47333,E,75.49,273.19,080525,,,*1D
$GPGGA,145739.400,5533.86996,N,03759.47333,E,1,12,0.60,124.00,M,,M,,*49
$GPRMC,145739.500,A,5533.87007,N,03759.46961,E,76.00,273.11,080525,,,*16
$GPGGA,145739.500,5533.87007,N,03759.46961,E,1,12,0.60,124.00,M,,M,,*44
$GPRMC,145739.600,A,5533.87019,N,03759.46586,E,76.50,273.14,080525,,,*1F
$GPGGA,145739.600,5533.87019,N,03759.46586,E,1,12,0.60,123.90,M,,M,,*43
$GPRMC,145739.700,A,5533.87032,N,03759.46206,E,77.23,273.21,080525,,,*1B
$GPGGA,145739.700,5533.87032,N,03759.46206,E,1,12,0.60,124.00,M,,M,,*4A
$GPRMC,145739.800,A,5533.87045,N,03759.45827,E,77.79,273.35,080525,,,*14
$GPGGA,145739.800,5533.87045,N,03759.45827,E,1,12,0.60,124.00,M,,M,,*4F
$GPRMC,145739.900,A,5533.87058,N,03759.45444,E,78.27,273.33,080525,,,*12
$GPGGA,145739.900,5533.87058,N,03759.45444,E,1,12,0.60,124.00,M,,M,,*4B
$GPRMC,145740.000,A,5533.87072,N,03759.45057,E,78.91,273.55,080525,,,*16
$GPGGA,145740.000,5533.87072,N,03759.45057,E,1,12,0.60,124.00,M,,M,,*42
$GPRMC,145740.100,A,5533.87086,N,03759.44667,E,79.40,273.59,080525,,,*19
$GPGGA,145740.100,5533.87086,N,03759.44667,E,1,12,0.60,124.00,M,,M,,*4C
$GPRMC,145740.200,A,5533.87101,N,03759.44276,E,80.05,273.72,080525,,,*1E
$GPGGA,145740.200,5533.87101,N,03759.44276,E,1,12,0.60,124.10,M,,M,,*44
$GPRMC,145740.300,A,5533.87116,N,03759.43883,E,80.50,273.76,080525,,,*1A
$GPGGA,145740.300,5533.87116,N,03759.43883,E,1,12,0.60,124.10,M,,M,,*44
$GPRMC,145740.400,A,5533.87132,N,03759.43485,E,81.11,273.92,080525,,,*1F
$GPGGA,145740.400,5533.87132,N,03759.43485,E,1,12,0.60,124.10,M,,M,,*4F
$GPRMC,145740.500,A,5533.87148,N,03759.43086,E,81.61,273.93,080525,,,*12
$GPGGA,145740.500,5533.87148,N,03759.43086,E,1,12,0.60,124.10,M,,M,,*44
$GPRMC,145740.600,A,5533.87165,N,03759.42684,E,82.25,274.03,080525,,,*16
$GPGGA,145740.600,5533.87165,N,03759.42684,E,1,12,0.60,124.10,M,,M,,*4D
$GPRMC,145740.700,A,5533.87182,N,03759.42279,E,82.83,274.21,080525,,,*14
$GPGGA,145740.700,5533.87182,N,03759.42279,E,1,12,0.60,124.20,M,,M,,*40
$GPRMC,145740.800,A,5533.87199,N,03759.41871,E,83.34,274.14,080525,,,*1B
$GPGGA,145740.800,5533.87199,N,03759.41871,E,1,12,0.60,124.20,M,,M,,*44
$GPRMC,145740.900,A,5533.87216,N,03759.41462,E,83.80,274.09,080525,,,*13
$GPGGA,145740.900,5533.87216,N,03759.41462,E,1,12,0.60,124.20,M,,M,,*4F
$GPRMC,145741.000,A,5533.87233,N,03759.41049,E,84.33,274.17,080525,,,*11
$GPGGA,145741.000,5533.87233,N,03759.41049,E,1,12,0.60,124.20,M,,M,,*4D
$GPRMC,145741.100,A,5533.87250,N,03759.40634,E,84.91,274.03,080525,,,*15
$GPGGA,145741.100,5533.87250,N,03759.40634,E,1,12,0.60,124.20,M,,M,,*44
$GPRMC,145741.200,A,5533.87266,N,03759.40215,E,85.47,274.07,080525,,,*1A
$GPGGA,145741.200,5533.87266,N,03759.40215,E,1,12,0.60,124.20,M,,M,,*45
$GPRMC,145741.300,A,5533.87284,N,03759.39795,E,85.92,274.13,080525,,,*19
$GPGGA,145741.300,5533.87284,N,03759.39795,E,1,12,0.60,124.30,M,,M,,*4A
$GPRMC,145741.400,A,5533.87301,N,03759.39372,E,86.35,274.12,080525,,,*10
$GPGGA,145741.400,5533.87301,N,03759.39372,E,1,12,0.60,124.30,M,,M,,*4C
$GPRMC,145741.500,A,5533.87319,N,03759.38946,E,86.93,274.14,080525,,,*1E
$GPGGA,145741.500,5533.87319,N,03759.38946,E,1,12,0.60,124.30,M,,M,,*48
$GPRMC,145741.600,A,5533.87337,N,03759.38520,E,87.40,274.18,080525,,,*1E
$GPGGA,145741.600,5533.87337,N,03759.38520,E,1,12,0.60,124.30,M,,M,,*4B
$GPRMC,145741.700,A,5533.87355,N,03759.38090,E,87.90,274.24,080525,,,*17
$GPGGA,145741.700,5533.87355,N,03759.38090,E,1,12,0.60,124.30,M,,M,,*40
$GPRMC,145741.800,A,5533.87374,N,03759.37658,E,88.37,274.39,080525,,,*18
$GPGGA,145741.800,5533.87374,N,03759.37658,E,1,12,0.60,124.40,M,,M,,*46
$GPRMC,145741.900,A,5533.87394,N,03759.37224,E,88.97,274.48,080525,,,*14
$GPGGA,145741.900,5533.87394,N,03759.37224,E,1,12,0.60,124.40,M,,M,,*46
$GPRMC,145742.000,A,5533.87414,N,03759.36789,E,89.11,274.51,080525,,,*15
$GPGGA,145742.000,5533.87414,N,03759.36789,E,1,12,0.60,124.40,M,,M,,*40
$GPRMC,145742.100,A,5533.87434,N,03759.36359,E,88.57,274.60,080525,,,*1E
$GPGGA,145742.100,5533.87434,N,03759.36359,E,1,12,0.60,124.40,M,,M,,*4A
$GPRMC,145742.200,A,5533.87454,N,03759.35931,E,87.94,274.68,080525,,,*14
$GPGGA,145742.200,5533.87454,N,03759.35931,E,1,12,0.60,124.50,M,,M,,*49
$GPRMC,145742.300,A,5533.87475,N,03759.35516,E,86.15,274.77,080525,,,*19
$GPGGA,145742.300,5533.87475,N,03759.35516,E,1,12,0.60,124.50,M,,M,,*42
$GPRMC,145742.400,A,5533.87494,N,03759.35112,E,83.64,274.76,080525,,,*13
$GPGGA,145742.400,5533.87494,N,03759.35112,E,1,12,0.60,124.50,M,,M,,*4A
$GPRMC,145742.500,A,5533.87514,N,03759.34722,E,81.20,274.84,080525,,,*10
$GPGGA,145742.500,5533.87514,N,03759.34722,E,1,12,0.60,124.50,M,,M,,*46
$GPRMC,145742.600,A,5533.87534,N,03759.34340,E,79.11,275.14,080525,,,*1C
$GPGGA,145742.600,5533.87534,N,03759.34340,E,1,12,0.60,124.50,M,,M,,*47
$GPRMC,145742.700,A,5533.87555,N,03759.33968,E,77.18,275.47,080525,,,*1C
$GPGGA,145742.700,5533.87555,N,03759.33968,E,1,12,0.60,124.50,M,,M,,*46
$GPRMC,145742.800,A,5533.87577,N,03759.33606,E,75.28,275.91,080525,,,*1E
$GPGGA,145742.800,5533.87577,N,03759.33606,E,1,12,0.60,124.60,M,,M,,*4D
$GPRMC,145742.900,A,5533.87599,N,03759.33251,E,73.66,276.22,080525,,,*1E
$GPGGA,145742.900,5533.87599,N,03759.33251,E,1,12,0.60,124.50,M,,M,,*49
$GPRMC,145743.000,A,5533.87623,N,03759.32909,E,71.48,276.74,080525,,,*1E
$GPGGA,145743.000,5533.87623,N,03759.32909,E,1,12,0.60,124.50,M,,M,,*44
$GPRMC,145743.100,A,5533.87646,N,03759.32577,E,69.40,277.04,080525,,,*1E
$GPGGA,145743.100,5533.87646,N,03759.32577,E,1,12,0.60,124.50,M,,M,,*43
$GPRMC,145743.200,A,5533.87672,N,03759.32253,E,67.59,277.64,080525,,,*1B
$GPGGA,145743.200,5533.87672,N,03759.32253,E,1,12,0.60,124.50,M,,M,,*46
$GPRMC,145743.300,A,5533.87699,N,03759.31941,E,65.51,278.42,080525,,,*15
$GPGGA,145743.300,5533.87699,N,03759.31941,E,1,12,0.60,124.50,M,,M,,*49
$GPRMC,145743.400,A,5533.87726,N,03759.31641,E,63.27,278.76,080525,,,*18
$GPGGA,145743.400,5533.87726,N,03759.31641,E,1,12,0.60,124.50,M,,M,,*44
$GPRMC,145743.500,A,5533.87755,N,03759.31349,E,61.29,279.48,080525,,,*10
$GPGGA,145743.500,5533.87755,N,03759.31349,E,1,12,0.60,124.50,M,,M,,*4C
$GPRMC,145743.600,A,5533.87785,N,03759.31067,E,59.42,280.25,080525,,,*1A
$GPGGA,145743.600,5533.87785,N,03759.31067,E,1,12,0.60,124.50,M,,M,,*4D
$GPRMC,145743.700,A,5533.87816,N,03759.30795,E,57.62,281.08,080525,,,*17
$GPGGA,145743.700,5533.87816,N,03759.30795,E,1,12,0.60,124.50,M,,M,,*42
$GPRMC,145743.800,A,5533.87849,N,03759.30530,E,56.07,281.90,080525,,,*1C
$GPGGA,145743.800,5533.87849,N,03759.30530,E,1,12,0.60,124.50,M,,M,,*4A
$GPRMC,145743.900,A,5533.87884,N,03759.30276,E,54.25,283.04,080525,,,*14
$GPGGA,145743.900,5533.87884,N,03759.30276,E,1,12,0.60,124.50,M,,M,,*4F
$GPRMC,145744.000,A,5533.87921,N,03759.30032,E,52.45,284.20,080525,,,*17
$GPGGA,145744.000,5533.87921,N,03759.30032,E,1,12,0.60,124.50,M,,M,,*4D
$GPRMC,145744.100,A,5533.87959,N,03759.29798,E,50.63,285.41,080525,,,*16
$GPGGA,145744.100,5533.87959,N,03759.29798,E,1,12,0.60,124.60,M,,M,,*4F
$GPRMC,145744.200,A,5533.87999,N,03759.29574,E,48.93,286.68,080525,,,*17
$GPGGA,145744.200,5533.87999,N,03759.29574,E,1,12,0.60,124.50,M,,M,,*43
$GPRMC,145744.300,A,5533.88042,N,03759.29357,E,47.74,288.49,080525,,,*1A
$GPGGA,145744.300,5533.88042,N,03759.29357,E,1,12,0.60,124.50,M,,M,,*45
$GPRMC,145744.400,A,5533.88090,N,03759.29147,E,46.74,290.76,080525,,,*15
$GPGGA,145744.400,5533.88090,N,03759.29147,E,1,12,0.60,124.50,M,,M,,*4E
$GPRMC,145744.500,A,5533.88139,N,03759.28947,E,45.26,292.57,080525,,,*1A
$GPGGA,145744.500,5533.88139,N,03759.28947,E,1,12,0.60,124.50,M,,M,,*44
$GPRMC,145744.600,A,5533.88192,N,03759.28757,E,44.02,294.79,080525,,,*1A
$GPGGA,145744.600,5533.88192,N,03759.28757,E,1,12,0.60,124.50,M,,M,,*49
$GPRMC,145744.700,A,5533.88251,N,03759.28569,E,43.98,297.66,080525,,,*11
$GPGGA,145744.700,5533.88251,N,03759.28569,E,1,12,0.60,124.50,M,,M,,*4B
$GPRMC,145744.800,A,5533.88315,N,03759.28389,E,43.63,300.48,080525,,,*10
$GPGGA,145744.800,5533.88315,N,03759.28389,E,1,12,0.60,124.50,M,,M,,*4D
$GPRMC,145744.900,A,5533.88383,N,03759.28215,E,43.27,303.25,080525,,,*12
$GPGGA,145744.900,5533.88383,N,03759.28215,E,1,12,0.60,124.50,M,,M,,*47
$GPRMC,145745.000,A,5533.88456,N,03759.28047,E,43.29,306.19,080525,,,*14
$GPGGA,145745.000,5533.88456,N,03759.28047,E,1,12,0.60,124.50,M,,M,,*45
$GPRMC,145745.100,A,5533.88533,N,03759.27888,E,43.00,309.00,080525,,,*1F
$GPGGA,145745.100,5533.88533,N,03759.27888,E,1,12,0.60,124.50,M,,M,,*42
$GPRMC,145745.200,A,5533.88614,N,03759.27735,E,42.62,311.88,080525,,,*1F
$GPGGA,145745.200,5533.88614,N,03759.27735,E,1,12,0.60,124.50,M,,M,,*4E
$GPRMC,145745.300,A,5533.88699,N,03759.27591,E,42.69,314.90,080525,,,*10
$GPGGA,145745.300,5533.88699,N,03759.27591,E,1,12,0.60,124.60,M,,M,,*45
$GPRMC,145745.400,A,5533.88787,N,03759.27452,E,42.82,317.20,080525,,,*1A
$GPGGA,145745.400,5533.88787,N,03759.27452,E,1,12,0.60,124.60,M,,M,,*42
$GPRMC,145745.500,A,5533.88877,N,03759.27318,E,42.70,318.95,080525,,,*1E
$GPGGA,145745.500,5533.88877,N,03759.27318,E,1,12,0.60,124.60,M,,M,,*4A
$GPRMC,145745.600,A,5533.88973,N,03759.27189,E,43.16,321.57,080525,,,*17
$GPGGA,145745.600,5533.88973,N,03759.27189,E,1,12,0.60,124.60,M,,M,,*46
$GPRMC,145745.700,A,5533.89072,N,03759.27066,E,43.80,323.65,080525,,,*13
$GPGGA,145745.700,5533.89072,N,03759.27066,E,1,12,0.60,124.60,M,,M,,*4E
$GPRMC,145745.800,A,5533.89172,N,03759.26949,E,43.75,325.83,080525,,,*1C
$GPGGA,145745.800,5533.89172,N,03759.26949,E,1,12,0.60,124.60,M,,M,,*45
$GPRMC,145745.900,A,5533.89277,N,03759.26835,E,44.35,327.58,080525,,,*16
$GPGGA,145745.900,5533.89277,N,03759.26835,E,1,12,0.60,124.50,M,,M,,*4B
$GPRMC,145746.000,A,5533.89387,N,03759.26729,E,45.22,330.19,080525,,,*14
$GPGGA,145746.000,5533.89387,N,03759.26729,E,1,12,0.60,124.50,M,,M,,*4D
$GPRMC,145746.100,A,5533.89501,N,03759.26630,E,45.63,332.71,080525,,,*1D
$GPGGA,145746.100,5533.89501,N,03759.26630,E,1,12,0.60,124.50,M,,M,,*4D
$GPRMC,145746.200,A,5533.89619,N,03759.26532,E,46.52,334.32,080525,,,*15
$GPGGA,145746.200,5533.89619,N,03759.26532,E,1,12,0.60,124.50,M,,M,,*45
$GPRMC,145746.300,A,5533.89741,N,03759.26442,E,47.55,336.29,080525,,,*10
$GPGGA,145746.300,5533.89741,N,03759.26442,E,1,12,0.60,124.50,M,,M,,*4E
$GPRMC,145746.400,A,5533.89867,N,03759.26355,E,48.39,338.03,080525,,,*1E
$GPGGA,145746.400,5533.89867,N,03759.26355,E,1,12,0.60,124.50,M,,M,,*43
$GPRMC,145746.500,A,5533.89996,N,03759.26274,E,49.10,339.78,080525,,,*15
$GPGGA,145746.500,5533.89996,N,03759.26274,E,1,12,0.60,124.50,M,,M,,*4F
$GPRMC,145746.600,A,5533.90129,N,03759.26202,E,50.03,341.83,080525,,,*12
$GPGGA,145746.600,5533.90129,N,03759.26202,E,1,12,0.60,124.50,M,,M,,*49
$GPRMC,145746.700,A,5533.90265,N,03759.26132,E,50.85,343.33,080525,,,*1F
$GPGGA,145746.700,5533.90265,N,03759.26132,E,1,12,0.60,124.40,M,,M,,*42
$GPRMC,145746.800,A,5533.90405,N,03759.26070,E,51.72,345.30,080525,,,*1B
$GPGGA,145746.800,5533.90405,N,03759.26070,E,1,12,0.60,124.40,M,,M,,*4A
$GPRMC,145746.900,A,5533.90548,N,03759.26013,E,52.59,347.01,080525,,,*1D
$GPGGA,145746.900,5533.90548,N,03759.26013,E,1,12,0.60,124.40,M,,M,,*46
$GPRMC,145747.000,A,5533.90694,N,03759.25964,E,53.48,348.63,080525,,,*17
$GPGGA,145747.000,5533.90694,N,03759.25964,E,1,12,0.60,124.40,M,,M,,*46
$GPRMC,145747.100,A,5533.90843,N,03759.25922,E,54.35,350.45,080525,,,*10
$GPGGA,145747.100,5533.90843,N,03759.25922,E,1,12,0.60,124.40,M,,M,,*41
$GPRMC,145747.200,A,5533.90995,N,03759.25886,E,55.14,351.87,080525,,,*1B
$GPGGA,145747.200,5533.90995,N,03759.25886,E,1,12,0.60,124.30,M,,M,,*40
$GPRMC,145747.300,A,5533.91150,N,03759.25856,E,56.08,353.48,080525,,,*18
$GPGGA,145747.300,5533.91150,N,03759.25856,E,1,12,0.60,124.30,M,,M,,*4C
$GPRMC,145747.400,A,5533.91307,N,03759.25836,E,56.91,355.43,080525,,,*14
$GPGGA,145747.400,5533.91307,N,03759.25836,E,1,12,0.60,124.30,M,,M,,*4D
$GPRMC,145747.500,A,5533.91467,N,03759.25824,E,57.72,357.07,080525,,,*19
$GPGGA,145747.500,5533.91467,N,03759.25824,E,1,12,0.60,124.30,M,,M,,*4E
$GPRMC,145747.600,A,5533.91629,N,03759.25818,E,58.23,358.56,080525,,,*1D
$GPGGA,145747.600,5533.91629,N,03759.25818,E,1,12,0.60,124.30,M,,M,,*4A
$GPRMC,145747.700,A,5533.91788,N,03759.25817,E,57.66,359.38,080525,,,*1E
$GPGGA,145747.700,5533.91788,N,03759.25817,E,1,12,0.60,124.30,M,,M,,*4E
$GPRMC,145747.800,A,5533.91947,N,03759.25814,E,57.43,359.52,080525,,,*14
$GPGGA,145747.800,5533.91947,N,03759.25814,E,1,12,0.60,124.20,M,,M,,*4E
$GPRMC,145747.900,A,5533.92103,N,03759.25811,E,56.68,359.22,080525,,,*14
$GPGGA,145747.900,5533.92103,N,03759.25811,E,1,12,0.60,124.20,M,,M,,*41
$GPRMC,145748.000,A,5533.92254,N,03759.25803,E,54.95,358.58,080525,,,*1C
$GPGGA,145748.000,5533.92254,N,03759.25803,E,1,12,0.60,124.20,M,,M,,*45
$GPRMC,145748.100,A,5533.92400,N,03759.25793,E,53.03,357.74,080525,,,*15
$GPGGA,145748.100,5533.92400,N,03759.25793,E,1,12,0.60,124.20,M,,M,,*45
$GPRMC,145748.200,A,5533.92539,N,03759.25778,E,51.05,356.67,080525,,,*1F
$GPGGA,145748.200,5533.92539,N,03759.25778,E,1,12,0.60,124.30,M,,M,,*49
$GPRMC,145748.300,A,5533.92674,N,03759.25757,E,49.26,355.14,080525,,,*16
$GPGGA,145748.300,5533.92674,N,03759.25757,E,1,12,0.60,124.20,M,,M,,*4E
$GPRMC,145748.400,A,5533.92804,N,03759.25728,E,47.71,353.16,080525,,,*18
$GPGGA,145748.400,5533.92804,N,03759.25728,E,1,12,0.60,124.30,M,,M,,*49
$GPRMC,145748.500,A,5533.92929,N,03759.25692,E,46.18,351.25,080525,,,*1B
$GPGGA,145748.500,5533.92929,N,03759.25692,E,1,12,0.60,124.30,M,,M,,*46
$GPRMC,145748.600,A,5533.93050,N,03759.25650,E,44.76,349.22,080525,,,*14
$GPGGA,145748.600,5533.93050,N,03759.25650,E,1,12,0.60,124.30,M,,M,,*4D
$GPRMC,145748.700,A,5533.93168,N,03759.25599,E,44.04,346.74,080525,,,*10
$GPGGA,145748.700,5533.93168,N,03759.25599,E,1,12,0.60,124.30,M,,M,,*40
$GPRMC,145748.800,A,5533.93284,N,03759.25536,E,43.76,343.88,080525,,,*1F
$GPGGA,145748.800,5533.93284,N,03759.25536,E,1,12,0.60,124.30,M,,M,,*4B
$GPRMC,145748.900,A,5533.93397,N,03759.25467,E,43.58,341.18,080525,,,*1F
$GPGGA,145748.900,5533.93397,N,03759.25467,E,1,12,0.60,124.30,M,,M,,*4C
$GPRMC,145749.000,A,5533.93508,N,03759.25388,E,43.06,338.47,080525,,,*1E
$GPGGA,145749.000,5533.93508,N,03759.25388,E,1,12,0.60,124.30,M,,M,,*42
$GPRMC,145749.100,A,5533.93617,N,03759.25296,E,43.29,335.46,080525,,,*1D
$GPGGA,145749.100,5533.93617,N,03759.25296,E,1,12,0.60,124.40,M,,M,,*47
$GPRMC,145749.200,A,5533.93723,N,03759.25199,E,43.38,332.77,080525,,,*11
$GPGGA,145749.200,5533.93723,N,03759.25199,E,1,12,0.60,124.40,M,,M,,*4E
$GPRMC,145749.300,A,5533.93827,N,03759.25092,E,43.34,330.13,080525,,,*1D
$GPGGA,145749.300,5533.93827,N,03759.25092,E,1,12,0.60,124.40,M,,M,,*4E
$GPRMC,145749.400,A,5533.93929,N,03759.24972,E,43.77,327.04,080525,,,*14
$GPGGA,145749.400,5533.93929,N,03759.24972,E,1,12,0.60,124.40,M,,M,,*40
$GPRMC,145749.500,A,5533.94027,N,03759.24851,E,43.72,325.29,080525,,,*1D
$GPGGA,145749.500,5533.94027,N,03759.24851,E,1,12,0.60,124.40,M,,M,,*41
$GPRMC,145749.600,A,5533.94124,N,03759.24714,E,44.22,322.14,080525,,,*19
$GPGGA,145749.600,5533.94124,N,03759.24714,E,1,12,0.60,124.40,M,,M,,*4E
$GPRMC,145749.700,A,5533.94216,N,03759.24566,E,44.73,318.05,080525,,,*10
$GPGGA,145749.700,5533.94216,N,03759.24566,E,1,12,0.60,124.50,M,,M,,*4B
$GPRMC,145749.800,A,5533.94306,N,03759.24416,E,44.94,317.02,080525,,,*18
$GPGGA,145749.800,5533.94306,N,03759.24416,E,1,12,0.60,124.50,M,,M,,*42
$GPRMC,145749.900,A,5533.94397,N,03759.24261,E,45.40,316.38,080525,,,*17
$GPGGA,145749.900,5533.94397,N,03759.24261,E,1,12,0.60,124.50,M,,M,,*4D
$GPRMC,145750.000,A,5533.94484,N,03759.24093,E,46.29,313.17,080525,,,*18
$GPGGA,145750.000,5533.94484,N,03759.24093,E,1,12,0.60,124.50,M,,M,,*46
$GPRMC,145750.100,A,5533.94565,N,03759.23913,E,46.58,308.90,080525,,,*12
$GPGGA,145750.100,5533.94565,N,03759.23913,E,1,12,0.60,124.50,M,,M,,*4F
$GPRMC,145750.200,A,5533.94646,N,03759.23733,E,47.22,308.56,080525,,,*19
$GPGGA,145750.200,5533.94646,N,03759.23733,E,1,12,0.60,124.50,M,,M,,*42
$GPRMC,145750.300,A,5533.94727,N,03759.23544,E,48.06,307.37,080525,,,*1D
$GPGGA,145750.300,5533.94727,N,03759.23544,E,1,12,0.60,124.50,M,,M,,*47
$GPRMC,145750.400,A,5533.94803,N,03759.23346,E,48.58,304.59,080525,,,*17
$GPGGA,145750.400,5533.94803,N,03759.23346,E,1,12,0.60,124.50,M,,M,,*4D
$GPRMC,145750.500,A,5533.94879,N,03759.23145,E,49.10,303.73,080525,,,*18
$GPGGA,145750.500,5533.94879,N,03759.23145,E,1,12,0.60,124.60,M,,M,,*43
$GPRMC,145750.600,A,5533.94954,N,03759.22940,E,49.92,302.87,080525,,,*19
$GPGGA,145750.600,5533.94954,N,03759.22940,E,1,12,0.60,124.60,M,,M,,*42
$GPRMC,145750.700,A,5533.95028,N,03759.22731,E,50.41,302.04,080525,,,*1E
$GPGGA,145750.700,5533.95028,N,03759.22731,E,1,12,0.60,124.60,M,,M,,*48
$GPRMC,145750.800,A,5533.95103,N,03759.22527,E,49.77,302.63,080525,,,*10
$GPGGA,145750.800,5533.95103,N,03759.22527,E,1,12,0.60,124.60,M,,M,,*4A
$GPRMC,145750.900,A,5533.95179,N,03759.22329,E,49.20,303.88,080525,,,*12
$GPGGA,145750.900,5533.95179,N,03759.22329,E,1,12,0.60,124.60,M,,M,,*4E
$GPRMC,145751.000,A,5533.95259,N,03759.22137,E,48.70,305.77,080525,,,*14
$GPGGA,145751.000,5533.95259,N,03759.22137,E,1,12,0.60,124.60,M,,M,,*4A
$GPRMC,145751.100,A,5533.95342,N,03759.21953,E,48.41,307.69,080525,,,*18
$GPGGA,145751.100,5533.95342,N,03759.21953,E,1,12,0.60,124.60,M,,M,,*49
$GPRMC,145751.200,A,5533.95429,N,03759.21776,E,48.06,310.12,080525,,,*11
$GPGGA,145751.200,5533.95429,N,03759.21776,E,1,12,0.60,124.60,M,,M,,*49
$GPRMC,145751.300,A,5533.95520,N,03759.21606,E,47.74,312.52,080525,,,*12
$GPGGA,145751.300,5533.95520,N,03759.21606,E,1,12,0.60,124.60,M,,M,,*46
$GPRMC,145751.400,A,5533.95613,N,03759.21441,E,47.32,314.44,080525,,,*14
$GPGGA,145751.400,5533.95613,N,03759.21441,E,1,12,0.60,124.60,M,,M,,*43
$GPRMC,145751.500,A,5533.95710,N,03759.21285,E,47.49,316.85,080525,,,*1A
$GPGGA,145751.500,5533.95710,N,03759.21285,E,1,12,0.60,124.60,M,,M,,*4E
$GPRMC,145751.600,A,5533.95811,N,03759.21134,E,47.68,318.75,080525,,,*1C
$GPGGA,145751.600,5533.95811,N,03759.21134,E,1,12,0.60,124.60,M,,M,,*4A
$GPRMC,145751.700,A,5533.95915,N,03759.20990,E,47.70,321.34,080525,,,*19
$GPGGA,145751.700,5533.95915,N,03759.20990,E,1,12,0.60,124.60,M,,M,,*49
$GPRMC,145751.800,A,5533.96025,N,03759.20853,E,47.94,324.00,080525,,,*19
$GPGGA,145751.800,5533.96025,N,03759.20853,E,1,12,0.60,124.60,M,,M,,*41
$GPRMC,145751.900,A,5533.96136,N,03759.20726,E,47.86,326.18,080525,,,*1E
$GPGGA,145751.900,5533.96136,N,03759.20726,E,1,12,0.60,124.60,M,,M,,*4E
$GPRMC,145752.000,A,5533.96251,N,03759.20606,E,48.00,328.60,080525,,,*15
$GPGGA,145752.000,5533.96251,N,03759.20606,E,1,12,0.60,124.60,M,,M,,*45
$GPRMC,145752.100,A,5533.96368,N,03759.20493,E,48.04,330.77,080525,,,*1A
$GPGGA,145752.100,5533.96368,N,03759.20493,E,1,12,0.60,124.60,M,,M,,*41
$GPRMC,145752.200,A,5533.96490,N,03759.20391,E,48.51,333.55,080525,,,*1F
$GPGGA,145752.200,5533.96490,N,03759.20391,E,1,12,0.60,124.50,M,,M,,*44
$GPRMC,145752.300,A,5533.96616,N,03759.20298,E,48.85,336.57,080525,,,*14
$GPGGA,145752.300,5533.96616,N,03759.20298,E,1,12,0.60,124.60,M,,M,,*42
$GPRMC,145752.400,A,5533.96743,N,03759.20213,E,49.10,338.43,080525,,,*17
$GPGGA,145752.400,5533.96743,N,03759.20213,E,1,12,0.60,124.60,M,,M,,*47
$GPRMC,145752.500,A,5533.96873,N,03759.20130,E,49.61,339.99,080525,,,*18
$GPGGA,145752.500,5533.96873,N,03759.20130,E,1,12,0.60,124.60,M,,M,,*48
$GPRMC,145752.600,A,5533.97008,N,03759.20060,E,50.35,342.60,080525,,,*19
$GPGGA,145752.600,5533.97008,N,03759.20060,E,1,12,0.60,124.60,M,,M,,*4A
$GPRMC,145752.700,A,5533.97147,N,03759.20003,E,50.93,345.95,080525,,,*16
$GPGGA,145752.700,5533.97147,N,03759.20003,E,1,12,0.60,124.60,M,,M,,*44
$GPRMC,145752.800,A,5533.97286,N,03759.19947,E,51.25,346.90,080525,,,*1E
$GPGGA,145752.800,5533.97286,N,03759.19947,E,1,12,0.60,124.70,M,,M,,*47
$GPRMC,145752.900,A,5533.97429,N,03759.19899,E,52.06,348.94,080525,,,*16
$GPGGA,145752.900,5533.97429,N,03759.19899,E,1,12,0.60,124.70,M,,M,,*47
$GPRMC,145753.000,A,5533.97575,N,03759.19865,E,52.91,351.54,080525,,,*1F
$GPGGA,145753.000,5533.97575,N,03759.19865,E,1,12,0.60,124.70,M,,M,,*44
$GPRMC,145753.100,A,5533.97723,N,03759.19835,E,53.48,352.93,080525,,,*17
$GPGGA,145753.100,5533.97723,N,03759.19835,E,1,12,0.60,124.70,M,,M,,*41
$GPRMC,145753.200,A,5533.97875,N,03759.19814,E,54.39,355.00,080525,,,*17
$GPGGA,145753.200,5533.97875,N,03759.19814,E,1,12,0.60,124.80,M,,M,,*42
$GPRMC,145753.300,A,5533.98028,N,03759.19800,E,55.12,356.56,080525,,,*14
$GPGGA,145753.300,5533.98028,N,03759.19800,E,1,12,0.60,124.80,M,,M,,*49
$GPRMC,145753.400,A,5533.98179,N,03759.19787,E,54.54,356.95,080525,,,*1A
$GPGGA,145753.400,5533.98179,N,03759.19787,E,1,12,0.60,124.80,M,,M,,*4B
$GPRMC,145753.500,A,5533.98329,N,03759.19770,E,53.94,356.61,080525,,,*14
$GPGGA,145753.500,5533.98329,N,03759.19770,E,1,12,0.60,124.80,M,,M,,*45
$GPRMC,145753.600,A,5533.98474,N,03759.19751,E,52.95,355.80,080525,,,*17
$GPGGA,145753.600,5533.98474,N,03759.19751,E,1,12,0.60,124.90,M,,M,,*4B
$GPRMC,145753.700,A,5533.98615,N,03759.19727,E,51.37,354.78,080525,,,*1F
$GPGGA,145753.700,5533.98615,N,03759.19727,E,1,12,0.60,124.90,M,,M,,*4E
$GPRMC,145753.800,A,5533.98750,N,03759.19695,E,49.51,353.12,080525,,,*1A
$GPGGA,145753.800,5533.98750,N,03759.19695,E,1,12,0.60,124.90,M,,M,,*49
$GPRMC,145753.900,A,5533.98882,N,03759.19659,E,48.34,351.34,080525,,,*1F
$GPGGA,145753.900,5533.98882,N,03759.19659,E,1,12,0.60,125.00,M,,M,,*40
$GPRMC,145754.000,A,5533.99011,N,03759.19613,E,47.80,349.21,080525,,,*11
$GPGGA,145754.000,5533.99011,N,03759.19613,E,1,12,0.60,125.00,M,,M,,*43
$GPRMC,145754.100,A,5533.99139,N,03759.19557,E,47.59,346.91,080525,,,*18
$GPGGA,145754.100,5533.99139,N,03759.19557,E,1,12,0.60,125.10,M,,M,,*4B
$GPRMC,145754.200,A,5533.99264,N,03759.19491,E,47.17,344.06,080525,,,*1D
$GPGGA,145754.200,5533.99264,N,03759.19491,E,1,12,0.60,125.10,M,,M,,*48
$GPRMC,145754.300,A,5533.99387,N,03759.19415,E,46.92,341.40,080525,,,*17
$GPGGA,145754.300,5533.99387,N,03759.19415,E,1,12,0.60,125.10,M,,M,,*49
$GPRMC,145754.400,A,5533.99507,N,03759.19329,E,46.92,339.04,080525,,,*19
$GPGGA,145754.400,5533.99507,N,03759.19329,E,1,12,0.60,125.10,M,,M,,*48
$GPRMC,145754.500,A,5533.99626,N,03759.19235,E,47.16,336.57,080525,,,*10
$GPGGA,145754.500,5533.99626,N,03759.19235,E,1,12,0.60,125.10,M,,M,,*45
$GPRMC,145754.600,A,5533.99743,N,03759.19128,E,47.24,333.77,080525,,,*18
$GPGGA,145754.600,5533.99743,N,03759.19128,E,1,12,0.60,125.10,M,,M,,*4B
$GPRMC,145754.700,A,5533.99856,N,03759.19014,E,47.27,331.18,080525,,,*14
$GPGGA,145754.700,5533.99856,N,03759.19014,E,1,12,0.60,125.10,M,,M,,*4F
$GPRMC,145754.800,A,5533.99968,N,03759.18891,E,47.50,328.63,080525,,,*17
$GPGGA,145754.800,5533.99968,N,03759.18891,E,1,12,0.60,125.20,M,,M,,*4B
$GPRMC,145754.900,A,5534.00075,N,03759.18759,E,47.56,326.21,080525,,,*11
$GPGGA,145754.900,5534.00075,N,03759.18759,E,1,12,0.60,125.20,M,,M,,*43
$GPRMC,145755.000,A,5534.00181,N,03759.18621,E,47.64,324.07,080525,,,*1A
$GPGGA,145755.000,5534.00181,N,03759.18621,E,1,12,0.60,125.10,M,,M,,*4C
$GPRMC,145755.100,A,5534.00283,N,03759.18471,E,47.85,321.17,080525,,,*16
$GPGGA,145755.100,5534.00283,N,03759.18471,E,1,12,0.60,125.20,M,,M,,*48
$GPRMC,145755.200,A,5534.00384,N,03759.18318,E,47.96,319.44,080525,,,*14
$GPGGA,145755.200,5534.00384,N,03759.18318,E,1,12,0.60,125.20,M,,M,,*45
$GPRMC,145755.300,A,5534.00481,N,03759.18153,E,48.63,317.21,080525,,,*12
$GPGGA,145755.300,5534.00481,N,03759.18153,E,1,12,0.60,125.10,M,,M,,*48
$GPRMC,145755.400,A,5534.00574,N,03759.17975,E,49.26,313.70,080525,,,*1D
$GPGGA,145755.400,5534.00574,N,03759.17975,E,1,12,0.60,125.20,M,,M,,*44
$GPRMC,145755.500,A,5534.00667,N,03759.17793,E,49.73,312.33,080525,,,*1D
$GPGGA,145755.500,5534.00667,N,03759.17793,E,1,12,0.60,125.20,M,,M,,*42
$GPRMC,145755.600,A,5534.00757,N,03759.17604,E,50.44,310.74,080525,,,*1E
$GPGGA,145755.600,5534.00757,N,03759.17604,E,1,12,0.60,125.20,M,,M,,*4C
$GPRMC,145755.700,A,5534.00843,N,03759.17403,E,51.05,307.73,080525,,,*15
$GPGGA,145755.700,5534.00843,N,03759.17403,E,1,12,0.60,125.20,M,,M,,*42
$GPRMC,145755.800,A,5534.00925,N,03759.17198,E,51.38,305.77,080525,,,*14
$GPGGA,145755.800,5534.00925,N,03759.17198,E,1,12,0.60,125.20,M,,M,,*4B
$GPRMC,145755.900,A,5534.01003,N,03759.16985,E,51.85,303.64,080525,,,*1E
$GPGGA,145755.900,5534.01003,N,03759.16985,E,1,12,0.60,125.20,M,,M,,*43
$GPRMC,145756.000,A,5534.01077,N,03759.16764,E,52.24,301.15,080525,,,*1A
$GPGGA,145756.000,5534.01077,N,03759.16764,E,1,12,0.60,125.20,M,,M,,*4B
$GPRMC,145756.100,A,5534.01146,N,03759.16536,E,52.81,299.05,080525,,,*13
$GPGGA,145756.100,5534.01146,N,03759.16536,E,1,12,0.60,125.20,M,,M,,*4C
$GPRMC,145756.200,A,5534.01212,N,03759.16301,E,53.46,296.97,080525,,,*1E
$GPGGA,145756.200,5534.01212,N,03759.16301,E,1,12,0.60,125.20,M,,M,,*4F
$GPRMC,145756.300,A,5534.01275,N,03759.16059,E,54.17,295.07,080525,,,*19
$GPGGA,145756.300,5534.01275,N,03759.16059,E,1,12,0.60,125.20,M,,M,,*41
$GPRMC,145756.400,A,5534.01335,N,03759.15812,E,54.83,293.86,080525,,,*1D
$GPGGA,145756.400,5534.01335,N,03759.15812,E,1,12,0.60,125.10,M,,M,,*44
$GPRMC,145756.500,A,5534.01395,N,03759.15560,E,55.51,292.90,080525,,,*16
$GPGGA,145756.500,5534.01395,N,03759.15560,E,1,12,0.60,125.10,M,,M,,*47
$GPRMC,145756.600,A,5534.01450,N,03759.15302,E,56.37,291.59,080525,,,*1C
$GPGGA,145756.600,5534.01450,N,03759.15302,E,1,12,0.60,125.10,M,,M,,*48
$GPRMC,145756.700,A,5534.01507,N,03759.15038,E,57.31,291.10,080525,,,*1E
$GPGGA,145756.700,5534.01507,N,03759.15038,E,1,12,0.60,125.10,M,,M,,*40
$GPRMC,145756.800,A,5534.01563,N,03759.14771,E,58.07,290.55,080525,,,*12
$GPGGA,145756.800,5534.01563,N,03759.14771,E,1,12,0.60,125.10,M,,M,,*46
$GPRMC,145756.900,A,5534.01620,N,03759.14499,E,59.07,290.38,080525,,,*18
$GPGGA,145756.900,5534.01620,N,03759.14499,E,1,12,0.60,125.10,M,,M,,*46
$GPRMC,145757.000,A,5534.01677,N,03759.14222,E,59.97,290.12,080525,,,*15
$GPGGA,145757.000,5534.01677,N,03759.14222,E,1,12,0.60,125.00,M,,M,,*4B
$GPRMC,145757.100,A,5534.01732,N,03759.13940,E,60.64,289.22,080525,,,*11
$GPGGA,145757.100,5534.01732,N,03759.13940,E,1,12,0.60,125.00,M,,M,,*42
$GPRMC,145757.200,A,5534.01788,N,03759.13653,E,61.60,288.83,080525,,,*11
$GPGGA,145757.200,5534.01788,N,03759.13653,E,1,12,0.60,125.00,M,,M,,*4D
$GPRMC,145757.300,A,5534.01840,N,03759.13362,E,62.39,288.08,080525,,,*10
$GPGGA,145757.300,5534.01840,N,03759.13362,E,1,12,0.60,125.00,M,,M,,*40
$GPRMC,145757.400,A,5534.01893,N,03759.13064,E,63.19,287.28,080525,,,*12
$GPGGA,145757.400,5534.01893,N,03759.13064,E,1,12,0.60,125.00,M,,M,,*4C
$GPRMC,145757.500,A,5534.01944,N,03759.12762,E,64.07,286.82,080525,,,*11
$GPGGA,145757.500,5534.01944,N,03759.12762,E,1,12,0.60,125.00,M,,M,,*46
$GPRMC,145757.600,A,5534.01992,N,03759.12456,E,64.72,286.09,080525,,,*1C
$GPGGA,145757.600,5534.01992,N,03759.12456,E,1,12,0.60,125.00,M,,M,,*4A
$GPRMC,145757.700,A,5534.02040,N,03759.12144,E,65.48,285.43,080525,,,*1B
$GPGGA,145757.700,5534.02040,N,03759.12144,E,1,12,0.60,125.00,M,,M,,*48
$GPRMC,145757.800,A,5534.02085,N,03759.11832,E,66.01,284.80,080525,,,*16
$GPGGA,145757.800,5534.02085,N,03759.11832,E,1,12,0.60,125.00,M,,M,,*45
$GPRMC,145757.900,A,5534.02127,N,03759.11519,E,65.63,283.77,080525,,,*12
$GPGGA,145757.900,5534.02127,N,03759.11519,E,1,12,0.60,124.90,M,,M,,*41
$GPRMC,145758.000,A,5534.02167,N,03759.11207,E,65.38,282.90,080525,,,*1E
$GPGGA,145758.000,5534.02167,N,03759.11207,E,1,12,0.60,124.90,M,,M,,*4B
$GPRMC,145758.100,A,5534.02205,N,03759.10895,E,65.25,282.05,080525,,,*18
$GPGGA,145758.100,5534.02205,N,03759.10895,E,1,12,0.60,124.90,M,,M,,*4D
$GPRMC,145758.200,A,5534.02238,N,03759.10583,E,64.96,281.19,080525,,,*18
$GPGGA,145758.200,5534.02238,N,03759.10583,E,1,12,0.60,124.90,M,,M,,*4A
$GPRMC,145758.300,A,5534.02268,N,03759.10274,E,64.32,280.28,080525,,,*1E
$GPGGA,145758.300,5534.02268,N,03759.10274,E,2,12,0.60,124.90,M,,M,,*42
$GPRMC,145758.400,A,5534.02296,N,03759.09966,E,63.72,279.29,080525,,,*1C
$GPGGA,145758.400,5534.02296,N,03759.09966,E,2,12,0.60,124.90,M,,M,,*44
$GPRMC,145758.500,A,5534.02320,N,03759.09663,E,62.90,278.38,080525,,,*17
$GPGGA,145758.500,5534.02320,N,03759.09663,E,2,12,0.60,124.80,M,,M,,*42
$GPRMC,145758.600,A,5534.02340,N,03759.09365,E,61.85,277.12,080525,,,*11
$GPGGA,145758.600,5534.02340,N,03759.09365,E,2,12,0.60,124.80,M,,M,,*44
$GPRMC,145758.700,A,5534.02356,N,03759.09072,E,60.66,276.06,080525,,,*1A
$GPGGA,145758.700,5534.02356,N,03759.09072,E,2,12,0.60,124.80,M,,M,,*47
$GPRMC,145758.800,A,5534.02370,N,03759.08781,E,59.63,274.88,080525,,,*10
$GPGGA,145758.800,5534.02370,N,03759.08781,E,2,12,0.60,124.80,M,,M,,*46
$GPRMC,145758.900,A,5534.02379,N,03759.08496,E,58.56,273.51,080525,,,*19
$GPGGA,145758.900,5534.02379,N,03759.08496,E,2,12,0.60,124.80,M,,M,,*4B
$GPRMC,145759.000,A,5534.02382,N,03759.08219,E,57.38,272.17,080525,,,*10
$GPGGA,145759.000,5534.02382,N,03759.08219,E,2,12,0.60,124.80,M,,M,,*46
$GPRMC,145759.100,A,5534.02382,N,03759.07944,E,56.36,270.68,080525,,,*18
$GPGGA,145759.100,5534.02382,N,03759.07944,E,2,12,0.60,124.80,M,,M,,*4B
$GPRMC,145759.200,A,5534.02379,N,03759.07671,E,55.82,268.96,080525,,,*12
$GPGGA,145759.200,5534.02379,N,03759.07671,E,2,12,0.60,124.70,M,,M,,*4A
$GPRMC,145759.300,A,5534.02367,N,03759.07401,E,55.55,266.81,080525,,,*1B
$GPGGA,145759.300,5534.02367,N,03759.07401,E,2,12,0.60,124.70,M,,M,,*41
$GPRMC,145759.400,A,5534.02352,N,03759.07133,E,55.18,264.81,080525,,,*15
$GPGGA,145759.400,5534.02352,N,03759.07133,E,2,12,0.60,124.70,M,,M,,*44
$GPRMC,145759.500,A,5534.02328,N,03759.06869,E,54.70,262.44,080525,,,*1E
$GPGGA,145759.500,5534.02328,N,03759.06869,E,2,12,0.60,124.70,M,,M,,*4F
$GPRMC,145759.600,A,5534.02301,N,03759.06606,E,54.37,260.27,080525,,,*15
$GPGGA,145759.600,5534.02301,N,03759.06606,E,2,12,0.60,124.70,M,,M,,*40
$GPRMC,145759.700,A,5534.02268,N,03759.06348,E,54.32,258.20,080525,,,*1C
$GPGGA,145759.700,5534.02268,N,03759.06348,E,2,12,0.60,124.70,M,,M,,*40
$GPRMC,145759.800,A,5534.02227,N,03759.06090,E,54.26,255.72,080525,,,*11
$GPGGA,145759.800,5534.02227,N,03759.06090,E,2,12,0.60,124.70,M,,M,,*42
$GPRMC,145759.900,A,5534.02182,N,03759.05835,E,54.39,253.49,080525,,,*18
$GPGGA,145759.900,5534.02182,N,03759.05835,E,2,12,0.60,124.60,M,,M,,*4A
$GPRMC,145800.000,A,5534.02131,N,03759.05585,E,54.48,251.32,080525,,,*14
$GPGGA,145800.000,5534.02131,N,03759.05585,E,2,12,0.60,124.60,M,,M,,*4E
$GPRMC,145800.100,A,5534.02073,N,03759.05334,E,54.80,249.01,080525,,,*13
$GPGGA,145800.100,5534.02073,N,03759.05334,E,2,12,0.60,124.60,M,,M,,*44
$GPRMC,145800.200,A,5534.02010,N,03759.05088,E,54.93,246.70,080525,,,*1A
$GPGGA,145800.200,5534.02010,N,03759.05088,E,2,12,0.60,124.60,M,,M,,*46
$GPRMC,145800.300,A,5534.01941,N,03759.04848,E,55.02,244.29,080525,,,*17
$GPGGA,145800.300,5534.01941,N,03759.04848,E,2,12,0.60,124.60,M,,M,,*4C
$GPRMC,145800.400,A,5534.01866,N,03759.04611,E,55.22,241.98,080525,,,*1B
$GPGGA,145800.400,5534.01866,N,03759.04611,E,2,12,0.60,124.60,M,,M,,*4D
$GPRMC,145800.500,A,5534.01785,N,03759.04377,E,55.41,239.63,080525,,,*13
$GPGGA,145800.500,5534.01785,N,03759.04377,E,2,12,0.60,124.60,M,,M,,*4B
$GPRMC,145800.600,A,5534.01698,N,03759.04151,E,55.76,237.25,080525,,,*13
$GPGGA,145800.600,5534.01698,N,03759.04151,E,2,12,0.60,124.60,M,,M,,*43
$GPRMC,145800.700,A,5534.01605,N,03759.03930,E,55.87,234.81,080525,,,*1D
$GPGGA,145800.700,5534.01605,N,03759.03930,E,2,12,0.60,124.60,M,,M,,*4E
$GPRMC,145800.800,A,5534.01507,N,03759.03714,E,56.23,232.84,080525,,,*15
$GPGGA,145800.800,5534.01507,N,03759.03714,E,2,12,0.60,124.60,M,,M,,*48
$GPRMC,145800.900,A,5534.01405,N,03759.03501,E,56.51,230.63,080525,,,*1F
$GPGGA,145800.900,5534.01405,N,03759.03501,E,2,12,0.60,124.60,M,,M,,*4C
$GPRMC,145801.000,A,5534.01296,N,03759.03297,E,56.85,228.13,080525,,,*14
$GPGGA,145801.000,5534.01296,N,03759.03297,E,2,12,0.60,124.50,M,,M,,*43
$GPRMC,145801.100,A,5534.01183,N,03759.03099,E,57.34,226.03,080525,,,*1A
$GPGGA,145801.100,5534.01183,N,03759.03099,E,2,12,0.60,124.50,M,,M,,*49
$GPRMC,145801.200,A,5534.01068,N,03759.02907,E,57.33,224.03,080525,,,*17
$GPGGA,145801.200,5534.01068,N,03759.02907,E,2,12,0.60,124.50,M,,M,,*41
$GPRMC,145801.300,A,5534.00945,N,03759.02724,E,57.40,221.78,080525,,,*13
$GPGGA,145801.300,5534.00945,N,03759.02724,E,2,12,0.60,124.50,M,,M,,*48
$GPRMC,145801.400,A,5534.00820,N,03759.02549,E,57.54,219.51,080525,,,*1A
$GPGGA,145801.400,5534.00820,N,03759.02549,E,2,12,0.60,124.50,M,,M,,*44
$GPRMC,145801.500,A,5534.00690,N,03759.02379,E,57.74,217.48,080525,,,*1F
$GPGGA,145801.500,5534.00690,N,03759.02379,E,2,12,0.60,124.50,M,,M,,*45
$GPRMC,145801.600,A,5534.00559,N,03759.02220,E,57.57,215.50,080525,,,*1D
$GPGGA,145801.600,5534.00559,N,03759.02220,E,2,12,0.60,124.50,M,,M,,*4D
$GPRMC,145801.700,A,5534.00426,N,03759.02070,E,57.28,213.56,080525,,,*1A
$GPGGA,145801.700,5534.00426,N,03759.02070,E,2,12,0.60,124.40,M,,M,,*43
$GPRMC,145801.800,A,5534.00289,N,03759.01925,E,57.01,212.03,080525,,,*16
$GPGGA,145801.800,5534.00289,N,03759.01925,E,2,12,0.60,124.40,M,,M,,*45
$GPRMC,145801.900,A,5534.00153,N,03759.01790,E,56.51,210.35,080525,,,*10
$GPGGA,145801.900,5534.00153,N,03759.01790,E,2,12,0.60,124.40,M,,M,,*40
$GPRMC,145802.000,A,5534.00016,N,03759.01662,E,55.82,208.81,080525,,,*1D
$GPGGA,145802.000,5534.00016,N,03759.01662,E,2,12,0.60,124.30,M,,M,,*41
$GPRMC,145802.100,A,5533.99884,N,03759.01539,E,54.62,208.01,080525,,,*12
$GPGGA,145802.100,5533.99884,N,03759.01539,E,2,12,0.60,124.30,M,,M,,*49
$GPRMC,145802.200,A,5533.99753,N,03759.01425,E,53.30,206.88,080525,,,*17
$GPGGA,145802.200,5533.99753,N,03759.01425,E,2,12,0.60,124.30,M,,M,,*43
$GPRMC,145802.300,A,5533.99626,N,03759.01319,E,51.55,205.71,080525,,,*19
$GPGGA,145802.300,5533.99626,N,03759.01319,E,2,12,0.60,124.30,M,,M,,*49
$GPRMC,145802.400,A,5533.99503,N,03759.01224,E,49.64,204.38,080525,,,*12
$GPGGA,145802.400,5533.99503,N,03759.01224,E,2,12,0.60,124.30,M,,M,,*45
$GPRMC,145802.500,A,5533.99384,N,03759.01136,E,47.73,203.36,080525,,,*1B
$GPGGA,145802.500,5533.99384,N,03759.01136,E,2,12,0.60,124.30,M,,M,,*4D
$GPRMC,145802.600,A,5533.99266,N,03759.01053,E,46.49,202.13,080525,,,*19
$GPGGA,145802.600,5533.99266,N,03759.01053,E,2,12,0.60,124.20,M,,M,,*40
$GPRMC,145802.700,A,5533.99151,N,03759.00980,E,45.02,200.91,080525,,,*1D
$GPGGA,145802.700,5533.99151,N,03759.00980,E,2,12,0.60,124.20,M,,M,,*40
$GPRMC,145802.800,A,5533.99037,N,03759.00912,E,43.92,199.26,080525,,,*18
$GPGGA,145802.800,5533.99037,N,03759.00912,E,2,12,0.60,124.20,M,,M,,*45
$GPRMC,145802.900,A,5533.98924,N,03759.00854,E,42.95,197.52,080525,,,*1B
$GPGGA,145802.900,5533.98924,N,03759.00854,E,2,12,0.60,124.20,M,,M,,*4D
$GPRMC,145803.000,A,5533.98811,N,03759.00803,E,42.28,195.66,080525,,,*15
$GPGGA,145803.000,5533.98811,N,03759.00803,E,2,12,0.60,124.10,M,,M,,*43
$GPRMC,145803.100,A,5533.98701,N,03759.00762,E,41.28,193.46,080525,,,*15
$GPGGA,145803.100,5533.98701,N,03759.00762,E,2,12,0.60,124.10,M,,M,,*44
$GPRMC,145803.200,A,5533.98592,N,03759.00726,E,40.54,191.68,080525,,,*1A
$GPGGA,145803.200,5533.98592,N,03759.00726,E,2,12,0.60,124.20,M,,M,,*4C
$GPRMC,145803.300,A,5533.98486,N,03759.00702,E,39.39,189.04,080525,,,*1F
$GPGGA,145803.300,5533.98486,N,03759.00702,E,2,12,0.60,124.20,M,,M,,*4F
$GPRMC,145803.400,A,5533.98381,N,03759.00690,E,38.54,186.33,080525,,,*13
$GPGGA,145803.400,5533.98381,N,03759.00690,E,2,12,0.60,124.20,M,,M,,*42
$GPRMC,145803.500,A,5533.98273,N,03759.00687,E,38.43,183.42,080525,,,*1D
$GPGGA,145803.500,5533.98273,N,03759.00687,E,2,12,0.60,124.20,M,,M,,*49
$GPRMC,145803.600,A,5533.98167,N,03759.00693,E,38.29,180.61,080525,,,*13
$GPGGA,145803.600,5533.98167,N,03759.00693,E,2,12,0.60,124.20,M,,M,,*49
$GPRMC,145803.700,A,5533.98061,N,03759.00708,E,38.06,178.00,080525,,,*1B
$GPGGA,145803.700,5533.98061,N,03759.00708,E,2,12,0.60,124.20,M,,M,,*4C
$GPRMC,145803.800,A,5533.97958,N,03759.00732,E,37.81,175.34,080525,,,*1B
$GPGGA,145803.800,5533.97958,N,03759.00732,E,2,12,0.60,124.30,M,,M,,*47
$GPRMC,145803.900,A,5533.97855,N,03759.00768,E,37.68,172.04,080525,,,*1A
$GPGGA,145803.900,5533.97855,N,03759.00768,E,2,12,0.60,124.30,M,,M,,*45
$GPRMC,145804.000,A,5533.97754,N,03759.00810,E,37.60,169.55,080525,,,*1C
$GPGGA,145804.000,5533.97754,N,03759.00810,E,2,12,0.60,124.30,M,,M,,*45
$GPRMC,145804.100,A,5533.97653,N,03759.00863,E,37.60,166.99,080525,,,*10
$GPGGA,145804.100,5533.97653,N,03759.00863,E,2,12,0.60,124.30,M,,M,,*46
$GPRMC,145804.200,A,5533.97556,N,03759.00927,E,37.50,163.79,080525,,,*1C
$GPGGA,145804.200,5533.97556,N,03759.00927,E,2,12,0.60,124.30,M,,M,,*42
$GPRMC,145804.300,A,5533.97459,N,03759.01001,E,37.70,160.74,080525,,,*13
$GPGGA,145804.300,5533.97459,N,03759.01001,E,2,12,0.60,124.30,M,,M,,*41
$GPRMC,145804.400,A,5533.97369,N,03759.01089,E,37.52,156.78,080525,,,*19
$GPGGA,145804.400,5533.97369,N,03759.01089,E,2,12,0.60,124.30,M,,M,,*42
$GPRMC,145804.500,A,5533.97279,N,03759.01188,E,37.80,153.15,080525,,,*19
$GPGGA,145804.500,5533.97279,N,03759.01188,E,2,12,0.60,124.40,M,,M,,*44
$GPRMC,145804.600,A,5533.97191,N,03759.01299,E,38.20,149.44,080525,,,*16
$GPGGA,145804.600,5533.97191,N,03759.01299,E,2,12,0.60,124.40,M,,M,,*41
$GPRMC,145804.700,A,5533.97108,N,03759.01421,E,38.53,145.70,080525,,,*1D
$GPGGA,145804.700,5533.97108,N,03759.01421,E,2,12,0.60,124.40,M,,M,,*45
$GPRMC,145804.800,A,5533.97028,N,03759.01550,E,38.82,141.92,080525,,,*12
$GPGGA,145804.800,5533.97028,N,03759.01550,E,2,12,0.60,124.30,M,,M,,*49
$GPRMC,145804.900,A,5533.96951,N,03759.01685,E,39.16,138.63,080525,,,*12
$GPGGA,145804.900,5533.96951,N,03759.01685,E,2,12,0.60,124.30,M,,M,,*45
$GPRMC,145805.000,A,5533.96876,N,03759.01826,E,39.46,135.63,080525,,,*11
$GPGGA,145805.000,5533.96876,N,03759.01826,E,2,12,0.60,124.30,M,,M,,*4E
$GPRMC,145805.100,A,5533.96806,N,03759.01976,E,39.84,132.14,080525,,,*1A
$GPGGA,145805.100,5533.96806,N,03759.01976,E,2,12,0.60,124.30,M,,M,,*4C
$GPRMC,145805.200,A,5533.96740,N,03759.02129,E,39.91,129.32,080525,,,*1F
$GPGGA,145805.200,5533.96740,N,03759.02129,E,2,12,0.60,124.30,M,,M,,*43
$GPRMC,145805.300,A,5533.96677,N,03759.02291,E,40.23,126.21,080525,,,*11
$GPGGA,145805.300,5533.96677,N,03759.02291,E,2,12,0.60,124.30,M,,M,,*47
$GPRMC,145805.400,A,5533.96620,N,03759.02462,E,40.67,122.73,080525,,,*1D
$GPGGA,145805.400,5533.96620,N,03759.02462,E,2,12,0.60,124.30,M,,M,,*48
$GPRMC,145805.500,A,5533.96567,N,03759.02637,E,40.86,119.72,080525,,,*18
$GPGGA,145805.500,5533.96567,N,03759.02637,E,2,12,0.60,124.30,M,,M,,*4B
$GPRMC,145805.600,A,5533.96519,N,03759.02820,E,41.30,116.76,080525,,,*1D
$GPGGA,145805.600,5533.96519,N,03759.02820,E,2,12,0.60,124.30,M,,M,,*49
$GPRMC,145805.700,A,5533.96476,N,03759.03008,E,41.42,113.71,080525,,,*10
$GPGGA,145805.700,5533.96476,N,03759.03008,E,2,12,0.60,124.30,M,,M,,*43
$GPRMC,145805.800,A,5533.96438,N,03759.03203,E,42.01,110.51,080525,,,*19
$GPGGA,145805.800,5533.96438,N,03759.03203,E,2,12,0.60,124.40,M,,M,,*48
$GPRMC,145805.900,A,5533.96405,N,03759.03399,E,42.14,107.92,080525,,,*19
$GPGGA,145805.900,5533.96405,N,03759.03399,E,2,12,0.60,124.40,M,,M,,*45
$GPRMC,145806.000,A,5533.96377,N,03759.03605,E,42.87,105.07,080525,,,*15
$GPGGA,145806.000,5533.96377,N,03759.03605,E,2,12,0.60,124.40,M,,M,,*4D
$GPRMC,145806.100,A,5533.96353,N,03759.03815,E,43.58,102.33,080525,,,*1E
$GPGGA,145806.100,5533.96353,N,03759.03815,E,2,12,0.60,124.40,M,,M,,*45
$GPRMC,145806.200,A,5533.96335,N,03759.04029,E,44.28,99.87,080525,,,*21
$GPGGA,145806.200,5533.96335,N,03759.04029,E,2,12,0.60,124.40,M,,M,,*46
$GPRMC,145806.300,A,5533.96320,N,03759.04248,E,44.96,97.77,080525,,,*25
$GPGGA,145806.300,5533.96320,N,03759.04248,E,2,12,0.60,124.40,M,,M,,*46
$GPRMC,145806.400,A,5533.96310,N,03759.04476,E,45.98,95.47,080525,,,*24
$GPGGA,145806.400,5533.96310,N,03759.04476,E,2,12,0.60,124.30,M,,M,,*4E
$GPRMC,145806.500,A,5533.96306,N,03759.04706,E,46.80,93.13,080525,,,*2B
$GPGGA,145806.500,5533.96306,N,03759.04706,E,2,12,0.60,124.30,M,,M,,*4C
$GPRMC,145806.600,A,5533.96304,N,03759.04941,E,47.63,91.28,080525,,,*21
$GPGGA,145806.600,5533.96304,N,03759.04941,E,2,12,0.60,124.40,M,,M,,*47
$GPRMC,145806.700,A,5533.96305,N,03759.05181,E,48.56,90.04,080525,,,*22
$GPGGA,145806.700,5533.96305,N,03759.05181,E,2,12,0.60,124.40,M,,M,,*42
$GPRMC,145806.800,A,5533.96311,N,03759.05424,E,49.47,88.33,080525,,,*2E
$GPGGA,145806.800,5533.96311,N,03759.05424,E,2,12,0.60,124.30,M,,M,,*45
$GPRMC,145806.900,A,5533.96319,N,03759.05673,E,50.46,87.01,080525,,,*20
$GPGGA,145806.900,5533.96319,N,03759.05673,E,2,12,0.60,124.40,M,,M,,*4B
$GPRMC,145807.000,A,5533.96327,N,03759.05924,E,51.17,86.72,080525,,,*28
$GPGGA,145807.000,5533.96327,N,03759.05924,E,2,12,0.60,124.40,M,,M,,*43
$GPRMC,145807.100,A,5533.96335,N,03759.06180,E,52.17,86.73,080525,,,*2D
$GPGGA,145807.100,5533.96335,N,03759.06180,E,2,12,0.60,124.40,M,,M,,*44
$GPRMC,145807.200,A,5533.96342,N,03759.06443,E,53.14,86.97,080525,,,*2C
$GPGGA,145807.200,5533.96342,N,03759.06443,E,2,12,0.60,124.40,M,,M,,*4D
$GPRMC,145807.300,A,5533.96347,N,03759.06708,E,54.04,87.62,080525,,,*29
$GPGGA,145807.300,5533.96347,N,03759.06708,E,2,12,0.60,124.40,M,,M,,*45
$GPRMC,145807.400,A,5533.96349,N,03759.06978,E,54.78,88.78,080525,,,*26
$GPGGA,145807.400,5533.96349,N,03759.06978,E,2,12,0.60,124.40,M,,M,,*45
$GPRMC,145807.500,A,5533.96346,N,03759.07254,E,55.77,90.18,080525,,,*2D
$GPGGA,145807.500,5533.96346,N,03759.07254,E,2,12,0.60,124.40,M,,M,,*4F
$GPRMC,145807.600,A,5533.96342,N,03759.07530,E,56.37,91.12,080525,,,*23
$GPGGA,145807.600,5533.96342,N,03759.07530,E,2,12,0.60,124.30,M,,M,,*4A
$GPRMC,145807.700,A,5533.96332,N,03759.07806,E,56.41,92.92,080525,,,*27
$GPGGA,145807.700,5533.96332,N,03759.07806,E,2,12,0.60,124.30,M,,M,,*44
$GPRMC,145807.800,A,5533.96317,N,03759.08079,E,56.06,94.59,080525,,,*22
$GPGGA,145807.800,5533.96317,N,03759.08079,E,2,12,0.60,124.30,M,,M,,*43
$GPRMC,145807.900,A,5533.96297,N,03759.08355,E,56.52,96.36,080525,,,*2D
$GPGGA,145807.900,5533.96297,N,03759.08355,E,2,12,0.60,124.30,M,,M,,*46
$GPRMC,145808.000,A,5533.96272,N,03759.08630,E,56.61,98.04,080525,,,*29
$GPGGA,145808.000,5533.96272,N,03759.08630,E,2,12,0.60,124.30,M,,M,,*4D
$GPRMC,145808.100,A,5533.96242,N,03759.08903,E,56.61,100.12,080525,,,*13
$GPGGA,145808.100,5533.96242,N,03759.08903,E,2,12,0.60,124.30,M,,M,,*40
$GPRMC,145808.200,A,5533.96207,N,03759.09174,E,56.74,101.94,080525,,,*13
$GPGGA,145808.200,5533.96207,N,03759.09174,E,2,12,0.60,124.40,M,,M,,*4C
$GPRMC,145808.300,A,5533.96167,N,03759.09444,E,56.77,103.67,080525,,,*1C
$GPGGA,145808.300,5533.96167,N,03759.09444,E,2,12,0.60,124.30,M,,M,,*49
$GPRMC,145808.400,A,5533.96120,N,03759.09711,E,56.86,105.77,080525,,,*12
$GPGGA,145808.400,5533.96120,N,03759.09711,E,2,12,0.60,124.30,M,,M,,*4E
$GPRMC,145808.500,A,5533.96068,N,03759.09975,E,56.77,107.85,080525,,,*13
$GPGGA,145808.500,5533.96068,N,03759.09975,E,2,12,0.60,124.30,M,,M,,*4E
$GPRMC,145808.600,A,5533.96011,N,03759.10236,E,56.87,109.92,080525,,,*1D
$GPGGA,145808.600,5533.96011,N,03759.10236,E,2,12,0.60,124.30,M,,M,,*47
$GPRMC,145808.700,A,5533.95948,N,03759.10496,E,57.21,111.98,080525,,,*18
$GPGGA,145808.700,5533.95948,N,03759.10496,E,2,12,0.60,124.30,M,,M,,*4C
$GPRMC,145808.800,A,5533.95879,N,03759.10752,E,57.50,114.01,080525,,,*1C
$GPGGA,145808.800,5533.95879,N,03759.10752,E,2,12,0.60,124.40,M,,M,,*4C
$GPRMC,145808.900,A,5533.95807,N,03759.11006,E,57.63,115.72,080525,,,*16
$GPGGA,145808.900,5533.95807,N,03759.11006,E,2,12,0.60,124.30,M,,M,,*44
$GPRMC,145809.000,A,5533.95729,N,03759.11253,E,57.63,117.72,080525,,,*1D
$GPGGA,145809.000,5533.95729,N,03759.11253,E,2,12,0.60,124.30,M,,M,,*4D
$GPRMC,145809.100,A,5533.95645,N,03759.11495,E,57.59,119.97,080525,,,*17
$GPGGA,145809.100,5533.95645,N,03759.11495,E,2,12,0.60,124.30,M,,M,,*4B
$GPRMC,145809.200,A,5533.95554,N,03759.11730,E,57.72,122.60,080525,,,*12
$GPGGA,145809.200,5533.95554,N,03759.11730,E,2,12,0.60,124.30,M,,M,,*47
$GPRMC,145809.300,A,5533.95460,N,03759.11958,E,57.70,124.54,080525,,,*16
$GPGGA,145809.300,5533.95460,N,03759.11958,E,2,12,0.60,124.40,M,,M,,*47
$GPRMC,145809.400,A,5533.95361,N,03759.12183,E,57.94,126.73,080525,,,*17
$GPGGA,145809.400,5533.95361,N,03759.12183,E,2,12,0.60,124.30,M,,M,,*4C
$GPRMC,145809.500,A,5533.95257,N,03759.12405,E,58.29,128.75,080525,,,*18
$GPGGA,145809.500,5533.95257,N,03759.12405,E,2,12,0.60,124.40,M,,M,,*45
$GPRMC,145809.600,A,5533.95148,N,03759.12618,E,58.41,130.71,080525,,,*1B
$GPGGA,145809.600,5533.95148,N,03759.12618,E,2,12,0.60,124.30,M,,M,,*42
$GPRMC,145809.700,A,5533.95035,N,03759.12825,E,58.54,132.83,080525,,,*1A
$GPGGA,145809.700,5533.95035,N,03759.12825,E,2,12,0.60,124.40,M,,M,,*4F
$GPRMC,145809.800,A,5533.94919,N,03759.13026,E,58.39,134.52,080525,,,*18
$GPGGA,145809.800,5533.94919,N,03759.13026,E,2,12,0.60,124.40,M,,M,,*4C
$GPRMC,145809.900,A,5533.94797,N,03759.13218,E,58.67,136.95,080525,,,*1C
$GPGGA,145809.900,5533.94797,N,03759.13218,E,2,12,0.60,124.40,M,,M,,*4A
$GPRMC,145810.000,A,5533.94671,N,03759.13404,E,59.00,138.79,080525,,,*13
$GPGGA,145810.000,5533.94671,N,03759.13404,E,2,12,0.60,124.50,M,,M,,*48
$GPRMC,145810.100,A,5533.94540,N,03759.13584,E,59.15,140.94,080525,,,*12
$GPGGA,145810.100,5533.94540,N,03759.13584,E,2,12,0.60,124.50,M,,M,,*41
$GPRMC,145810.200,A,5533.94408,N,03759.13754,E,59.07,142.86,080525,,,*11
$GPGGA,145810.200,5533.94408,N,03759.13754,E,2,12,0.60,124.50,M,,M,,*40
$GPRMC,145810.300,A,5533.94271,N,03759.13916,E,59.04,145.03,080525,,,*19
$GPGGA,145810.300,5533.94271,N,03759.13916,E,2,12,0.60,124.50,M,,M,,*41
$GPRMC,145810.400,A,5533.94130,N,03759.14069,E,59.35,147.10,080525,,,*1C
$GPGGA,145810.400,5533.94130,N,03759.14069,E,2,12,0.60,124.50,M,,M,,*46
$GPRMC,145810.500,A,5533.93986,N,03759.14217,E,59.72,148.90,080525,,,*10
$GPGGA,145810.500,5533.93986,N,03759.14217,E,2,12,0.60,124.50,M,,M,,*4E
$GPRMC,145810.600,A,5533.93839,N,03759.14355,E,59.92,150.80,080525,,,*17
$GPGGA,145810.600,5533.93839,N,03759.14355,E,2,12,0.60,124.50,M,,M,,*4F
$GPRMC,145810.700,A,5533.93687,N,03759.14487,E,60.51,152.85,080525,,,*17
$GPGGA,145810.700,5533.93687,N,03759.14487,E,2,12,0.60,124.50,M,,M,,*4D
$GPRMC,145810.800,A,5533.93532,N,03759.14612,E,61.03,154.67,080525,,,*17
$GPGGA,145810.800,5533.93532,N,03759.14612,E,2,12,0.60,124.50,M,,M,,*41
$GPRMC,145810.900,A,5533.93375,N,03759.14729,E,61.30,156.48,080525,,,*15
$GPGGA,145810.900,5533.93375,N,03759.14729,E,2,12,0.60,124.50,M,,M,,*4C
$GPRMC,145811.000,A,5533.93214,N,03759.14835,E,61.65,158.49,080525,,,*16
$GPGGA,145811.000,5533.93214,N,03759.14835,E,2,12,0.60,124.50,M,,M,,*40
$GPRMC,145811.100,A,5533.93050,N,03759.14934,E,62.19,160.49,080525,,,*16
$GPGGA,145811.100,5533.93050,N,03759.14934,E,2,12,0.60,124.50,M,,M,,*43
$GPRMC,145811.200,A,5533.92885,N,03759.15024,E,62.26,162.15,080525,,,*1A
$GPGGA,145811.200,5533.92885,N,03759.15024,E,2,12,0.60,124.50,M,,M,,*48
$GPRMC,145811.300,A,5533.92717,N,03759.15105,E,62.63,163.95,080525,,,*15
$GPGGA,145811.300,5533.92717,N,03759.15105,E,2,12,0.60,124.40,M,,M,,*4E
$GPRMC,145811.400,A,5533.92545,N,03759.15180,E,63.34,165.72,080525,,,*16
$GPGGA,145811.400,5533.92545,N,03759.15180,E,2,12,0.60,124.40,M,,M,,*41
$GPRMC,145811.500,A,5533.92372,N,03759.15245,E,63.68,167.42,080525,,,*17
$GPGGA,145811.500,5533.92372,N,03759.15245,E,2,12,0.60,124.50,M,,M,,*49
$GPRMC,145811.600,A,5533.92195,N,03759.15300,E,64.22,169.14,080525,,,*1B
$GPGGA,145811.600,5533.92195,N,03759.15300,E,2,12,0.60,124.50,M,,M,,*41
$GPRMC,145811.700,A,5533.92016,N,03759.15344,E,64.98,171.15,080525,,,*19
$GPGGA,145811.700,5533.92016,N,03759.15344,E,2,12,0.60,124.50,M,,M,,*4A
$GPRMC,145811.800,A,5533.91837,N,03759.15378,E,65.11,172.96,080525,,,*19
$GPGGA,145811.800,5533.91837,N,03759.15378,E,2,12,0.60,124.50,M,,M,,*42
$GPRMC,145811.900,A,5533.91657,N,03759.15405,E,65.32,174.48,080525,,,*19
$GPGGA,145811.900,5533.91657,N,03759.15405,E,2,12,0.60,124.50,M,,M,,*46
$GPRMC,145812.000,A,5533.91474,N,03759.15426,E,65.84,175.88,080525,,,*11
$GPGGA,145812.000,5533.91474,N,03759.15426,E,2,12,0.60,124.50,M,,M,,*4E
$GPRMC,145812.100,A,5533.91291,N,03759.15440,E,66.02,177.05,080525,,,*17
$GPGGA,145812.100,5533.91291,N,03759.15440,E,2,12,0.60,124.50,M,,M,,*42
$GPRMC,145812.200,A,5533.91108,N,03759.15453,E,66.10,177.41,080525,,,*16
$GPGGA,145812.200,5533.91108,N,03759.15453,E,2,12,0.60,124.50,M,,M,,*40
$GPRMC,145812.300,A,5533.90925,N,03759.15471,E,66.19,177.03,080525,,,*1E
$GPGGA,145812.300,5533.90925,N,03759.15471,E,2,12,0.60,124.50,M,,M,,*47
$GPRMC,145812.400,A,5533.90742,N,03759.15501,E,66.03,175.75,080525,,,*18
$GPGGA,145812.400,5533.90742,N,03759.15501,E,2,12,0.60,124.50,M,,M,,*49
$GPRMC,145812.500,A,5533.90559,N,03759.15539,E,66.07,174.19,080525,,,*15
$GPGGA,145812.500,5533.90559,N,03759.15539,E,2,12,0.60,124.50,M,,M,,*4B
$GPRMC,145812.600,A,5533.90378,N,03759.15588,E,66.02,172.39,080525,,,*18
$GPGGA,145812.600,5533.90378,N,03759.15588,E,2,12,0.60,124.50,M,,M,,*47
$GPRMC,145812.700,A,5533.90198,N,03759.15645,E,65.90,170.72,080525,,,*12
$GPGGA,145812.700,5533.90198,N,03759.15645,E,2,12,0.60,124.50,M,,M,,*48
$GPRMC,145812.800,A,5533.90020,N,03759.15714,E,65.59,168.54,080525,,,*12
$GPGGA,145812.800,5533.90020,N,03759.15714,E,2,12,0.60,124.50,M,,M,,*40
$GPRMC,145812.900,A,5533.89845,N,03759.15797,E,65.40,166.44,080525,,,*1C
$GPGGA,145812.900,5533.89845,N,03759.15797,E,2,12,0.60,124.50,M,,M,,*49
$GPRMC,145813.000,A,5533.89671,N,03759.15887,E,65.37,164.51,080525,,,*15
$GPGGA,145813.000,5533.89671,N,03759.15887,E,2,12,0.60,124.60,M,,M,,*45
$GPRMC,145813.100,A,5533.89500,N,03759.15990,E,65.19,162.31,080525,,,*1A
$GPGGA,145813.100,5533.89500,N,03759.15990,E,2,12,0.60,124.60,M,,M,,*46
$GPRMC,145813.200,A,5533.89330,N,03759.16101,E,65.24,160.30,080525,,,*12
$GPGGA,145813.200,5533.89330,N,03759.16101,E,2,12,0.60,124.60,M,,M,,*43
$GPRMC,145813.300,A,5533.89163,N,03759.16223,E,65.22,158.56,080525,,,*19
$GPGGA,145813.300,5533.89163,N,03759.16223,E,2,12,0.60,124.60,M,,M,,*45
$GPRMC,145813.400,A,5533.88998,N,03759.16355,E,65.12,156.39,080525,,,*17
$GPGGA,145813.400,5533.88998,N,03759.16355,E,2,12,0.60,124.70,M,,M,,*4E
$GPRMC,145813.500,A,5533.88837,N,03759.16497,E,65.22,154.33,080525,,,*10
$GPGGA,145813.500,5533.88837,N,03759.16497,E,2,12,0.60,124.70,M,,M,,*42
$GPRMC,145813.600,A,5533.88679,N,03759.16650,E,64.98,152.30,080525,,,*1B
$GPGGA,145813.600,5533.88679,N,03759.16650,E,2,12,0.60,124.70,M,,M,,*4C
$GPRMC,145813.700,A,5533.88523,N,03759.16809,E,65.03,150.46,080525,,,*14
$GPGGA,145813.700,5533.88523,N,03759.16809,E,2,12,0.60,124.70,M,,M,,*43
$GPRMC,145813.800,A,5533.88370,N,03759.16980,E,65.13,148.53,080525,,,*17
$GPGGA,145813.800,5533.88370,N,03759.16980,E,2,12,0.60,124.70,M,,M,,*4C
$GPRMC,145813.900,A,5533.88222,N,03759.17160,E,65.16,146.46,080525,,,*18
$GPGGA,145813.900,5533.88222,N,03759.17160,E,2,12,0.60,124.70,M,,M,,*4C
$GPRMC,145814.000,A,5533.88076,N,03759.17351,E,65.32,144.58,080525,,,*1E
$GPGGA,145814.000,5533.88076,N,03759.17351,E,2,12,0.60,124.70,M,,M,,*41
$GPRMC,145814.100,A,5533.87933,N,03759.17550,E,65.52,142.58,080525,,,*1F
$GPGGA,145814.100,5533.87933,N,03759.17550,E,2,12,0.60,124.80,M,,M,,*4F
$GPRMC,145814.200,A,5533.87793,N,03759.17759,E,65.83,140.70,080525,,,*17
$GPGGA,145814.200,5533.87793,N,03759.17759,E,2,12,0.60,124.80,M,,M,,*43
$GPRMC,145814.300,A,5533.87657,N,03759.17975,E,66.08,138.96,080525,,,*18
$GPGGA,145814.300,5533.87657,N,03759.17975,E,2,12,0.60,124.80,M,,M,,*4B
$GPRMC,145814.400,A,5533.87525,N,03759.18200,E,66.04,137.01,080525,,,*12
$GPGGA,145814.400,5533.87525,N,03759.18200,E,2,12,0.60,124.80,M,,M,,*4C
$GPRMC,145814.500,A,5533.87398,N,03759.18432,E,66.08,135.03,080525,,,*18
$GPGGA,145814.500,5533.87398,N,03759.18432,E,2,12,0.60,124.90,M,,M,,*4B
$GPRMC,145814.600,A,5533.87275,N,03759.18672,E,66.04,133.10,080525,,,*17
$GPGGA,145814.600,5533.87275,N,03759.18672,E,2,12,0.60,124.90,M,,M,,*4C
$GPRMC,145814.700,A,5533.87157,N,03759.18918,E,66.12,131.26,080525,,,*16
$GPGGA,145814.700,5533.87157,N,03759.18918,E,2,12,0.60,124.90,M,,M,,*4D
$GPRMC,145814.800,A,5533.87043,N,03759.19173,E,66.36,129.33,080525,,,*12
$GPGGA,145814.800,5533.87043,N,03759.19173,E,2,12,0.60,124.90,M,,M,,*42
$GPRMC,145814.900,A,5533.86934,N,03759.19434,E,66.33,127.46,080525,,,*14
$GPGGA,145814.900,5533.86934,N,03759.19434,E,2,12,0.60,125.00,M,,M,,*45
$GPRMC,145815.000,A,5533.86829,N,03759.19704,E,66.63,125.59,080525,,,*18
$GPGGA,145815.000,5533.86829,N,03759.19704,E,2,12,0.60,125.00,M,,M,,*40
$GPRMC,145815.100,A,5533.86730,N,03759.19982,E,66.92,123.59,080525,,,*16
$GPGGA,145815.100,5533.86730,N,03759.19982,E,2,12,0.60,125.00,M,,M,,*46
$GPRMC,145815.200,A,5533.86635,N,03759.20265,E,67.25,121.71,080525,,,*1C
$GPGGA,145815.200,5533.86635,N,03759.20265,E,2,12,0.60,125.10,M,,M,,*48
$GPRMC,145815.300,A,5533.86545,N,03759.20556,E,67.58,119.89,080525,,,*18
$GPGGA,145815.300,5533.86545,N,03759.20556,E,2,12,0.60,125.10,M,,M,,*4A
$GPRMC,145815.400,A,5533.86459,N,03759.20853,E,68.10,118.06,080525,,,*1E
$GPGGA,145815.400,5533.86459,N,03759.20853,E,2,12,0.60,125.10,M,,M,,*49
$GPRMC,145815.500,A,5533.86377,N,03759.21159,E,68.68,116.38,080525,,,*1A
$GPGGA,145815.500,5533.86377,N,03759.21159,E,2,12,0.60,125.10,M,,M,,*41
$GPRMC,145815.600,A,5533.86301,N,03759.21471,E,69.14,114.37,080525,,,*10
$GPGGA,145815.600,5533.86301,N,03759.21471,E,2,12,0.60,125.20,M,,M,,*4F
$GPRMC,145815.700,A,5533.86228,N,03759.21788,E,69.71,112.81,080525,,,*16
$GPGGA,145815.700,5533.86228,N,03759.21788,E,2,12,0.60,125.20,M,,M,,*41
$GPRMC,145815.800,A,5533.86158,N,03759.22112,E,70.42,111.44,080525,,,*19
$GPGGA,145815.800,5533.86158,N,03759.22112,E,2,12,0.60,125.20,M,,M,,*4C
$GPRMC,145815.900,A,5533.86093,N,03759.22440,E,70.98,109.98,080525,,,*13
$GPGGA,145815.900,5533.86093,N,03759.22440,E,2,12,0.60,125.20,M,,M,,*49
$GPRMC,145816.000,A,5533.86031,N,03759.22775,E,71.55,108.62,080525,,,*10
$GPGGA,145816.000,5533.86031,N,03759.22775,E,2,12,0.60,125.30,M,,M,,*4F
$GPRMC,145816.100,A,5533.85973,N,03759.23112,E,72.09,107.58,080525,,,*17
$GPGGA,145816.100,5533.85973,N,03759.23112,E,2,12,0.60,125.30,M,,M,,*44
$GPRMC,145816.200,A,5533.85917,N,03759.23456,E,72.74,106.43,080525,,,*12
$GPGGA,145816.200,5533.85917,N,03759.23456,E,2,12,0.60,125.40,M,,M,,*47
$GPRMC,145816.300,A,5533.85865,N,03759.23802,E,73.29,105.45,080525,,,*16
$GPGGA,145816.300,5533.85865,N,03759.23802,E,2,12,0.60,125.40,M,,M,,*4F
$GPRMC,145816.400,A,5533.85815,N,03759.24155,E,73.93,104.47,080525,,,*18
$GPGGA,145816.400,5533.85815,N,03759.24155,E,2,12,0.60,125.40,M,,M,,*43
$GPRMC,145816.500,A,5533.85767,N,03759.24512,E,74.57,103.65,080525,,,*1C
$GPGGA,145816.500,5533.85767,N,03759.24512,E,2,12,0.60,125.40,M,,M,,*4F
$GPRMC,145816.600,A,5533.85723,N,03759.24870,E,75.05,102.70,080525,,,*15
$GPGGA,145816.600,5533.85723,N,03759.24870,E,2,12,0.60,125.50,M,,M,,*44
$GPRMC,145816.700,A,5533.85682,N,03759.25233,E,75.66,101.74,080525,,,*10
$GPGGA,145816.700,5533.85682,N,03759.25233,E,2,12,0.60,125.50,M,,M,,*43
$GPRMC,145816.800,A,5533.85643,N,03759.25602,E,76.24,100.94,080525,,,*1E
$GPGGA,145816.800,5533.85643,N,03759.25602,E,2,12,0.60,125.50,M,,M,,*47
$GPRMC,145816.900,A,5533.85607,N,03759.25974,E,76.85,99.97,080525,,,*28
$GPGGA,145816.900,5533.85607,N,03759.25974,E,2,12,0.60,125.50,M,,M,,*48
$GPRMC,145817.000,A,5533.85575,N,03759.26349,E,77.41,99.03,080525,,,*25
$GPGGA,145817.000,5533.85575,N,03759.26349,E,2,12,0.60,125.50,M,,M,,*41
$GPRMC,145817.100,A,5533.85545,N,03759.26727,E,77.98,98.16,080525,,,*2A
$GPGGA,145817.100,5533.85545,N,03759.26727,E,2,12,0.60,125.50,M,,M,,*4F
$GPRMC,145817.200,A,5533.85520,N,03759.27111,E,78.59,97.03,080525,,,*21
$GPGGA,145817.200,5533.85520,N,03759.27111,E,2,12,0.60,125.50,M,,M,,*4D
$GPRMC,145817.300,A,5533.85498,N,03759.27497,E,79.07,96.16,080525,,,*26
$GPGGA,145817.300,5533.85498,N,03759.27497,E,2,12,0.60,125.50,M,,M,,*45
$GPRMC,145817.400,A,5533.85478,N,03759.27885,E,79.64,95.38,080525,,,*2A
$GPGGA,145817.400,5533.85478,N,03759.27885,E,2,12,0.60,125.50,M,,M,,*43
$GPRMC,145817.500,A,5533.85462,N,03759.28278,E,80.19,94.66,080525,,,*21
$GPGGA,145817.500,5533.85462,N,03759.28278,E,2,12,0.60,125.50,M,,M,,*4E
$GPRMC,145817.600,A,5533.85447,N,03759.28676,E,80.92,94.00,080525,,,*2C
$GPGGA,145817.600,5533.85447,N,03759.28676,E,2,12,0.60,125.50,M,,M,,*40
$GPRMC,145817.700,A,5533.85434,N,03759.29075,E,81.36,93.57,080525,,,*27
$GPGGA,145817.700,5533.85434,N,03759.29075,E,2,12,0.60,125.50,M,,M,,*41
$GPRMC,145817.800,A,5533.85421,N,03759.29475,E,81.98,93.32,080525,,,*2F
$GPGGA,145817.800,5533.85421,N,03759.29475,E,2,12,0.60,125.50,M,,M,,*4E
$GPRMC,145817.900,A,5533.85409,N,03759.29882,E,82.66,92.95,080525,,,*2E
$GPGGA,145817.900,5533.85409,N,03759.29882,E,2,12,0.60,125.50,M,,M,,*41
$GPRMC,145818.000,A,5533.85398,N,03759.30288,E,83.13,92.85,080525,,,*2D
$GPGGA,145818.000,5533.85398,N,03759.30288,E,2,12,0.60,125.50,M,,M,,*40
$GPRMC,145818.100,A,5533.85387,N,03759.30699,E,83.72,92.64,080525,,,*2E
$GPGGA,145818.100,5533.85387,N,03759.30699,E,2,12,0.60,125.50,M,,M,,*4B
$GPRMC,145818.200,A,5533.85376,N,03759.31113,E,84.36,92.56,080525,,,*21
$GPGGA,145818.200,5533.85376,N,03759.31113,E,2,12,0.60,125.50,M,,M,,*42
$GPRMC,145818.300,A,5533.85367,N,03759.31529,E,84.74,92.43,080525,,,*2F
$GPGGA,145818.300,5533.85367,N,03759.31529,E,2,12,0.60,125.50,M,,M,,*4E
$GPRMC,145818.400,A,5533.85357,N,03759.31947,E,85.32,92.37,080525,,,*2F
$GPGGA,145818.400,5533.85357,N,03759.31947,E,2,12,0.60,125.50,M,,M,,*4E
$GPRMC,145818.500,A,5533.85347,N,03759.32369,E,85.97,92.21,080525,,,*22
$GPGGA,145818.500,5533.85347,N,03759.32369,E,2,12,0.60,125.50,M,,M,,*4B
$GPRMC,145818.600,A,5533.85338,N,03759.32793,E,86.40,92.19,080525,,,*2A
$GPGGA,145818.600,5533.85338,N,03759.32793,E,2,12,0.60,125.50,M,,M,,*41
$GPRMC,145818.700,A,5533.85329,N,03759.33219,E,86.86,92.03,080525,,,*2C
$GPGGA,145818.700,5533.85329,N,03759.33219,E,2,12,0.60,125.60,M,,M,,*45
$GPRMC,145818.800,A,5533.85321,N,03759.33648,E,87.44,91.96,080525,,,*2B
$GPGGA,145818.800,5533.85321,N,03759.33648,E,2,12,0.60,125.60,M,,M,,*42
$GPRMC,145818.900,A,5533.85314,N,03759.34079,E,87.94,91.74,080525,,,*2E
$GPGGA,145818.900,5533.85314,N,03759.34079,E,2,12,0.60,125.60,M,,M,,*46
$GPRMC,145819.000,A,5533.85306,N,03759.34512,E,88.51,91.72,080525,,,*2D
$GPGGA,145819.000,5533.85306,N,03759.34512,E,2,12,0.70,125.60,M,,M,,*44
$GPRMC,145819.100,A,5533.85299,N,03759.34947,E,88.95,91.63,080525,,,*2F
$GPGGA,145819.100,5533.85299,N,03759.34947,E,2,12,0.70,125.60,M,,M,,*4E
$GPRMC,145819.200,A,5533.85291,N,03759.35385,E,89.46,91.64,080525,,,*29
$GPGGA,145819.200,5533.85291,N,03759.35385,E,2,12,0.70,125.60,M,,M,,*40
