$GPRMC,084750.760,A,5559.65409,N,03616.22483,E,61.71,3.60,210424,,,*1A
$GPGGA,084750.760,5559.65409,N,03616.22483,E,1,15,0.60,253.30,M,,M,,*47
$GPRMC,084750.820,A,5559.65516,N,03616.22495,E,62.01,3.60,210424,,,*1D
$GPGGA,084750.820,5559.65516,N,03616.22495,E,1,15,0.60,253.30,M,,M,,*44
$GPRMC,084750.880,A,5559.65624,N,03616.22507,E,62.36,3.50,210424,,,*18
$GPGGA,084750.880,5559.65624,N,03616.22507,E,1,15,0.60,253.30,M,,M,,*46
$GPRMC,084750.940,A,5559.65733,N,03616.22521,E,62.75,3.70,210424,,,*13
$GPGGA,084750.940,5559.65733,N,03616.22521,E,1,15,0.60,253.40,M,,M,,*4F
$GPRMC,084751.010,A,5559.65843,N,03616.22534,E,63.24,3.60,210424,,,*16
$GPGGA,084751.010,5559.65843,N,03616.22534,E,1,15,0.60,253.40,M,,M,,*4E
$GPRMC,084751.070,A,5559.65953,N,03616.22548,E,63.37,3.80,210424,,,*17
$GPGGA,084751.070,5559.65953,N,03616.22548,E,1,15,0.60,253.50,M,,M,,*42
$GPRMC,084751.130,A,5559.66064,N,03616.22563,E,63.73,3.90,210424,,,*14
$GPGGA,084751.130,5559.66064,N,03616.22563,E,1,15,0.60,253.60,M,,M,,*43
$GPRMC,084751.190,A,5559.66177,N,03616.22577,E,64.44,3.80,210424,,,*1A
$GPGGA,084751.190,5559.66177,N,03616.22577,E,1,15,0.60,253.60,M,,M,,*4F
$GPRMC,084751.250,A,5559.66289,N,03616.22590,E,64.96,3.70,210424,,,*1E
$GPGGA,084751.250,5559.66289,N,03616.22590,E,1,15,0.60,253.60,M,,M,,*4B
$GPRMC,084751.320,A,5559.66402,N,03616.22603,E,65.39,3.60,210424,,,*11
$GPGGA,084751.320,5559.66402,N,03616.22603,E,1,15,0.60,253.60,M,,M,,*41
$GPRMC,084751.380,A,5559.66516,N,03616.22617,E,65.74,3.60,210424,,,*13
$GPGGA,084751.380,5559.66516,N,03616.22617,E,1,15,0.60,253.60,M,,M,,*4A
$GPRMC,084751.440,A,5559.66631,N,03616.22631,E,66.20,3.70,210424,,,*19
$GPGGA,084751.440,5559.66631,N,03616.22631,E,1,15,0.60,253.70,M,,M,,*42
$GPRMC,084751.500,A,5559.66745,N,03616.22645,E,66.54,3.60,210424,,,*1F
$GPGGA,084751.500,5559.66745,N,03616.22645,E,1,15,0.60,253.70,M,,M,,*46
$GPRMC,084751.560,A,5559.66861,N,03616.22658,E,66.81,3.50,210424,,,*17
$GPGGA,084751.560,5559.66861,N,03616.22658,E,1,15,0.60,253.70,M,,M,,*45
$GPRMC,084751.630,A,5559.66977,N,03616.22671,E,67.33,3.50,210424,,,*14
$GPGGA,084751.630,5559.66977,N,03616.22671,E,1,15,0.60,253.70,M,,M,,*4E
$GPRMC,084751.690,A,5559.67094,N,03616.22684,E,67.49,3.50,210424,,,*1C
$GPGGA,084751.690,5559.67094,N,03616.22684,E,1,15,0.60,253.70,M,,M,,*4B
$GPRMC,084751.750,A,5559.67212,N,03616.22698,E,68.01,3.50,210424,,,*13
$GPGGA,084751.750,5559.67212,N,03616.22698,E,1,15,0.60,253.70,M,,M,,*47
$GPRMC,084751.810,A,5559.67331,N,03616.22711,E,68.54,3.50,210424,,,*18
$GPGGA,084751.810,5559.67331,N,03616.22711,E,1,15,0.60,253.70,M,,M,,*4C
$GPRMC,084751.870,A,5559.67450,N,03616.22726,E,68.99,3.60,210424,,,*18
$GPGGA,084751.870,5559.67450,N,03616.22726,E,1,15,0.60,253.70,M,,M,,*4E
$GPRMC,084751.940,A,5559.67571,N,03616.22740,E,69.42,3.60,210424,,,*1F
$GPGGA,084751.940,5559.67571,N,03616.22740,E,1,15,0.60,253.80,M,,M,,*41
$GPRMC,084752.000,A,5559.67692,N,03616.22755,E,69.82,3.70,210424,,,*16
$GPGGA,084752.000,5559.67692,N,03616.22755,E,1,15,0.60,253.80,M,,M,,*45
$GPRMC,084752.060,A,5559.67814,N,03616.22770,E,70.31,3.70,210424,,,*17
$GPGGA,084752.060,5559.67814,N,03616.22770,E,1,15,0.60,253.80,M,,M,,*44
$GPRMC,084752.120,A,5559.67936,N,03616.22785,E,70.76,3.70,210424,,,*1A
$GPGGA,084752.120,5559.67936,N,03616.22785,E,1,15,0.60,253.80,M,,M,,*4A
$GPRMC,084752.180,A,5559.68059,N,03616.22801,E,71.16,3.80,210424,,,*14
$GPGGA,084752.180,5559.68059,N,03616.22801,E,1,15,0.60,253.80,M,,M,,*4C
$GPRMC,084752.250,A,5559.68183,N,03616.22816,E,71.60,3.80,210424,,,*1B
$GPGGA,084752.250,5559.68183,N,03616.22816,E,1,15,0.60,253.80,M,,M,,*42
$GPRMC,084752.310,A,5559.68308,N,03616.22833,E,72.08,3.90,210424,,,*14
$GPGGA,084752.310,5559.68308,N,03616.22833,E,1,15,0.60,253.80,M,,M,,*41
$GPRMC,084752.370,A,5559.68433,N,03616.22849,E,72.42,4.00,210424,,,*10
$GPGGA,084752.370,5559.68433,N,03616.22849,E,1,15,0.60,253.80,M,,M,,*45
$GPRMC,084752.430,A,5559.68558,N,03616.22865,E,72.80,3.90,210424,,,*11
$GPGGA,084752.430,5559.68558,N,03616.22865,E,1,15,0.60,253.80,M,,M,,*44
$GPRMC,084752.490,A,5559.68685,N,03616.22881,E,73.29,3.90,210424,,,*10
$GPGGA,084752.490,5559.68685,N,03616.22881,E,1,15,0.60,253.80,M,,M,,*47
$GPRMC,084752.560,A,5559.68813,N,03616.22898,E,73.66,4.00,210424,,,*12
$GPGGA,084752.560,5559.68813,N,03616.22898,E,1,15,0.60,253.80,M,,M,,*40
$GPRMC,084752.620,A,5559.68940,N,03616.22913,E,73.93,3.90,210424,,,*14
$GPGGA,084752.620,5559.68940,N,03616.22913,E,1,15,0.60,253.90,M,,M,,*43
$GPRMC,084752.680,A,5559.69069,N,03616.22929,E,74.37,3.90,210424,,,*1D
$GPGGA,084752.680,5559.69069,N,03616.22929,E,1,15,0.60,253.90,M,,M,,*43
$GPRMC,084752.740,A,5559.69199,N,03616.22946,E,74.86,3.90,210424,,,*1D
$GPGGA,084752.740,5559.69199,N,03616.22946,E,1,15,0.60,253.90,M,,M,,*49
$GPRMC,084752.800,A,5559.69329,N,03616.22963,E,75.14,4.00,210424,,,*1C
$GPGGA,084752.800,5559.69329,N,03616.22963,E,1,15,0.60,253.90,M,,M,,*4C
$GPRMC,084752.870,A,5559.69459,N,03616.22980,E,75.31,4.10,210424,,,*10
$GPGGA,084752.870,5559.69459,N,03616.22980,E,1,15,0.70,253.90,M,,M,,*47
$GPRMC,084752.930,A,5559.69590,N,03616.22997,E,75.64,4.00,210424,,,*16
$GPGGA,084752.930,5559.69590,N,03616.22997,E,1,15,0.70,253.90,M,,M,,*40
$GPRMC,084752.990,A,5559.69720,N,03616.23013,E,75.60,4.00,210424,,,*15
$GPGGA,084752.990,5559.69720,N,03616.23013,E,1,15,0.60,254.00,M,,M,,*48
$GPRMC,084753.050,A,5559.69850,N,03616.23029,E,75.58,4.00,210424,,,*1B
$GPGGA,084753.050,5559.69850,N,03616.23029,E,1,15,0.60,253.90,M,,M,,*43
$GPRMC,084753.110,A,5559.69980,N,03616.23047,E,75.62,4.20,210424,,,*11
$GPGGA,084753.110,5559.69980,N,03616.23047,E,1,15,0.60,253.90,M,,M,,*42
$GPRMC,084753.180,A,5559.70111,N,03616.23063,E,75.96,4.00,210424,,,*1F
$GPGGA,084753.180,5559.70111,N,03616.23063,E,1,15,0.80,253.90,M,,M,,*4B
$GPRMC,084753.240,A,5559.70244,N,03616.23079,E,76.50,3.80,210424,,,*1E
$GPGGA,084753.240,5559.70244,N,03616.23079,E,1,15,0.80,253.90,M,,M,,*4C
$GPRMC,084753.300,A,5559.70378,N,03616.23096,E,77.15,3.80,210424,,,*14
$GPGGA,084753.300,5559.70378,N,03616.23096,E,1,15,0.80,253.90,M,,M,,*46
$GPRMC,084753.360,A,5559.70511,N,03616.23111,E,77.23,3.80,210424,,,*10
$GPGGA,084753.360,5559.70511,N,03616.23111,E,1,15,0.80,253.90,M,,M,,*47
$GPRMC,084753.420,A,5559.70644,N,03616.23125,E,77.46,3.60,210424,,,*1A
$GPGGA,084753.420,5559.70644,N,03616.23125,E,1,15,0.80,253.90,M,,M,,*40
$GPRMC,084753.490,A,5559.70779,N,03616.23139,E,77.75,3.40,210424,,,*11
$GPGGA,084753.490,5559.70779,N,03616.23139,E,1,15,0.80,253.90,M,,M,,*49
$GPRMC,084753.550,A,5559.70913,N,03616.23156,E,77.99,3.50,210424,,,*14
$GPGGA,084753.550,5559.70913,N,03616.23156,E,1,15,0.80,253.90,M,,M,,*4F
$GPRMC,084753.610,A,5559.71049,N,03616.23174,E,78.24,3.80,210424,,,*10
$GPGGA,084753.610,5559.71049,N,03616.23174,E,1,15,0.80,253.90,M,,M,,*4F
$GPRMC,084753.670,A,5559.71185,N,03616.23190,E,78.56,3.70,210424,,,*17
$GPGGA,084753.670,5559.71185,N,03616.23190,E,1,15,0.80,253.90,M,,M,,*42
$GPRMC,084753.730,A,5559.71321,N,03616.23205,E,78.89,3.60,210424,,,*12
$GPGGA,084753.730,5559.71321,N,03616.23205,E,1,15,0.80,254.00,M,,M,,*4A
$GPRMC,084753.800,A,5559.71457,N,03616.23220,E,78.95,3.60,210424,,,*12
$GPGGA,084753.800,5559.71457,N,03616.23220,E,1,15,0.80,254.00,M,,M,,*47
$GPRMC,084753.860,A,5559.71594,N,03616.23238,E,79.13,3.70,210424,,,*1D
$GPGGA,084753.860,5559.71594,N,03616.23238,E,1,15,0.80,254.00,M,,M,,*46
$GPRMC,084753.920,A,5559.71732,N,03616.23253,E,79.61,3.60,210424,,,*1F
$GPGGA,084753.920,5559.71732,N,03616.23253,E,1,15,0.80,254.00,M,,M,,*40
$GPRMC,084753.980,A,5559.71871,N,03616.23271,E,80.03,3.70,210424,,,*1E
$GPGGA,084753.980,5559.71871,N,03616.23271,E,1,15,0.80,254.00,M,,M,,*42
$GPRMC,084754.040,A,5559.72009,N,03616.23289,E,80.27,3.80,210424,,,*16
$GPGGA,084754.040,5559.72009,N,03616.23289,E,1,15,0.80,254.10,M,,M,,*42
$GPRMC,084754.110,A,5559.72148,N,03616.23305,E,80.52,3.70,210424,,,*1E
$GPGGA,084754.110,5559.72148,N,03616.23305,E,1,15,0.70,254.10,M,,M,,*48
$GPRMC,084754.170,A,5559.72288,N,03616.23322,E,80.93,3.70,210424,,,*1F
$GPGGA,084754.170,5559.72288,N,03616.23322,E,1,15,0.80,254.10,M,,M,,*4B
$GPRMC,084754.230,A,5559.72429,N,03616.23340,E,81.16,3.80,210424,,,*12
$GPGGA,084754.230,5559.72429,N,03616.23340,E,1,15,0.80,254.10,M,,M,,*45
$GPRMC,084754.290,A,5559.72570,N,03616.23358,E,81.63,3.90,210424,,,*1F
$GPGGA,084754.290,5559.72570,N,03616.23358,E,1,15,0.80,254.10,M,,M,,*4B
$GPRMC,084754.350,A,5559.72713,N,03616.23376,E,82.08,3.80,210424,,,*16
$GPGGA,084754.350,5559.72713,N,03616.23376,E,1,15,0.80,254.10,M,,M,,*4D
$GPRMC,084754.420,A,5559.72855,N,03616.23396,E,82.36,4.00,210424,,,*17
$GPGGA,084754.420,5559.72855,N,03616.23396,E,1,15,0.80,254.10,M,,M,,*4E
$GPRMC,084754.480,A,5559.72997,N,03616.23416,E,82.52,4.20,210424,,,*1D
$GPGGA,084754.480,5559.72997,N,03616.23416,E,1,15,0.80,254.10,M,,M,,*44
$GPRMC,084754.540,A,5559.73139,N,03616.23434,E,82.81,4.10,210424,,,*10
$GPGGA,084754.540,5559.73139,N,03616.23434,E,1,15,0.80,254.10,M,,M,,*44
$GPRMC,084754.600,A,5559.73283,N,03616.23452,E,83.07,4.10,210424,,,*1A
$GPGGA,084754.600,5559.73283,N,03616.23452,E,1,15,0.80,254.10,M,,M,,*41
$GPRMC,084754.660,A,5559.73427,N,03616.23471,E,83.46,4.10,210424,,,*10
$GPGGA,084754.660,5559.73427,N,03616.23471,E,1,15,0.80,254.10,M,,M,,*4E
$GPRMC,084754.730,A,5559.73571,N,03616.23495,E,83.68,4.40,210424,,,*15
$GPGGA,084754.730,5559.73571,N,03616.23495,E,1,15,0.80,254.10,M,,M,,*42
$GPRMC,084754.790,A,5559.73716,N,03616.23516,E,83.98,4.50,210424,,,*18
$GPGGA,084754.790,5559.73716,N,03616.23516,E,1,15,0.80,254.10,M,,M,,*41
$GPRMC,084754.850,A,5559.73861,N,03616.23537,E,84.25,4.50,210424,,,*16
$GPGGA,084754.850,5559.73861,N,03616.23537,E,1,15,0.80,254.10,M,,M,,*4E
$GPRMC,084754.910,A,5559.74007,N,03616.23560,E,84.62,4.70,210424,,,*1F
$GPGGA,084754.910,5559.74007,N,03616.23560,E,1,15,0.80,254.10,M,,M,,*46
$GPRMC,084754.970,A,5559.74153,N,03616.23583,E,84.82,4.80,210424,,,*15
$GPGGA,084754.970,5559.74153,N,03616.23583,E,1,15,0.80,254.10,M,,M,,*4D
$GPRMC,084755.040,A,5559.74300,N,03616.23605,E,85.18,4.80,210424,,,*15
$GPGGA,084755.040,5559.74300,N,03616.23605,E,1,15,0.80,254.20,M,,M,,*4C
$GPRMC,084755.100,A,5559.74447,N,03616.23626,E,85.54,4.70,210424,,,*12
$GPGGA,084755.100,5559.74447,N,03616.23626,E,1,15,0.80,254.20,M,,M,,*4C
$GPRMC,084755.160,A,5559.74596,N,03616.23650,E,86.01,4.80,210424,,,*14
$GPGGA,084755.160,5559.74596,N,03616.23650,E,1,15,0.80,254.20,M,,M,,*46
$GPRMC,084755.220,A,5559.74744,N,03616.23673,E,86.23,4.90,210424,,,*1E
$GPGGA,084755.220,5559.74744,N,03616.23673,E,1,15,0.80,254.20,M,,M,,*4D
$GPRMC,084755.280,A,5559.74892,N,03616.23697,E,86.41,5.00,210424,,,*16
$GPGGA,084755.280,5559.74892,N,03616.23697,E,1,15,0.80,254.20,M,,M,,*49
$GPRMC,084755.350,A,5559.75041,N,03616.23719,E,86.55,5.00,210424,,,*1F
$GPGGA,084755.350,5559.75041,N,03616.23719,E,1,15,0.80,254.20,M,,M,,*45
$GPRMC,084755.410,A,5559.75191,N,03616.23744,E,86.89,5.10,210424,,,*18
$GPGGA,084755.410,5559.75191,N,03616.23744,E,1,15,0.80,254.20,M,,M,,*42
$GPRMC,084755.470,A,5559.75342,N,03616.23768,E,87.35,5.00,210424,,,*1B
$GPGGA,084755.470,5559.75342,N,03616.23768,E,1,15,0.80,254.20,M,,M,,*46
$GPRMC,084755.530,A,5559.75493,N,03616.23792,E,87.61,5.00,210424,,,*11
$GPGGA,084755.530,5559.75493,N,03616.23792,E,1,15,0.80,254.20,M,,M,,*4D
$GPRMC,084755.590,A,5559.75644,N,03616.23817,E,87.86,5.10,210424,,,*19
$GPGGA,084755.590,5559.75644,N,03616.23817,E,1,15,0.80,254.20,M,,M,,*4D
$GPRMC,084755.660,A,5559.75796,N,03616.23842,E,88.16,5.10,210424,,,*1D
$GPGGA,084755.660,5559.75796,N,03616.23842,E,1,15,0.80,254.20,M,,M,,*4F
$GPRMC,084755.720,A,5559.75947,N,03616.23865,E,88.30,5.00,210424,,,*1A
$GPGGA,084755.720,5559.75947,N,03616.23865,E,1,15,0.80,254.20,M,,M,,*4D
$GPRMC,084755.780,A,5559.76100,N,03616.23889,E,88.62,5.10,210424,,,*1C
$GPGGA,084755.780,5559.76100,N,03616.23889,E,1,15,0.80,254.20,M,,M,,*4D
$GPRMC,084755.840,A,5559.76253,N,03616.23913,E,88.93,5.00,210424,,,*17
$GPGGA,084755.840,5559.76253,N,03616.23913,E,1,15,0.80,254.20,M,,M,,*49
$GPRMC,084755.900,A,5559.76407,N,03616.23937,E,89.17,4.90,210424,,,*16
$GPGGA,084755.900,5559.76407,N,03616.23937,E,1,15,0.80,254.30,M,,M,,*4C
$GPRMC,084755.970,A,5559.76561,N,03616.23964,E,89.52,5.20,210424,,,*1D
$GPGGA,084755.970,5559.76561,N,03616.23964,E,1,15,0.70,254.20,M,,M,,*42
$GPRMC,084756.030,A,5559.76716,N,03616.23988,E,89.88,5.10,210424,,,*17
$GPGGA,084756.030,5559.76716,N,03616.23988,E,1,15,0.70,254.20,M,,M,,*4C
$GPRMC,084756.090,A,5559.76871,N,03616.24013,E,90.01,5.10,210424,,,*16
$GPGGA,084756.090,5559.76871,N,03616.24013,E,1,15,0.70,254.30,M,,M,,*45
$GPRMC,084756.150,A,5559.77027,N,03616.24036,E,90.32,5.00,210424,,,*17
$GPGGA,084756.150,5559.77027,N,03616.24036,E,1,15,0.70,254.30,M,,M,,*45
$GPRMC,084756.210,A,5559.77182,N,03616.24060,E,90.53,4.90,210424,,,*12
$GPGGA,084756.210,5559.77182,N,03616.24060,E,1,15,0.70,254.30,M,,M,,*4F
$GPRMC,084756.280,A,5559.77339,N,03616.24085,E,90.83,5.00,210424,,,*17
$GPGGA,084756.280,5559.77339,N,03616.24085,E,1,15,0.70,254.30,M,,M,,*4F
$GPRMC,084756.340,A,5559.77496,N,03616.24109,E,91.14,4.90,210424,,,*1A
$GPGGA,084756.340,5559.77496,N,03616.24109,E,1,15,0.70,254.30,M,,M,,*45
$GPRMC,084756.400,A,5559.77653,N,03616.24133,E,91.35,4.90,210424,,,*18
$GPGGA,084756.400,5559.77653,N,03616.24133,E,1,15,0.70,254.30,M,,M,,*44
$GPRMC,084756.460,A,5559.77811,N,03616.24156,E,91.69,4.80,210424,,,*1D
$GPGGA,084756.460,5559.77811,N,03616.24156,E,1,15,0.70,254.40,M,,M,,*4E
$GPRMC,084756.520,A,5559.77969,N,03616.24181,E,91.98,4.90,210424,,,*13
$GPGGA,084756.520,5559.77969,N,03616.24181,E,1,15,0.70,254.30,M,,M,,*48
$GPRMC,084756.590,A,5559.78128,N,03616.24205,E,92.38,4.80,210424,,,*1D
$GPGGA,084756.590,5559.78128,N,03616.24205,E,1,15,0.70,254.30,M,,M,,*4E
$GPRMC,084756.650,A,5559.78288,N,03616.24228,E,92.68,4.70,210424,,,*1E
$GPGGA,084756.650,5559.78288,N,03616.24228,E,1,15,0.70,254.30,M,,M,,*47
$GPRMC,084756.710,A,5559.78448,N,03616.24253,E,92.86,4.80,210424,,,*12
$GPGGA,084756.710,5559.78448,N,03616.24253,E,1,15,0.70,254.30,M,,M,,*44
$GPRMC,084756.770,A,5559.78608,N,03616.24277,E,93.14,4.80,210424,,,*1E
$GPGGA,084756.770,5559.78608,N,03616.24277,E,1,15,0.70,254.30,M,,M,,*42
$GPRMC,084756.830,A,5559.78769,N,03616.24300,E,93.44,4.70,210424,,,*18
$GPGGA,084756.830,5559.78769,N,03616.24300,E,1,15,0.70,254.30,M,,M,,*4E
$GPRMC,084756.900,A,5559.78931,N,03616.24324,E,93.71,4.60,210424,,,*18
$GPGGA,084756.900,5559.78931,N,03616.24324,E,1,15,0.70,254.40,M,,M,,*4E
$GPRMC,084756.960,A,5559.79092,N,03616.24347,E,93.78,4.60,210424,,,*13
$GPGGA,084756.960,5559.79092,N,03616.24347,E,1,15,0.70,254.40,M,,M,,*4C
$GPRMC,084757.020,A,5559.79253,N,03616.24370,E,93.96,4.60,210424,,,*14
$GPGGA,084757.020,5559.79253,N,03616.24370,E,1,15,0.70,254.40,M,,M,,*4B
$GPRMC,084757.080,A,5559.79416,N,03616.24394,E,94.37,4.60,210424,,,*1F
$GPGGA,084757.080,5559.79416,N,03616.24394,E,1,15,0.70,254.40,M,,M,,*4C
$GPRMC,084757.140,A,5559.79579,N,03616.24416,E,94.76,4.50,210424,,,*11
$GPGGA,084757.140,5559.79579,N,03616.24416,E,1,15,0.70,254.40,M,,M,,*44
$GPRMC,084757.210,A,5559.79742,N,03616.24439,E,94.88,4.50,210424,,,*11
$GPGGA,084757.210,5559.79742,N,03616.24439,E,1,15,0.70,254.40,M,,M,,*45
$GPRMC,084757.270,A,5559.79906,N,03616.24462,E,95.09,4.40,210424,,,*1E
$GPGGA,084757.270,5559.79906,N,03616.24462,E,1,15,0.70,254.40,M,,M,,*43
$GPRMC,084757.330,A,5559.80070,N,03616.24483,E,95.39,4.30,210424,,,*1E
$GPGGA,084757.330,5559.80070,N,03616.24483,E,1,15,0.70,254.40,M,,M,,*47
$GPRMC,084757.390,A,5559.80235,N,03616.24504,E,95.71,4.20,210424,,,*14
$GPGGA,084757.390,5559.80235,N,03616.24504,E,1,15,0.70,254.40,M,,M,,*40
$GPRMC,084757.450,A,5559.80400,N,03616.24525,E,95.89,4.20,210424,,,*1B
$GPGGA,084757.450,5559.80400,N,03616.24525,E,1,15,0.70,254.50,M,,M,,*49
$GPRMC,084757.520,A,5559.80565,N,03616.24546,E,96.12,4.10,210424,,,*18
$GPGGA,084757.520,5559.80565,N,03616.24546,E,1,15,0.70,254.50,M,,M,,*48
$GPRMC,084757.580,A,5559.80730,N,03616.24566,E,96.25,4.10,210424,,,*16
$GPGGA,084757.580,5559.80730,N,03616.24566,E,1,15,0.70,254.40,M,,M,,*43
$GPRMC,084757.640,A,5559.80894,N,03616.24585,E,95.97,3.90,210424,,,*10
$GPGGA,084757.640,5559.80894,N,03616.24585,E,1,15,0.70,254.40,M,,M,,*40
$GPRMC,084757.700,A,5559.81057,N,03616.24605,E,95.31,3.90,210424,,,*14
$GPGGA,084757.700,5559.81057,N,03616.24605,E,1,15,0.70,254.40,M,,M,,*48
$GPRMC,084757.760,A,5559.81215,N,03616.24622,E,93.81,3.80,210424,,,*1F
$GPGGA,084757.760,5559.81215,N,03616.24622,E,1,15,0.70,254.40,M,,M,,*4F
$GPRMC,084757.830,A,5559.81370,N,03616.24640,E,92.27,3.80,210424,,,*1E
$GPGGA,084757.830,5559.81370,N,03616.24640,E,1,15,0.70,254.40,M,,M,,*43
$GPRMC,084757.890,A,5559.81522,N,03616.24658,E,90.78,3.80,210424,,,*14
$GPGGA,084757.890,5559.81522,N,03616.24658,E,1,15,0.70,254.40,M,,M,,*41
$GPRMC,084757.950,A,5559.81672,N,03616.24674,E,89.24,3.70,210424,,,*1F
$GPGGA,084757.950,5559.81672,N,03616.24674,E,1,15,0.70,254.40,M,,M,,*44
$GPRMC,084758.010,A,5559.81821,N,03616.24691,E,88.12,3.80,210424,,,*15
$GPGGA,084758.010,5559.81821,N,03616.24691,E,1,15,0.70,254.40,M,,M,,*45
$GPRMC,084758.070,A,5559.81967,N,03616.24707,E,86.71,3.80,210424,,,*15
$GPGGA,084758.070,5559.81967,N,03616.24707,E,1,15,0.70,254.40,M,,M,,*4E
$GPRMC,084758.140,A,5559.82111,N,03616.24720,E,85.58,3.60,210424,,,*1E
$GPGGA,084758.140,5559.82111,N,03616.24720,E,1,15,0.70,254.40,M,,M,,*43
$GPRMC,084758.200,A,5559.82253,N,03616.24732,E,84.47,3.30,210424,,,*15
$GPGGA,084758.200,5559.82253,N,03616.24732,E,1,15,0.70,254.30,M,,M,,*45
$GPRMC,084758.260,A,5559.82393,N,03616.24743,E,83.26,3.10,210424,,,*1A
$GPGGA,084758.260,5559.82393,N,03616.24743,E,1,15,0.70,254.30,M,,M,,*48
$GPRMC,084758.320,A,5559.82530,N,03616.24752,E,81.62,2.90,210424,,,*1B
$GPGGA,084758.320,5559.82530,N,03616.24752,E,1,15,0.70,254.30,M,,M,,*42
$GPRMC,084758.380,A,5559.82664,N,03616.24760,E,80.20,2.60,210424,,,*1A
$GPGGA,084758.380,5559.82664,N,03616.24760,E,1,15,0.70,254.40,M,,M,,*4C
$GPRMC,084758.450,A,5559.82797,N,03616.24767,E,78.96,2.30,210424,,,*15
$GPGGA,084758.450,5559.82797,N,03616.24767,E,1,15,0.70,254.40,M,,M,,*4C
$GPRMC,084758.510,A,5559.82928,N,03616.24770,E,77.78,1.90,210424,,,*1A
$GPGGA,084758.510,5559.82928,N,03616.24770,E,1,15,0.70,254.40,M,,M,,*45
$GPRMC,084758.570,A,5559.83056,N,03616.24774,E,76.51,1.60,210424,,,*1C
$GPGGA,084758.570,5559.83056,N,03616.24774,E,1,15,0.70,254.40,M,,M,,*46
$GPRMC,084758.630,A,5559.83185,N,03616.24779,E,75.70,1.50,210424,,,*1A
$GPGGA,084758.630,5559.83185,N,03616.24779,E,1,15,0.70,254.30,M,,M,,*44
$GPRMC,084758.690,A,5559.83311,N,03616.24783,E,74.86,1.30,210424,,,*14
$GPGGA,084758.690,5559.83311,N,03616.24783,E,1,15,0.70,254.30,M,,M,,*44
$GPRMC,084758.760,A,5559.83437,N,03616.24783,E,74.17,0.80,210424,,,*1B
$GPGGA,084758.760,5559.83437,N,03616.24783,E,1,15,0.70,254.30,M,,M,,*49
$GPRMC,084758.820,A,5559.83562,N,03616.24784,E,73.44,0.50,210424,,,*1A
$GPGGA,084758.820,5559.83562,N,03616.24784,E,1,15,0.70,254.30,M,,M,,*44
$GPRMC,084758.880,A,5559.83686,N,03616.24783,E,72.70,0.20,210424,,,*1F
$GPGGA,084758.880,5559.83686,N,03616.24783,E,1,15,0.70,254.30,M,,M,,*40
$GPRMC,084758.940,A,5559.83807,N,03616.24780,E,71.84,359.80,210424,,,*1B
$GPGGA,084758.940,5559.83807,N,03616.24780,E,1,15,0.70,254.30,M,,M,,*49
$GPRMC,084759.000,A,5559.83927,N,03616.24775,E,70.83,359.40,210424,,,*14
$GPGGA,084759.000,5559.83927,N,03616.24775,E,1,15,0.70,254.30,M,,M,,*4C
$GPRMC,084759.070,A,5559.84046,N,03616.24771,E,69.99,359.10,210424,,,*18
$GPGGA,084759.070,5559.84046,N,03616.24771,E,1,15,0.70,254.30,M,,M,,*46
$GPRMC,084759.130,A,5559.84163,N,03616.24764,E,69.15,358.70,210424,,,*1C
$GPGGA,084759.130,5559.84163,N,03616.24764,E,1,15,0.70,254.20,M,,M,,*40
$GPRMC,084759.190,A,5559.84278,N,03616.24754,E,68.33,358.20,210424,,,*1C
$GPGGA,084759.190,5559.84278,N,03616.24754,E,1,15,0.70,254.20,M,,M,,*40
$GPRMC,084759.250,A,5559.84391,N,03616.24742,E,67.21,357.40,210424,,,*17
$GPGGA,084759.250,5559.84391,N,03616.24742,E,1,15,0.70,254.20,M,,M,,*4E
$GPRMC,084759.310,A,5559.84502,N,03616.24728,E,65.96,356.70,210424,,,*1E
$GPGGA,084759.310,5559.84502,N,03616.24728,E,1,15,0.70,254.20,M,,M,,*4B
$GPRMC,084759.380,A,5559.84611,N,03616.24710,E,65.06,355.80,210424,,,*18
$GPGGA,084759.380,5559.84611,N,03616.24710,E,1,15,0.70,254.20,M,,M,,*48
$GPRMC,084759.440,A,5559.84719,N,03616.24689,E,64.25,354.90,210424,,,*1B
$GPGGA,084759.440,5559.84719,N,03616.24689,E,1,15,0.70,254.10,M,,M,,*48
$GPRMC,084759.500,A,5559.84827,N,03616.24667,E,63.73,354.20,210424,,,*13
$GPGGA,084759.500,5559.84827,N,03616.24667,E,1,15,0.70,254.10,M,,M,,*4F
$GPRMC,084759.560,A,5559.84934,N,03616.24641,E,63.42,353.10,210424,,,*14
$GPGGA,084759.560,5559.84934,N,03616.24641,E,1,15,0.70,254.10,M,,M,,*4E
$GPRMC,084759.620,A,5559.85037,N,03616.24610,E,62.41,352.00,210424,,,*1E
$GPGGA,084759.620,5559.85037,N,03616.24610,E,1,15,0.70,254.00,M,,M,,*47
$GPRMC,084759.690,A,5559.85140,N,03616.24577,E,61.54,350.90,210424,,,*1A
$GPGGA,084759.690,5559.85140,N,03616.24577,E,1,15,0.70,254.00,M,,M,,*4F
$GPRMC,084759.750,A,5559.85241,N,03616.24541,E,60.70,349.90,210424,,,*1F
$GPGGA,084759.750,5559.85241,N,03616.24541,E,1,15,0.70,254.10,M,,M,,*44
$GPRMC,084759.810,A,5559.85342,N,03616.24502,E,60.36,348.90,210424,,,*12
$GPGGA,084759.810,5559.85342,N,03616.24502,E,1,15,0.70,254.10,M,,M,,*4A
$GPRMC,084759.870,A,5559.85443,N,03616.24458,E,60.26,347.70,210424,,,*1C
$GPGGA,084759.870,5559.85443,N,03616.24458,E,1,15,0.70,254.10,M,,M,,*44
$GPRMC,084759.930,A,5559.85542,N,03616.24412,E,60.00,346.70,210424,,,*12
$GPGGA,084759.930,5559.85542,N,03616.24412,E,1,15,0.70,254.00,M,,M,,*4E
$GPRMC,084800.000,A,5559.85640,N,03616.24363,E,59.70,345.60,210424,,,*14
$GPGGA,084800.000,5559.85640,N,03616.24363,E,1,15,0.70,254.00,M,,M,,*47
$GPRMC,084800.060,A,5559.85738,N,03616.24307,E,59.59,344.20,210424,,,*10
$GPGGA,084800.060,5559.85738,N,03616.24307,E,1,15,0.70,254.10,M,,M,,*4C
$GPRMC,084800.120,A,5559.85833,N,03616.24247,E,59.29,342.70,210424,,,*10
$GPGGA,084800.120,5559.85833,N,03616.24247,E,1,15,0.70,254.00,M,,M,,*49
$GPRMC,084800.180,A,5559.85929,N,03616.24185,E,59.25,341.40,210424,,,*11
$GPGGA,084800.180,5559.85929,N,03616.24185,E,1,15,0.70,254.00,M,,M,,*44
$GPRMC,084800.240,A,5559.86023,N,03616.24119,E,59.22,340.20,210424,,,*1B
$GPGGA,084800.240,5559.86023,N,03616.24119,E,1,15,0.70,254.00,M,,M,,*4E
$GPRMC,084800.310,A,5559.86118,N,03616.24049,E,59.36,339.00,210424,,,*1B
$GPGGA,084800.310,5559.86118,N,03616.24049,E,1,15,0.70,254.00,M,,M,,*47
$GPRMC,084800.370,A,5559.86212,N,03616.23978,E,59.50,338.10,210424,,,*18
$GPGGA,084800.370,5559.86212,N,03616.23978,E,1,15,0.70,254.00,M,,M,,*44
$GPRMC,084800.430,A,5559.86304,N,03616.23902,E,59.50,336.80,210424,,,*17
$GPGGA,084800.430,5559.86304,N,03616.23902,E,1,15,0.70,254.00,M,,M,,*4C
$GPRMC,084800.490,A,5559.86396,N,03616.23823,E,59.58,335.70,210424,,,*10
$GPGGA,084800.490,5559.86396,N,03616.23823,E,1,15,0.70,254.00,M,,M,,*4F
$GPRMC,084800.550,A,5559.86485,N,03616.23741,E,59.13,334.50,210424,,,*1F
$GPGGA,084800.550,5559.86485,N,03616.23741,E,1,15,0.70,254.00,M,,M,,*4C
$GPRMC,084800.620,A,5559.86574,N,03616.23656,E,59.01,333.30,210424,,,*11
$GPGGA,084800.620,5559.86574,N,03616.23656,E,1,15,0.70,253.90,M,,M,,*4E
$GPRMC,084800.680,A,5559.86663,N,03616.23565,E,59.31,332.20,210424,,,*1E
$GPGGA,084800.680,5559.86663,N,03616.23565,E,1,15,0.70,253.90,M,,M,,*42
$GPRMC,084800.740,A,5559.86751,N,03616.23467,E,59.52,330.60,210424,,,*13
$GPGGA,084800.740,5559.86751,N,03616.23467,E,1,15,0.70,254.00,M,,M,,*42
$GPRMC,084800.800,A,5559.86838,N,03616.23366,E,59.85,329.30,210424,,,*19
$GPGGA,084800.800,5559.86838,N,03616.23366,E,1,15,0.70,254.00,M,,M,,*4F
$GPRMC,084800.860,A,5559.86926,N,03616.23264,E,60.13,328.40,210424,,,*11
$GPGGA,084800.860,5559.86926,N,03616.23264,E,1,15,0.70,254.00,M,,M,,*44
$GPRMC,084800.930,A,5559.87012,N,03616.23156,E,60.71,327.20,210424,,,*15
$GPGGA,084800.930,5559.87012,N,03616.23156,E,1,15,0.70,254.00,M,,M,,*4D
$GPRMC,084800.990,A,5559.87099,N,03616.23045,E,61.28,326.30,210424,,,*12
$GPGGA,084800.990,5559.87099,N,03616.23045,E,1,15,0.70,253.90,M,,M,,*49
$GPRMC,084801.050,A,5559.87183,N,03616.22928,E,61.68,324.90,210424,,,*13
$GPGGA,084801.050,5559.87183,N,03616.22928,E,1,15,0.70,253.90,M,,M,,*44
$GPRMC,084801.110,A,5559.87264,N,03616.22806,E,61.67,323.20,210424,,,*12
$GPGGA,084801.110,5559.87264,N,03616.22806,E,1,15,0.70,253.90,M,,M,,*46
$GPRMC,084801.170,A,5559.87343,N,03616.22681,E,61.60,321.60,210424,,,*10
$GPGGA,084801.170,5559.87343,N,03616.22681,E,1,15,0.70,253.90,M,,M,,*45
$GPRMC,084801.240,A,5559.87421,N,03616.22551,E,61.97,320.00,210424,,,*12
$GPGGA,084801.240,5559.87421,N,03616.22551,E,1,15,0.70,253.90,M,,M,,*48
$GPRMC,084801.300,A,5559.87500,N,03616.22419,E,62.22,318.70,210424,,,*19
$GPGGA,084801.300,5559.87500,N,03616.22419,E,1,15,0.70,253.90,M,,M,,*42
$GPRMC,084801.360,A,5559.87578,N,03616.22283,E,62.76,317.60,210424,,,*1A
$GPGGA,084801.360,5559.87578,N,03616.22283,E,1,15,0.70,253.90,M,,M,,*4E
$GPRMC,084801.420,A,5559.87655,N,03616.22145,E,62.95,316.60,210424,,,*10
$GPGGA,084801.420,5559.87655,N,03616.22145,E,1,15,0.70,253.90,M,,M,,*48
$GPRMC,084801.480,A,5559.87731,N,03616.22005,E,63.10,315.60,210424,,,*13
$GPGGA,084801.480,5559.87731,N,03616.22005,E,1,15,0.70,253.90,M,,M,,*44
$GPRMC,084801.550,A,5559.87806,N,03616.21858,E,63.61,314.40,210424,,,*12
$GPGGA,084801.550,5559.87806,N,03616.21858,E,1,15,0.60,254.00,M,,M,,*4F
$GPRMC,084801.610,A,5559.87880,N,03616.21707,E,64.31,313.30,210424,,,*1C
$GPGGA,084801.610,5559.87880,N,03616.21707,E,1,15,0.60,254.00,M,,M,,*43
$GPRMC,084801.670,A,5559.87954,N,03616.21553,E,65.00,312.30,210424,,,*13
$GPGGA,084801.670,5559.87954,N,03616.21553,E,1,15,0.60,254.00,M,,M,,*4E
$GPRMC,084801.730,A,5559.88027,N,03616.21397,E,65.38,311.30,210424,,,*12
$GPGGA,084801.730,5559.88027,N,03616.21397,E,1,15,0.60,254.10,M,,M,,*46
$GPRMC,084801.790,A,5559.88098,N,03616.21237,E,65.79,310.30,210424,,,*13
$GPGGA,084801.790,5559.88098,N,03616.21237,E,1,15,0.70,254.20,M,,M,,*41
$GPRMC,084801.860,A,5559.88169,N,03616.21076,E,66.17,309.40,210424,,,*1F
$GPGGA,084801.860,5559.88169,N,03616.21076,E,1,15,0.60,254.20,M,,M,,*48
$GPRMC,084801.920,A,5559.88240,N,03616.20912,E,66.58,308.60,210424,,,*10
$GPGGA,084801.920,5559.88240,N,03616.20912,E,1,15,0.60,254.30,M,,M,,*4E
$GPRMC,084801.980,A,5559.88310,N,03616.20747,E,66.94,308.00,210424,,,*16
$GPGGA,084801.980,5559.88310,N,03616.20747,E,1,15,0.60,254.30,M,,M,,*4E
$GPRMC,084802.040,A,5559.88379,N,03616.20579,E,67.27,307.20,210424,,,*14
$GPGGA,084802.040,5559.88379,N,03616.20579,E,1,15,0.60,254.40,M,,M,,*4F
$GPRMC,084802.100,A,5559.88447,N,03616.20408,E,67.90,306.50,210424,,,*16
$GPGGA,084802.100,5559.88447,N,03616.20408,E,1,15,0.70,254.40,M,,M,,*46
$GPRMC,084802.170,A,5559.88513,N,03616.20232,E,68.27,305.40,210424,,,*1F
$GPGGA,084802.170,5559.88513,N,03616.20232,E,1,15,0.60,254.50,M,,M,,*4E
$GPRMC,084802.230,A,5559.88579,N,03616.20056,E,68.46,304.60,210424,,,*10
$GPGGA,084802.230,5559.88579,N,03616.20056,E,1,15,0.60,254.50,M,,M,,*45
$GPRMC,084802.290,A,5559.88640,N,03616.19874,E,68.92,303.40,210424,,,*1D
$GPGGA,084802.290,5559.88640,N,03616.19874,E,1,15,0.60,254.50,M,,M,,*44
$GPRMC,084802.350,A,5559.88703,N,03616.19690,E,69.52,302.70,210424,,,*1D
$GPGGA,084802.350,5559.88703,N,03616.19690,E,1,15,0.60,254.50,M,,M,,*4B
$GPRMC,084802.410,A,5559.88766,N,03616.19505,E,69.99,302.00,210424,,,*12
$GPGGA,084802.410,5559.88766,N,03616.19505,E,1,15,0.60,254.60,M,,M,,*47
$GPRMC,084802.480,A,5559.88827,N,03616.19319,E,70.16,301.30,210424,,,*15
$GPGGA,084802.480,5559.88827,N,03616.19319,E,1,15,0.60,254.60,M,,M,,*4F
$GPRMC,084802.540,A,5559.88888,N,03616.19131,E,70.39,300.70,210424,,,*1D
$GPGGA,084802.540,5559.88888,N,03616.19131,E,1,15,0.60,254.60,M,,M,,*4F
$GPRMC,084802.600,A,5559.88950,N,03616.18939,E,71.07,300.30,210424,,,*17
$GPGGA,084802.600,5559.88950,N,03616.18939,E,1,15,0.60,254.70,M,,M,,*4C
$GPRMC,084802.660,A,5559.89011,N,03616.18747,E,71.55,299.90,210424,,,*17
$GPGGA,084802.660,5559.89011,N,03616.18747,E,1,15,0.60,254.70,M,,M,,*40
$GPRMC,084802.720,A,5559.89071,N,03616.18552,E,72.01,299.60,210424,,,*1F
$GPGGA,084802.720,5559.89071,N,03616.18552,E,1,15,0.60,254.70,M,,M,,*45
$GPRMC,084802.790,A,5559.89132,N,03616.18356,E,72.34,299.10,210424,,,*11
$GPGGA,084802.790,5559.89132,N,03616.18356,E,1,15,0.60,254.80,M,,M,,*45
$GPRMC,084802.850,A,5559.89191,N,03616.18160,E,72.53,298.70,210424,,,*1A
$GPGGA,084802.850,5559.89191,N,03616.18160,E,1,15,0.60,254.80,M,,M,,*48
$GPRMC,084802.910,A,5559.89250,N,03616.17962,E,72.80,298.50,210424,,,*18
$GPGGA,084802.910,5559.89250,N,03616.17962,E,1,15,0.60,254.80,M,,M,,*46
$GPRMC,084802.970,A,5559.89309,N,03616.17764,E,72.88,298.20,210424,,,*14
$GPGGA,084802.970,5559.89309,N,03616.17764,E,1,15,0.60,254.80,M,,M,,*45
$GPRMC,084803.030,A,5559.89367,N,03616.17567,E,72.65,298.00,210424,,,*10
$GPGGA,084803.030,5559.89367,N,03616.17567,E,1,15,0.60,254.80,M,,M,,*40
$GPRMC,084803.100,A,5559.89426,N,03616.17369,E,72.78,297.80,210424,,,*13
$GPGGA,084803.100,5559.89426,N,03616.17369,E,1,15,0.60,254.90,M,,M,,*49
$GPRMC,084803.160,A,5559.89485,N,03616.17168,E,73.27,297.70,210424,,,*1B
$GPGGA,084803.160,5559.89485,N,03616.17168,E,1,15,0.60,254.90,M,,M,,*45
$GPRMC,084803.220,A,5559.89544,N,03616.16965,E,73.87,297.60,210424,,,*1F
$GPGGA,084803.220,5559.89544,N,03616.16965,E,1,15,0.60,254.90,M,,M,,*4A
$GPRMC,084803.280,A,5559.89604,N,03616.16762,E,74.21,297.60,210424,,,*10
$GPGGA,084803.280,5559.89604,N,03616.16762,E,1,15,0.60,254.90,M,,M,,*4E
$GPRMC,084803.340,A,5559.89663,N,03616.16558,E,74.55,297.40,210424,,,*16
$GPGGA,084803.340,5559.89663,N,03616.16558,E,1,15,0.60,254.90,M,,M,,*49
$GPRMC,084803.410,A,5559.89722,N,03616.16352,E,74.93,297.20,210424,,,*10
$GPGGA,084803.410,5559.89722,N,03616.16352,E,1,15,0.60,255.00,M,,M,,*4B
$GPRMC,084803.470,A,5559.89782,N,03616.16146,E,75.29,297.20,210424,,,*1B
$GPGGA,084803.470,5559.89782,N,03616.16146,E,1,15,0.60,255.00,M,,M,,*40
$GPRMC,084803.530,A,5559.89842,N,03616.15940,E,75.40,297.20,210424,,,*1F
$GPGGA,084803.530,5559.89842,N,03616.15940,E,1,15,0.60,255.00,M,,M,,*4B
$GPRMC,084803.590,A,5559.89901,N,03616.15732,E,75.66,297.00,210424,,,*1E
$GPGGA,084803.590,5559.89901,N,03616.15732,E,1,15,0.60,255.10,M,,M,,*4D
$GPRMC,084803.650,A,5559.89961,N,03616.15523,E,76.10,296.90,210424,,,*1F
$GPGGA,084803.650,5559.89961,N,03616.15523,E,1,15,0.60,255.10,M,,M,,*46
$GPRMC,084803.720,A,5559.90021,N,03616.15312,E,76.37,296.80,210424,,,*1C
$GPGGA,084803.720,5559.90021,N,03616.15312,E,1,15,0.60,255.10,M,,M,,*41
$GPRMC,084803.780,A,5559.90080,N,03616.15101,E,76.59,296.50,210424,,,*18
$GPGGA,084803.780,5559.90080,N,03616.15101,E,1,15,0.60,255.10,M,,M,,*40
$GPRMC,084803.840,A,5559.90138,N,03616.14890,E,76.73,296.30,210424,,,*17
$GPGGA,084803.840,5559.90138,N,03616.14890,E,1,15,0.60,255.20,M,,M,,*42
$GPRMC,084803.900,A,5559.90198,N,03616.14676,E,77.14,296.20,210424,,,*1F
$GPGGA,084803.900,5559.90198,N,03616.14676,E,1,15,0.60,255.20,M,,M,,*4B
$GPRMC,084803.960,A,5559.90256,N,03616.14461,E,77.50,296.10,210424,,,*1F
$GPGGA,084803.960,5559.90256,N,03616.14461,E,1,15,0.60,255.20,M,,M,,*48
$GPRMC,084804.030,A,5559.90314,N,03616.14246,E,77.70,295.90,210424,,,*19
$GPGGA,084804.030,5559.90314,N,03616.14246,E,1,15,0.60,255.20,M,,M,,*47
$GPRMC,084804.090,A,5559.90371,N,03616.14030,E,77.76,295.60,210424,,,*1A
$GPGGA,084804.090,5559.90371,N,03616.14030,E,1,15,0.60,255.20,M,,M,,*4D
$GPRMC,084804.150,A,5559.90427,N,03616.13815,E,77.47,295.30,210424,,,*1C
$GPGGA,084804.150,5559.90427,N,03616.13815,E,1,15,0.60,255.30,M,,M,,*4D
$GPRMC,084804.210,A,5559.90483,N,03616.13602,E,76.85,295.10,210424,,,*10
$GPGGA,084804.210,5559.90483,N,03616.13602,E,1,15,0.60,255.30,M,,M,,*4C
$GPRMC,084804.270,A,5559.90535,N,03616.13394,E,75.62,294.60,210424,,,*1C
$GPGGA,084804.270,5559.90535,N,03616.13394,E,1,15,0.60,255.30,M,,M,,*4C
$GPRMC,084804.340,A,5559.90586,N,03616.13187,E,74.48,294.20,210424,,,*1B
$GPGGA,084804.340,5559.90586,N,03616.13187,E,1,15,0.60,255.30,M,,M,,*46
$GPRMC,084804.400,A,5559.90635,N,03616.12982,E,73.56,293.80,210424,,,*1A
$GPGGA,084804.400,5559.90635,N,03616.12982,E,1,15,0.60,255.30,M,,M,,*42
$GPRMC,084804.460,A,5559.90684,N,03616.12782,E,72.38,293.60,210424,,,*1F
$GPGGA,084804.460,5559.90684,N,03616.12782,E,1,15,0.60,255.30,M,,M,,*40
$GPRMC,084804.520,A,5559.90731,N,03616.12582,E,71.50,293.20,210424,,,*1E
$GPGGA,084804.520,5559.90731,N,03616.12582,E,1,15,0.60,255.40,M,,M,,*4F
$GPRMC,084804.580,A,5559.90776,N,03616.12384,E,70.50,292.70,210424,,,*12
$GPGGA,084804.580,5559.90776,N,03616.12384,E,1,15,0.60,255.40,M,,M,,*46
$GPRMC,084804.650,A,5559.90818,N,03616.12193,E,68.81,292.10,210424,,,*1C
$GPGGA,084804.650,5559.90818,N,03616.12193,E,1,15,0.60,255.40,M,,M,,*4B
$GPRMC,084804.710,A,5559.90858,N,03616.12001,E,67.83,291.50,210424,,,*1D
$GPGGA,084804.710,5559.90858,N,03616.12001,E,1,15,0.60,255.40,M,,M,,*40
$GPRMC,084804.770,A,5559.90896,N,03616.11811,E,66.85,290.90,210424,,,*19
$GPGGA,084804.770,5559.90896,N,03616.11811,E,1,15,0.60,255.30,M,,M,,*49
$GPRMC,084804.830,A,5559.90933,N,03616.11624,E,65.76,290.40,210424,,,*16
$GPGGA,084804.830,5559.90933,N,03616.11624,E,1,15,0.60,255.30,M,,M,,*44
$GPRMC,084804.890,A,5559.90969,N,03616.11439,E,64.85,289.90,210424,,,*15
$GPGGA,084804.890,5559.90969,N,03616.11439,E,1,15,0.60,255.40,M,,M,,*48
$GPRMC,084804.960,A,5559.91001,N,03616.11258,E,63.50,289.00,210424,,,*1A
$GPGGA,084804.960,5559.91001,N,03616.11258,E,1,15,0.60,255.30,M,,M,,*46
$GPRMC,084805.020,A,5559.91031,N,03616.11081,E,61.98,288.30,210424,,,*17
$GPGGA,084805.020,5559.91031,N,03616.11081,E,1,15,0.60,255.30,M,,M,,*4F
$GPRMC,084805.080,A,5559.91060,N,03616.10907,E,60.67,287.70,210424,,,*15
$GPGGA,084805.080,5559.91060,N,03616.10907,E,1,15,0.60,255.30,M,,M,,*47
$GPRMC,084805.140,A,5559.91087,N,03616.10733,E,59.76,286.80,210424,,,*1C
$GPGGA,084805.140,5559.91087,N,03616.10733,E,1,15,0.60,255.30,M,,M,,*4A
$GPRMC,084805.200,A,5559.91112,N,03616.10561,E,58.80,285.90,210424,,,*19
$GPGGA,084805.200,5559.91112,N,03616.10561,E,1,15,0.60,255.30,M,,M,,*45
$GPRMC,084805.270,A,5559.91135,N,03616.10391,E,57.94,284.90,210424,,,*19
$GPGGA,084805.270,5559.91135,N,03616.10391,E,1,15,0.60,255.30,M,,M,,*4E
$GPRMC,084805.330,A,5559.91157,N,03616.10223,E,57.13,284.20,210424,,,*14
$GPGGA,084805.330,5559.91157,N,03616.10223,E,1,15,0.60,255.30,M,,M,,*47
$GPRMC,084805.390,A,5559.91176,N,03616.10055,E,56.45,283.10,210424,,,*18
$GPGGA,084805.390,5559.91176,N,03616.10055,E,1,15,0.60,255.20,M,,M,,*4C
$GPRMC,084805.450,A,5559.91193,N,03616.09891,E,55.56,282.30,210424,,,*12
$GPGGA,084805.450,5559.91193,N,03616.09891,E,1,15,0.60,255.20,M,,M,,*44
$GPRMC,084805.510,A,5559.91208,N,03616.09726,E,55.06,281.20,210424,,,*12
$GPGGA,084805.510,5559.91208,N,03616.09726,E,1,15,0.60,255.10,M,,M,,*40
$GPRMC,084805.580,A,5559.91220,N,03616.09562,E,54.45,279.60,210424,,,*16
$GPGGA,084805.580,5559.91220,N,03616.09562,E,1,15,0.60,255.10,M,,M,,*41
$GPRMC,084805.640,A,5559.91230,N,03616.09402,E,53.53,278.20,210424,,,*1A
$GPGGA,084805.640,5559.91230,N,03616.09402,E,1,15,0.60,255.10,M,,M,,*48
$GPRMC,084805.700,A,5559.91237,N,03616.09242,E,52.81,276.90,210424,,,*11
$GPGGA,084805.700,5559.91237,N,03616.09242,E,1,15,0.60,255.00,M,,M,,*49
$GPRMC,084805.760,A,5559.91242,N,03616.09084,E,52.34,275.70,210424,,,*1E
$GPGGA,084805.760,5559.91242,N,03616.09084,E,1,15,0.60,255.00,M,,M,,*45
$GPRMC,084805.820,A,5559.91246,N,03616.08927,E,51.68,274.60,210424,,,*1A
$GPGGA,084805.820,5559.91246,N,03616.08927,E,1,15,0.60,255.00,M,,M,,*4B
$GPRMC,084805.890,A,5559.91246,N,03616.08772,E,51.13,272.60,210424,,,*15
$GPGGA,084805.890,5559.91246,N,03616.08772,E,1,15,0.60,255.00,M,,M,,*4E
$GPRMC,084805.950,A,5559.91244,N,03616.08620,E,50.37,271.10,210424,,,*1F
$GPGGA,084805.950,5559.91244,N,03616.08620,E,1,15,0.60,254.90,M,,M,,*4F
$GPRMC,084806.010,A,5559.91240,N,03616.08470,E,49.73,269.70,210424,,,*15
$GPGGA,084806.010,5559.91240,N,03616.08470,E,1,15,0.60,254.90,M,,M,,*42
$GPRMC,084806.070,A,5559.91235,N,03616.08323,E,48.87,268.50,210424,,,*19
$GPGGA,084806.070,5559.91235,N,03616.08323,E,1,15,0.60,254.90,M,,M,,*47
$GPRMC,084806.130,A,5559.91230,N,03616.08177,E,48.24,267.60,210424,,,*1F
$GPGGA,084806.130,5559.91230,N,03616.08177,E,1,15,0.60,254.90,M,,M,,*44
$GPRMC,084806.200,A,5559.91220,N,03616.08034,E,47.52,265.90,210424,,,*1B
$GPGGA,084806.200,5559.91220,N,03616.08034,E,1,15,0.60,254.90,M,,M,,*43
$GPRMC,084806.260,A,5559.91209,N,03616.07896,E,46.56,264.30,210424,,,*17
$GPGGA,084806.260,5559.91209,N,03616.07896,E,1,15,0.60,254.90,M,,M,,*41
$GPRMC,084806.320,A,5559.91195,N,03616.07758,E,46.05,262.70,210424,,,*1D
$GPGGA,084806.320,5559.91195,N,03616.07758,E,1,15,0.60,254.80,M,,M,,*4E
$GPRMC,084806.380,A,5559.91176,N,03616.07623,E,45.43,260.40,210424,,,*17
$GPGGA,084806.380,5559.91176,N,03616.07623,E,1,15,0.60,254.80,M,,M,,*44
$GPRMC,084806.440,A,5559.91157,N,03616.07489,E,45.05,258.50,210424,,,*15
$GPGGA,084806.440,5559.91157,N,03616.07489,E,1,15,0.60,254.70,M,,M,,*41
$GPRMC,084806.510,A,5559.91135,N,03616.07356,E,44.96,256.40,210424,,,*14
$GPGGA,084806.510,5559.91135,N,03616.07356,E,1,15,0.60,254.70,M,,M,,*44
$GPRMC,084806.570,A,5559.91111,N,03616.07224,E,44.72,254.60,210424,,,*1A
$GPGGA,084806.570,5559.91111,N,03616.07224,E,1,15,0.60,254.60,M,,M,,*41
$GPRMC,084806.630,A,5559.91086,N,03616.07094,E,44.63,252.90,210424,,,*12
$GPGGA,084806.630,5559.91086,N,03616.07094,E,1,15,0.60,254.60,M,,M,,*40
$GPRMC,084806.690,A,5559.91060,N,03616.06966,E,44.62,251.70,210424,,,*19
$GPGGA,084806.690,5559.91060,N,03616.06966,E,1,15,0.60,254.60,M,,M,,*47
$GPRMC,084806.750,A,5559.91034,N,03616.06840,E,44.29,250.70,210424,,,*1E
$GPGGA,084806.750,5559.91034,N,03616.06840,E,1,15,0.60,254.60,M,,M,,*4E
$GPRMC,084806.820,A,5559.91004,N,03616.06714,E,44.33,249.30,210424,,,*1C
$GPGGA,084806.820,5559.91004,N,03616.06714,E,1,15,0.60,254.60,M,,M,,*4B
$GPRMC,084806.880,A,5559.90973,N,03616.06590,E,44.25,248.00,210424,,,*15
$GPGGA,084806.880,5559.90973,N,03616.06590,E,1,15,0.60,254.60,M,,M,,*47
$GPRMC,084806.940,A,5559.90940,N,03616.06468,E,44.10,246.60,210424,,,*10
$GPGGA,084806.940,5559.90940,N,03616.06468,E,1,15,0.60,254.60,M,,M,,*4C
$GPRMC,084807.000,A,5559.90903,N,03616.06351,E,43.78,244.40,210424,,,*1F
$GPGGA,084807.000,5559.90903,N,03616.06351,E,1,15,0.70,254.60,M,,M,,*4B
$GPRMC,084807.060,A,5559.90864,N,03616.06236,E,43.72,242.40,210424,,,*15
$GPGGA,084807.060,5559.90864,N,03616.06236,E,1,15,0.70,254.50,M,,M,,*4E
$GPRMC,084807.130,A,5559.90822,N,03616.06125,E,43.58,240.10,210424,,,*1D
$GPGGA,084807.130,5559.90822,N,03616.06125,E,1,15,0.60,254.50,M,,M,,*48
$GPRMC,084807.190,A,5559.90778,N,03616.06016,E,43.54,237.90,210424,,,*12
$GPGGA,084807.190,5559.90778,N,03616.06016,E,1,15,0.60,254.50,M,,M,,*43
$GPRMC,084807.250,A,5559.90733,N,03616.05907,E,43.65,236.20,210424,,,*10
$GPGGA,084807.250,5559.90733,N,03616.05907,E,1,15,0.60,254.50,M,,M,,*49
$GPRMC,084807.310,A,5559.90686,N,03616.05802,E,43.53,234.50,210424,,,*1E
$GPGGA,084807.310,5559.90686,N,03616.05802,E,1,15,0.60,254.40,M,,M,,*46
$GPRMC,084807.370,A,5559.90637,N,03616.05701,E,43.37,232.40,210424,,,*1B
$GPGGA,084807.370,5559.90637,N,03616.05701,E,1,15,0.60,254.40,M,,M,,*46
$GPRMC,084807.440,A,5559.90587,N,03616.05603,E,43.17,230.40,210424,,,*14
$GPGGA,084807.440,5559.90587,N,03616.05603,E,1,15,0.60,254.30,M,,M,,*4E
$GPRMC,084807.500,A,5559.90533,N,03616.05507,E,43.38,228.30,210424,,,*1A
$GPGGA,084807.500,5559.90533,N,03616.05507,E,1,15,0.60,254.20,M,,M,,*42
$GPRMC,084807.560,A,5559.90478,N,03616.05413,E,43.54,226.40,210424,,,*15
$GPGGA,084807.560,5559.90478,N,03616.05413,E,1,15,0.60,254.20,M,,M,,*4E
$GPRMC,084807.620,A,5559.90422,N,03616.05320,E,43.62,225.00,210424,,,*18
$GPGGA,084807.620,5559.90422,N,03616.05320,E,1,15,0.60,254.10,M,,M,,*42
$GPRMC,084807.680,A,5559.90363,N,03616.05230,E,44.06,223.10,210424,,,*12
$GPGGA,084807.680,5559.90363,N,03616.05230,E,1,15,0.60,254.00,M,,M,,*4B
$GPRMC,084807.750,A,5559.90301,N,03616.05142,E,44.82,220.80,210424,,,*1A
$GPGGA,084807.750,5559.90301,N,03616.05142,E,1,15,0.60,254.00,M,,M,,*45
$GPRMC,084807.810,A,5559.90237,N,03616.05057,E,45.29,219.00,210424,,,*12
$GPGGA,084807.810,5559.90237,N,03616.05057,E,1,15,0.60,254.00,M,,M,,*4F
$GPRMC,084807.870,A,5559.90172,N,03616.04976,E,45.49,217.10,210424,,,*14
$GPGGA,084807.870,5559.90172,N,03616.04976,E,1,15,0.60,253.90,M,,M,,*4E
$GPRMC,084807.930,A,5559.90107,N,03616.04895,E,45.70,215.90,210424,,,*1F
$GPGGA,084807.930,5559.90107,N,03616.04895,E,1,15,0.60,253.90,M,,M,,*45
$GPRMC,084807.990,A,5559.90039,N,03616.04817,E,46.13,214.40,210424,,,*19
$GPGGA,084807.990,5559.90039,N,03616.04817,E,1,15,0.60,253.80,M,,M,,*48
$GPRMC,084808.060,A,5559.89968,N,03616.04743,E,46.85,212.40,210424,,,*12
$GPGGA,084808.060,5559.89968,N,03616.04743,E,1,15,0.60,253.70,M,,M,,*45
$GPRMC,084808.120,A,5559.89896,N,03616.04670,E,47.10,211.20,210424,,,*1E
$GPGGA,084808.120,5559.89896,N,03616.04670,E,1,15,0.70,253.60,M,,M,,*41
$GPRMC,084808.180,A,5559.89824,N,03616.04600,E,47.18,210.10,210424,,,*10
$GPGGA,084808.180,5559.89824,N,03616.04600,E,1,15,0.60,253.60,M,,M,,*44
$GPRMC,084808.240,A,5559.89750,N,03616.04532,E,47.46,208.70,210424,,,*15
$GPGGA,084808.240,5559.89750,N,03616.04532,E,1,15,0.60,253.50,M,,M,,*46
$GPRMC,084808.300,A,5559.89673,N,03616.04468,E,48.03,207.10,210424,,,*19
$GPGGA,084808.300,5559.89673,N,03616.04468,E,1,15,0.60,253.40,M,,M,,*4C
$GPRMC,084808.370,A,5559.89595,N,03616.04406,E,48.48,205.80,210424,,,*19
$GPGGA,084808.370,5559.89595,N,03616.04406,E,1,15,0.60,253.40,M,,M,,*48
$GPRMC,084808.430,A,5559.89513,N,03616.04347,E,49.23,204.20,210424,,,*11
$GPGGA,084808.430,5559.89513,N,03616.04347,E,1,15,0.60,253.30,M,,M,,*40
$GPRMC,084808.490,A,5559.89428,N,03616.04292,E,50.26,202.50,210424,,,*17
$GPGGA,084808.490,5559.89428,N,03616.04292,E,1,15,0.60,253.20,M,,M,,*4B
$GPRMC,084808.550,A,5559.89342,N,03616.04240,E,51.01,200.90,210424,,,*14
$GPGGA,084808.550,5559.89342,N,03616.04240,E,1,15,0.70,253.20,M,,M,,*43
$GPRMC,084808.610,A,5559.89256,N,03616.04190,E,51.59,199.70,210424,,,*19
$GPGGA,084808.610,5559.89256,N,03616.04190,E,1,15,0.60,253.20,M,,M,,*4F
$GPRMC,084808.680,A,5559.89166,N,03616.04145,E,52.39,198.10,210424,,,*1A
$GPGGA,084808.680,5559.89166,N,03616.04145,E,1,15,0.60,253.20,M,,M,,*4E
$GPRMC,084808.740,A,5559.89075,N,03616.04103,E,53.21,196.40,210424,,,*15
$GPGGA,084808.740,5559.89075,N,03616.04103,E,1,15,0.60,253.10,M,,M,,*41
$GPRMC,084808.800,A,5559.88984,N,03616.04063,E,53.60,195.10,210424,,,*1C
$GPGGA,084808.800,5559.88984,N,03616.04063,E,1,15,0.60,253.10,M,,M,,*4B
$GPRMC,084808.860,A,5559.88891,N,03616.04026,E,54.22,193.80,210424,,,*10
$GPGGA,084808.860,5559.88891,N,03616.04026,E,1,15,0.60,253.10,M,,M,,*49
$GPRMC,084808.920,A,5559.88797,N,03616.03993,E,55.02,192.30,210424,,,*15
$GPGGA,084808.920,5559.88797,N,03616.03993,E,1,15,0.70,253.10,M,,M,,*44
$GPRMC,084808.990,A,5559.88703,N,03616.03961,E,55.23,191.50,210424,,,*18
$GPGGA,084808.990,5559.88703,N,03616.03961,E,1,15,0.70,253.00,M,,M,,*4E
$GPRMC,084809.050,A,5559.88609,N,03616.03933,E,55.29,190.40,210424,,,*1A
$GPGGA,084809.050,5559.88609,N,03616.03933,E,1,15,0.70,253.00,M,,M,,*46
$GPRMC,084809.110,A,5559.88515,N,03616.03908,E,55.26,189.40,210424,,,*1E
$GPGGA,084809.110,5559.88515,N,03616.03908,E,1,15,0.70,253.00,M,,M,,*45
$GPRMC,084809.170,A,5559.88422,N,03616.03884,E,55.27,188.60,210424,,,*1A
$GPGGA,084809.170,5559.88422,N,03616.03884,E,1,15,0.70,253.10,M,,M,,*42
$GPRMC,084809.230,A,5559.88328,N,03616.03862,E,55.41,188.20,210424,,,*1C
$GPGGA,084809.230,5559.88328,N,03616.03862,E,1,15,0.70,253.10,M,,M,,*40
$GPRMC,084809.300,A,5559.88231,N,03616.03843,E,55.80,187.30,210424,,,*17
$GPGGA,084809.300,5559.88231,N,03616.03843,E,1,15,0.70,253.10,M,,M,,*48
$GPRMC,084809.360,A,5559.88133,N,03616.03828,E,56.50,186.30,210424,,,*12
$GPGGA,084809.360,5559.88133,N,03616.03828,E,1,15,0.70,253.10,M,,M,,*42
$GPRMC,084809.420,A,5559.88031,N,03616.03819,E,57.43,184.70,210424,,,*15
$GPGGA,084809.420,5559.88031,N,03616.03819,E,1,15,0.70,253.10,M,,M,,*40
$GPRMC,084809.480,A,5559.87930,N,03616.03812,E,57.96,183.60,210424,,,*1D
$GPGGA,084809.480,5559.87930,N,03616.03812,E,1,15,0.70,253.10,M,,M,,*46
$GPRMC,084809.540,A,5559.87828,N,03616.03809,E,58.45,182.40,210424,,,*10
$GPGGA,084809.540,5559.87828,N,03616.03809,E,1,15,0.70,253.10,M,,M,,*49
$GPRMC,084809.610,A,5559.87725,N,03616.03811,E,59.11,181.00,210424,,,*1A
$GPGGA,084809.610,5559.87725,N,03616.03811,E,1,15,0.70,253.10,M,,M,,*44
$GPRMC,084809.670,A,5559.87621,N,03616.03814,E,59.59,180.00,210424,,,*11
$GPGGA,084809.670,5559.87621,N,03616.03814,E,1,15,0.70,253.10,M,,M,,*42
$GPRMC,084809.730,A,5559.87517,N,03616.03818,E,59.88,179.30,210424,,,*17
$GPGGA,084809.730,5559.87517,N,03616.03818,E,1,15,0.70,253.00,M,,M,,*4C
$GPRMC,084809.790,A,5559.87413,N,03616.03826,E,60.27,178.40,210424,,,*1C
$GPGGA,084809.790,5559.87413,N,03616.03826,E,1,15,0.70,253.00,M,,M,,*4E
$GPRMC,084809.850,A,5559.87307,N,03616.03837,E,60.86,177.50,210424,,,*18
$GPGGA,084809.850,5559.87307,N,03616.03837,E,1,15,0.70,252.90,M,,M,,*47
$GPRMC,084809.920,A,5559.87201,N,03616.03855,E,61.21,175.90,210424,,,*1F
$GPGGA,084809.920,5559.87201,N,03616.03855,E,1,15,0.70,253.00,M,,M,,*4A
$GPRMC,084809.980,A,5559.87095,N,03616.03872,E,61.63,175.30,210424,,,*13
$GPGGA,084809.980,5559.87095,N,03616.03872,E,1,15,0.70,252.90,M,,M,,*42
$GPRMC,084810.040,A,5559.86988,N,03616.03892,E,61.91,174.50,210424,,,*1E
$GPGGA,084810.040,5559.86988,N,03616.03892,E,1,15,0.70,252.90,M,,M,,*45
$GPRMC,084810.100,A,5559.86881,N,03616.03914,E,62.43,173.80,210424,,,*1A
$GPGGA,084810.100,5559.86881,N,03616.03914,E,1,15,0.70,252.90,M,,M,,*47
$GPRMC,084810.160,A,5559.86772,N,03616.03939,E,63.17,173.20,210424,,,*1A
$GPGGA,084810.160,5559.86772,N,03616.03939,E,1,15,0.70,252.90,M,,M,,*4D
$GPRMC,084810.230,A,5559.86663,N,03616.03965,E,63.50,172.60,210424,,,*12
$GPGGA,084810.230,5559.86663,N,03616.03965,E,1,15,0.70,252.80,M,,M,,*42
$GPRMC,084810.290,A,5559.86554,N,03616.03993,E,64.00,172.10,210424,,,*13
$GPGGA,084810.290,5559.86554,N,03616.03993,E,1,15,0.70,252.80,M,,M,,*46
$GPRMC,084810.350,A,5559.86444,N,03616.04023,E,64.51,171.60,210424,,,*1B
$GPGGA,084810.350,5559.86444,N,03616.04023,E,1,15,0.70,252.80,M,,M,,*4E
$GPRMC,084810.410,A,5559.86333,N,03616.04055,E,64.91,171.20,210424,,,*16
$GPGGA,084810.410,5559.86333,N,03616.04055,E,1,15,0.70,252.80,M,,M,,*4B
$GPRMC,084810.470,A,5559.86221,N,03616.04088,E,65.38,170.70,210424,,,*14
$GPGGA,084810.470,5559.86221,N,03616.04088,E,1,15,0.70,252.70,M,,M,,*40
$GPRMC,084810.540,A,5559.86109,N,03616.04123,E,65.84,170.30,210424,,,*1C
$GPGGA,084810.540,5559.86109,N,03616.04123,E,1,15,0.70,252.70,M,,M,,*4B
$GPRMC,084810.600,A,5559.85997,N,03616.04159,E,66.22,170.10,210424,,,*17
$GPGGA,084810.600,5559.85997,N,03616.04159,E,1,15,0.70,252.70,M,,M,,*4D
$GPRMC,084810.660,A,5559.85883,N,03616.04196,E,66.81,169.90,210424,,,*1F
$GPGGA,084810.660,5559.85883,N,03616.04196,E,1,15,0.70,252.70,M,,M,,*4C
$GPRMC,084810.720,A,5559.85769,N,03616.04235,E,67.28,169.60,210424,,,*16
$GPGGA,084810.720,5559.85769,N,03616.04235,E,1,15,0.70,252.70,M,,M,,*48
$GPRMC,084810.780,A,5559.85654,N,03616.04274,E,67.71,169.40,210424,,,*18
$GPGGA,084810.780,5559.85654,N,03616.04274,E,1,15,0.70,252.70,M,,M,,*48
$GPRMC,084810.850,A,5559.85539,N,03616.04314,E,68.14,169.20,210424,,,*1F
$GPGGA,084810.850,5559.85539,N,03616.04314,E,1,15,0.70,252.70,M,,M,,*45
$GPRMC,084810.910,A,5559.85422,N,03616.04355,E,68.60,169.10,210424,,,*14
$GPGGA,084810.910,5559.85422,N,03616.04355,E,1,15,0.70,252.60,M,,M,,*4F
$GPRMC,084810.970,A,5559.85305,N,03616.04396,E,69.14,169.10,210424,,,*1D
$GPGGA,084810.970,5559.85305,N,03616.04396,E,1,15,0.70,252.60,M,,M,,*44
$GPRMC,084811.030,A,5559.85187,N,03616.04436,E,69.61,169.00,210424,,,*17
$GPGGA,084811.030,5559.85187,N,03616.04436,E,1,15,0.70,252.60,M,,M,,*4D
$GPRMC,084811.090,A,5559.85068,N,03616.04477,E,70.02,169.10,210424,,,*14
$GPGGA,084811.090,5559.85068,N,03616.04477,E,1,15,0.70,252.60,M,,M,,*42
$GPRMC,084811.160,A,5559.84948,N,03616.04516,E,70.51,169.40,210424,,,*15
$GPGGA,084811.160,5559.84948,N,03616.04516,E,1,15,0.70,252.50,M,,M,,*43
$GPRMC,084811.220,A,5559.84827,N,03616.04554,E,71.12,169.80,210424,,,*16
$GPGGA,084811.220,5559.84827,N,03616.04554,E,1,15,0.70,252.50,M,,M,,*4A
$GPRMC,084811.280,A,5559.84706,N,03616.04590,E,71.33,170.20,210424,,,*19
$GPGGA,084811.280,5559.84706,N,03616.04590,E,1,15,0.70,252.50,M,,M,,*44
$GPRMC,084811.340,A,5559.84583,N,03616.04625,E,71.74,170.60,210424,,,*11
$GPGGA,084811.340,5559.84583,N,03616.04625,E,1,15,0.70,252.40,M,,M,,*4A
$GPRMC,084811.400,A,5559.84460,N,03616.04657,E,72.27,171.20,210424,,,*1B
$GPGGA,084811.400,5559.84460,N,03616.04657,E,1,15,0.70,252.40,M,,M,,*40
$GPRMC,084811.470,A,5559.84335,N,03616.04687,E,72.66,171.80,210424,,,*19
$GPGGA,084811.470,5559.84335,N,03616.04687,E,1,15,0.70,252.30,M,,M,,*4A
$GPRMC,084811.530,A,5559.84210,N,03616.04714,E,73.00,172.50,210424,,,*1E
$GPGGA,084811.530,5559.84210,N,03616.04714,E,1,15,0.70,252.30,M,,M,,*42
$GPRMC,084811.590,A,5559.84085,N,03616.04739,E,73.27,173.10,210424,,,*15
$GPGGA,084811.590,5559.84085,N,03616.04739,E,1,15,0.70,252.20,M,,M,,*48
$GPRMC,084811.650,A,5559.83958,N,03616.04761,E,73.74,173.80,210424,,,*16
$GPGGA,084811.650,5559.83958,N,03616.04761,E,1,15,0.70,252.20,M,,M,,*44
$GPRMC,084811.710,A,5559.83830,N,03616.04781,E,74.32,174.40,210424,,,*1C
$GPGGA,084811.710,5559.83830,N,03616.04781,E,1,15,0.70,252.20,M,,M,,*40
$GPRMC,084811.780,A,5559.83702,N,03616.04798,E,74.80,175.30,210424,,,*1C
$GPGGA,084811.780,5559.83702,N,03616.04798,E,1,15,0.70,252.20,M,,M,,*4F
$GPRMC,084811.840,A,5559.83573,N,03616.04810,E,75.01,176.20,210424,,,*1E
$GPGGA,084811.840,5559.83573,N,03616.04810,E,1,15,0.70,252.10,M,,M,,*44
$GPRMC,084811.900,A,5559.83443,N,03616.04821,E,75.37,176.80,210424,,,*14
$GPGGA,084811.900,5559.83443,N,03616.04821,E,1,15,0.70,252.10,M,,M,,*41
$GPRMC,084811.960,A,5559.83313,N,03616.04828,E,75.76,177.60,210424,,,*13
$GPGGA,084811.960,5559.83313,N,03616.04828,E,1,15,0.70,252.00,M,,M,,*4D
$GPRMC,084812.020,A,5559.83182,N,03616.04831,E,75.99,178.40,210424,,,*13
$GPGGA,084812.020,5559.83182,N,03616.04831,E,1,15,0.70,252.00,M,,M,,*41
$GPRMC,084812.090,A,5559.83050,N,03616.04830,E,76.51,179.30,210424,,,*16
$GPGGA,084812.090,5559.83050,N,03616.04830,E,1,15,0.70,251.90,M,,M,,*4F
$GPRMC,084812.150,A,5559.82918,N,03616.04827,E,76.95,180.10,210424,,,*15
$GPGGA,084812.150,5559.82918,N,03616.04827,E,1,15,0.70,251.90,M,,M,,*40
$GPRMC,084812.210,A,5559.82785,N,03616.04821,E,77.27,180.90,210424,,,*1E
$GPGGA,084812.210,5559.82785,N,03616.04821,E,1,15,0.70,251.90,M,,M,,*4B
$GPRMC,084812.270,A,5559.82651,N,03616.04812,E,77.74,181.60,210424,,,*18
$GPGGA,084812.270,5559.82651,N,03616.04812,E,1,15,0.70,251.90,M,,M,,*45
$GPRMC,084812.330,A,5559.82517,N,03616.04799,E,78.12,182.40,210424,,,*1E
$GPGGA,084812.330,5559.82517,N,03616.04799,E,1,15,0.70,251.80,M,,M,,*4C
$GPRMC,084812.400,A,5559.82382,N,03616.04782,E,78.53,183.20,210424,,,*18
$GPGGA,084812.400,5559.82382,N,03616.04782,E,1,15,0.70,251.80,M,,M,,*48
$GPRMC,084812.460,A,5559.82247,N,03616.04763,E,78.89,183.80,210424,,,*14
$GPGGA,084812.460,5559.82247,N,03616.04763,E,1,15,0.70,251.80,M,,M,,*49
$GPRMC,084812.520,A,5559.82112,N,03616.04740,E,79.09,184.70,210424,,,*12
$GPGGA,084812.520,5559.82112,N,03616.04740,E,1,15,0.70,251.70,M,,M,,*41
$GPRMC,084812.580,A,5559.81976,N,03616.04712,E,79.44,185.60,210424,,,*1F
$GPGGA,084812.580,5559.81976,N,03616.04712,E,1,15,0.70,251.70,M,,M,,*45
$GPRMC,084812.640,A,5559.81840,N,03616.04682,E,79.75,186.40,210424,,,*1F
$GPGGA,084812.640,5559.81840,N,03616.04682,E,1,15,0.70,251.60,M,,M,,*47
$GPRMC,084812.710,A,5559.81703,N,03616.04648,E,80.23,187.20,210424,,,*17
$GPGGA,084812.710,5559.81703,N,03616.04648,E,1,15,0.70,251.60,M,,M,,*4D
$GPRMC,084812.770,A,5559.81566,N,03616.04610,E,80.56,187.90,210424,,,*14
$GPGGA,084812.770,5559.81566,N,03616.04610,E,1,15,0.70,251.50,M,,M,,*44
$GPRMC,084812.830,A,5559.81430,N,03616.04570,E,80.73,188.60,210424,,,*1F
$GPGGA,084812.830,5559.81430,N,03616.04570,E,1,15,0.70,251.50,M,,M,,*48
$GPRMC,084812.890,A,5559.81293,N,03616.04526,E,80.97,189.40,210424,,,*10
$GPGGA,084812.890,5559.81293,N,03616.04526,E,1,15,0.70,251.40,M,,M,,*4F
$GPRMC,084812.950,A,5559.81157,N,03616.04478,E,80.72,190.20,210424,,,*19
$GPGGA,084812.950,5559.81157,N,03616.04478,E,1,15,0.70,251.40,M,,M,,*43
$GPRMC,084813.020,A,5559.81023,N,03616.04428,E,80.34,190.90,210424,,,*18
$GPGGA,084813.020,5559.81023,N,03616.04428,E,1,15,0.70,251.30,M,,M,,*4C
$GPRMC,084813.080,A,5559.80891,N,03616.04377,E,79.79,191.50,210424,,,*1D
$GPGGA,084813.080,5559.80891,N,03616.04377,E,1,15,0.70,251.30,M,,M,,*4B
$GPRMC,084813.140,A,5559.80761,N,03616.04321,E,78.89,192.30,210424,,,*18
$GPGGA,084813.140,5559.80761,N,03616.04321,E,1,15,0.70,251.20,M,,M,,*44
$GPRMC,084813.200,A,5559.80633,N,03616.04262,E,77.85,193.20,210424,,,*1C
$GPGGA,084813.200,5559.80633,N,03616.04262,E,1,15,0.70,251.10,M,,M,,*40
$GPRMC,084813.260,A,5559.80507,N,03616.04201,E,76.95,193.90,210424,,,*10
$GPGGA,084813.260,5559.80507,N,03616.04201,E,1,15,0.70,251.00,M,,M,,*46
$GPRMC,084813.330,A,5559.80384,N,03616.04138,E,75.86,194.80,210424,,,*17
$GPGGA,084813.330,5559.80384,N,03616.04138,E,1,15,0.70,251.00,M,,M,,*46
$GPRMC,084813.390,A,5559.80262,N,03616.04072,E,75.00,195.70,210424,,,*1B
$GPGGA,084813.390,5559.80262,N,03616.04072,E,1,15,0.70,250.90,M,,M,,*42
$GPRMC,084813.450,A,5559.80142,N,03616.04004,E,74.32,196.60,210424,,,*12
$GPGGA,084813.450,5559.80142,N,03616.04004,E,1,15,0.70,250.80,M,,M,,*48
$GPRMC,084813.510,A,5559.80022,N,03616.03933,E,73.78,197.50,210424,,,*11
$GPGGA,084813.510,5559.80022,N,03616.03933,E,1,15,0.70,250.80,M,,M,,*40
$GPRMC,084813.570,A,5559.79904,N,03616.03859,E,73.26,198.40,210424,,,*14
$GPGGA,084813.570,5559.79904,N,03616.03859,E,1,15,0.70,250.70,M,,M,,*4F
$GPRMC,084813.640,A,5559.79787,N,03616.03784,E,72.58,199.20,210424,,,*11
$GPGGA,084813.640,5559.79787,N,03616.03784,E,1,15,0.70,250.60,M,,M,,*44
$GPRMC,084813.700,A,5559.79672,N,03616.03706,E,71.91,200.00,210424,,,*12
$GPGGA,084813.700,5559.79672,N,03616.03706,E,1,15,0.70,250.50,M,,M,,*43
$GPRMC,084813.760,A,5559.79559,N,03616.03624,E,71.40,201.10,210424,,,*13
$GPGGA,084813.760,5559.79559,N,03616.03624,E,1,15,0.70,250.40,M,,M,,*4F
$GPRMC,084813.820,A,5559.79447,N,03616.03539,E,71.11,202.10,210424,,,*1E
$GPGGA,084813.820,5559.79447,N,03616.03539,E,1,15,0.70,250.40,M,,M,,*45
$GPRMC,084813.880,A,5559.79336,N,03616.03452,E,70.72,203.00,210424,,,*1D
$GPGGA,084813.880,5559.79336,N,03616.03452,E,1,15,0.70,250.30,M,,M,,*45
$GPRMC,084813.950,A,5559.79226,N,03616.03363,E,70.33,203.80,210424,,,*19
$GPGGA,084813.950,5559.79226,N,03616.03363,E,1,15,0.70,250.20,M,,M,,*4D
$GPRMC,084814.010,A,5559.79119,N,03616.03270,E,69.94,204.90,210424,,,*1C
$GPGGA,084814.010,5559.79119,N,03616.03270,E,1,15,0.70,250.10,M,,M,,*48
$GPRMC,084814.070,A,5559.79014,N,03616.03175,E,69.28,206.00,210424,,,*1C
$GPGGA,084814.070,5559.79014,N,03616.03175,E,1,15,0.70,250.00,M,,M,,*45
$GPRMC,084814.130,A,5559.78911,N,03616.03078,E,68.58,206.90,210424,,,*17
$GPGGA,084814.130,5559.78911,N,03616.03078,E,1,15,0.70,250.00,M,,M,,*41
$GPRMC,084814.190,A,5559.78810,N,03616.02978,E,67.94,207.90,210424,,,*1B
$GPGGA,084814.190,5559.78810,N,03616.02978,E,1,15,0.70,249.90,M,,M,,*42
$GPRMC,084814.260,A,5559.78710,N,03616.02874,E,67.68,209.00,210424,,,*11
$GPGGA,084814.260,5559.78710,N,03616.02874,E,1,15,0.70,249.90,M,,M,,*4C
$GPRMC,084814.320,A,5559.78611,N,03616.02769,E,67.44,210.00,210424,,,*11
$GPGGA,084814.320,5559.78611,N,03616.02769,E,1,15,0.70,249.80,M,,M,,*4B
$GPRMC,084814.380,A,5559.78515,N,03616.02659,E,66.99,211.20,210424,,,*1C
$GPGGA,084814.380,5559.78515,N,03616.02659,E,1,15,0.70,249.70,M,,M,,*4B
$GPRMC,084814.440,A,5559.78421,N,03616.02547,E,66.52,212.60,210424,,,*1D
$GPGGA,084814.440,5559.78421,N,03616.02547,E,1,15,0.70,249.70,M,,M,,*4A
$GPRMC,084814.500,A,5559.78327,N,03616.02431,E,66.39,213.70,210424,,,*14
$GPGGA,084814.500,5559.78327,N,03616.02431,E,1,15,0.70,249.60,M,,M,,*4F
$GPRMC,084814.570,A,5559.78235,N,03616.02312,E,66.15,214.80,210424,,,*11
$GPGGA,084814.570,5559.78235,N,03616.02312,E,1,15,0.70,249.50,M,,M,,*4F
$GPRMC,084814.630,A,5559.78146,N,03616.02192,E,65.67,216.00,210424,,,*17
$GPGGA,084814.630,5559.78146,N,03616.02192,E,1,15,0.70,249.40,M,,M,,*44
$GPRMC,084814.690,A,5559.78059,N,03616.02069,E,65.17,217.10,210424,,,*10
$GPGGA,084814.690,5559.78059,N,03616.02069,E,1,15,0.70,249.40,M,,M,,*44
$GPRMC,084814.750,A,5559.77973,N,03616.01944,E,64.89,218.20,210424,,,*1C
$GPGGA,084814.750,5559.77973,N,03616.01944,E,1,15,0.70,249.30,M,,M,,*45
$GPRMC,084814.810,A,5559.77889,N,03616.01817,E,64.55,219.30,210424,,,*15
$GPGGA,084814.810,5559.77889,N,03616.01817,E,1,15,0.60,249.20,M,,M,,*4D
$GPRMC,084814.880,A,5559.77807,N,03616.01688,E,64.10,220.40,210424,,,*1E
$GPGGA,084814.880,5559.77807,N,03616.01688,E,1,15,0.60,249.20,M,,M,,*4A
$GPRMC,084814.940,A,5559.77726,N,03616.01558,E,63.62,221.50,210424,,,*13
$GPGGA,084814.940,5559.77726,N,03616.01558,E,1,15,0.60,249.10,M,,M,,*46
$GPRMC,084815.000,A,5559.77648,N,03616.01425,E,63.15,222.60,210424,,,*1D
$GPGGA,084815.000,5559.77648,N,03616.01425,E,1,15,0.60,249.00,M,,M,,*49
$GPRMC,084815.060,A,5559.77573,N,03616.01289,E,62.81,223.80,210424,,,*13
$GPGGA,084815.060,5559.77573,N,03616.01289,E,1,15,0.70,248.90,M,,M,,*4D
$GPRMC,084815.120,A,5559.77499,N,03616.01152,E,62.43,225.10,210424,,,*17
$GPGGA,084815.120,5559.77499,N,03616.01152,E,1,15,0.70,248.90,M,,M,,*48
$GPRMC,084815.190,A,5559.77427,N,03616.01013,E,62.15,225.90,210424,,,*16
$GPGGA,084815.190,5559.77427,N,03616.01013,E,1,15,0.70,248.80,M,,M,,*43
$GPRMC,084815.250,A,5559.77356,N,03616.00875,E,61.64,226.80,210424,,,*16
$GPGGA,084815.250,5559.77356,N,03616.00875,E,1,15,0.70,248.70,M,,M,,*4B
$GPRMC,084815.310,A,5559.77287,N,03616.00734,E,61.36,227.80,210424,,,*12
$GPGGA,084815.310,5559.77287,N,03616.00734,E,1,15,0.70,248.60,M,,M,,*48
$GPRMC,084815.370,A,5559.77222,N,03616.00591,E,60.93,229.30,210424,,,*1D
$GPGGA,084815.370,5559.77222,N,03616.00591,E,1,15,0.70,248.50,M,,M,,*4F
$GPRMC,084815.430,A,5559.77158,N,03616.00446,E,60.61,230.40,210424,,,*19
$GPGGA,084815.430,5559.77158,N,03616.00446,E,1,15,0.70,248.50,M,,M,,*49
$GPRMC,084815.500,A,5559.77095,N,03616.00300,E,60.25,231.50,210424,,,*1E
$GPGGA,084815.500,5559.77095,N,03616.00300,E,1,15,0.70,248.40,M,,M,,*4F
$GPRMC,084815.560,A,5559.77035,N,03616.00153,E,59.98,232.50,210424,,,*19
$GPGGA,084815.560,5559.77035,N,03616.00153,E,1,15,0.70,248.30,M,,M,,*40
$GPRMC,084815.620,A,5559.76977,N,03616.00005,E,59.66,233.70,210424,,,*10
$GPGGA,084815.620,5559.76977,N,03616.00005,E,1,15,0.70,248.30,M,,M,,*4B
$GPRMC,084815.680,A,5559.76921,N,03615.99854,E,59.49,234.90,210424,,,*12
$GPGGA,084815.680,5559.76921,N,03615.99854,E,1,15,0.70,248.20,M,,M,,*4C
$GPRMC,084815.740,A,5559.76867,N,03615.99703,E,59.24,235.90,210424,,,*1B
$GPGGA,084815.740,5559.76867,N,03615.99703,E,1,15,0.70,248.20,M,,M,,*4F
$GPRMC,084815.810,A,5559.76812,N,03615.99551,E,59.07,236.50,210424,,,*18
$GPGGA,084815.810,5559.76812,N,03615.99551,E,1,15,0.60,248.10,M,,M,,*40
$GPRMC,084815.870,A,5559.76760,N,03615.99399,E,58.85,237.10,210424,,,*18
$GPGGA,084815.870,5559.76760,N,03615.99399,E,1,15,0.60,248.00,M,,M,,*4F
$GPRMC,084815.930,A,5559.76709,N,03615.99247,E,58.51,237.90,210424,,,*11
$GPGGA,084815.930,5559.76709,N,03615.99247,E,1,15,0.60,248.00,M,,M,,*47
$GPRMC,084815.990,A,5559.76660,N,03615.99092,E,58.39,239.00,210424,,,*16
$GPGGA,084815.990,5559.76660,N,03615.99092,E,1,15,0.60,247.90,M,,M,,*4F
$GPRMC,084816.050,A,5559.76613,N,03615.98935,E,58.28,240.10,210424,,,*1E
$GPGGA,084816.050,5559.76613,N,03615.98935,E,1,15,0.60,247.90,M,,M,,*48
$GPRMC,084816.120,A,5559.76567,N,03615.98778,E,58.18,241.00,210424,,,*1C
$GPGGA,084816.120,5559.76567,N,03615.98778,E,1,15,0.60,247.80,M,,M,,*48
$GPRMC,084816.180,A,5559.76521,N,03615.98622,E,57.91,241.60,210424,,,*12
$GPGGA,084816.180,5559.76521,N,03615.98622,E,1,15,0.60,247.80,M,,M,,*4E
$GPRMC,084816.240,A,5559.76477,N,03615.98465,E,57.57,242.20,210424,,,*13
$GPGGA,084816.240,5559.76477,N,03615.98465,E,1,15,0.60,247.70,M,,M,,*4D
$GPRMC,084816.300,A,5559.76436,N,03615.98306,E,57.43,243.40,210424,,,*13
$GPGGA,084816.300,5559.76436,N,03615.98306,E,1,15,0.60,247.70,M,,M,,*4F
$GPRMC,084816.360,A,5559.76398,N,03615.98145,E,57.32,244.60,210424,,,*10
$GPGGA,084816.360,5559.76398,N,03615.98145,E,1,15,0.60,247.70,M,,M,,*4F
$GPRMC,084816.430,A,5559.76360,N,03615.97985,E,57.22,245.40,210424,,,*1C
$GPGGA,084816.430,5559.76360,N,03615.97985,E,1,15,0.60,247.60,M,,M,,*40
$GPRMC,084816.490,A,5559.76325,N,03615.97826,E,56.61,246.40,210424,,,*1A
