$GPRMC,084904.890,A,5559.66066,N,03616.22448,E,57.28,1.60,121024,,,*12
$GPGGA,084904.890,5559.66066,N,03616.22448,E,1,15,0.60,252.40,M,,M,,*47
$GPRMC,084904.950,A,5559.66166,N,03616.22453,E,57.59,1.60,121024,,,*12
$GPGGA,084904.950,5559.66166,N,03616.22453,E,1,15,0.60,252.40,M,,M,,*41
$GPRMC,084905.010,A,5559.66267,N,03616.22459,E,58.00,1.70,121024,,,*14
$GPGGA,084905.010,5559.66267,N,03616.22459,E,1,15,0.60,252.40,M,,M,,*45
$GPRMC,084905.080,A,5559.66368,N,03616.22465,E,58.32,1.80,121024,,,*12
$GPGGA,084905.080,5559.66368,N,03616.22465,E,1,15,0.60,252.30,M,,M,,*4A
$GPRMC,084905.140,A,5559.66470,N,03616.22470,E,58.67,1.70,121024,,,*1A
$GPGGA,084905.140,5559.66470,N,03616.22470,E,1,15,0.60,252.30,M,,M,,*4D
$GPRMC,084905.200,A,5559.66573,N,03616.22476,E,59.02,1.80,121024,,,*14
$GPGGA,084905.200,5559.66573,N,03616.22476,E,1,15,0.60,252.30,M,,M,,*4E
$GPRMC,084905.260,A,5559.66678,N,03616.22482,E,59.68,1.70,121024,,,*12
$GPGGA,084905.260,5559.66678,N,03616.22482,E,1,15,0.60,252.30,M,,M,,*4B
$GPRMC,084905.320,A,5559.66782,N,03616.22489,E,60.13,1.90,121024,,,*10
$GPGGA,084905.320,5559.66782,N,03616.22489,E,1,15,0.60,252.30,M,,M,,*41
$GPRMC,084905.390,A,5559.66887,N,03616.22495,E,60.42,1.90,121024,,,*18
$GPGGA,084905.390,5559.66887,N,03616.22495,E,1,15,0.60,252.30,M,,M,,*4D
$GPRMC,084905.450,A,5559.66992,N,03616.22503,E,60.61,2.10,121024,,,*12
$GPGGA,084905.450,5559.66992,N,03616.22503,E,1,15,0.60,252.30,M,,M,,*4D
$GPRMC,084905.510,A,5559.67098,N,03616.22511,E,61.03,2.20,121024,,,*10
$GPGGA,084905.510,5559.67098,N,03616.22511,E,1,15,0.60,252.30,M,,M,,*49
$GPRMC,084905.570,A,5559.67205,N,03616.22518,E,61.38,2.20,121024,,,*11
$GPGGA,084905.570,5559.67205,N,03616.22518,E,1,15,0.60,252.30,M,,M,,*40
$GPRMC,084905.630,A,5559.67312,N,03616.22527,E,61.83,2.40,121024,,,*1B
$GPGGA,084905.630,5559.67312,N,03616.22527,E,1,15,0.60,252.30,M,,M,,*4C
$GPRMC,084905.700,A,5559.67421,N,03616.22535,E,62.31,2.40,121024,,,*17
$GPGGA,084905.700,5559.67421,N,03616.22535,E,1,15,0.60,252.20,M,,M,,*4B
$GPRMC,084905.760,A,5559.67530,N,03616.22544,E,62.70,2.50,121024,,,*12
$GPGGA,084905.760,5559.67530,N,03616.22544,E,1,15,0.60,252.20,M,,M,,*4A
$GPRMC,084905.820,A,5559.67638,N,03616.22553,E,62.86,2.50,121024,,,*1D
$GPGGA,084905.820,5559.67638,N,03616.22553,E,1,15,0.60,252.20,M,,M,,*4C
$GPRMC,084905.880,A,5559.67747,N,03616.22563,E,63.13,2.60,121024,,,*13
$GPGGA,084905.880,5559.67747,N,03616.22563,E,1,15,0.60,252.20,M,,M,,*4C
$GPRMC,084905.940,A,5559.67857,N,03616.22572,E,63.43,2.60,121024,,,*15
$GPGGA,084905.940,5559.67857,N,03616.22572,E,1,15,0.60,252.20,M,,M,,*4F
$GPRMC,084906.010,A,5559.67968,N,03616.22583,E,63.77,2.70,121024,,,*1F
$GPGGA,084906.010,5559.67968,N,03616.22583,E,1,15,0.60,252.20,M,,M,,*43
$GPRMC,084906.070,A,5559.68078,N,03616.22593,E,63.89,2.80,121024,,,*11
$GPGGA,084906.070,5559.68078,N,03616.22593,E,1,15,0.60,252.20,M,,M,,*43
$GPRMC,084906.130,A,5559.68188,N,03616.22604,E,63.96,2.90,121024,,,*18
$GPGGA,084906.130,5559.68188,N,03616.22604,E,1,15,0.60,252.10,M,,M,,*46
$GPRMC,084906.190,A,5559.68300,N,03616.22614,E,64.21,2.90,121024,,,*1A
$GPGGA,084906.190,5559.68300,N,03616.22614,E,1,15,0.60,252.20,M,,M,,*4C
$GPRMC,084906.250,A,5559.68412,N,03616.22627,E,64.53,3.10,121024,,,*1D
$GPGGA,084906.250,5559.68412,N,03616.22627,E,1,15,0.60,252.20,M,,M,,*47
$GPRMC,084906.320,A,5559.68525,N,03616.22638,E,64.88,3.00,121024,,,*17
$GPGGA,084906.320,5559.68525,N,03616.22638,E,1,15,0.60,252.20,M,,M,,*4A
$GPRMC,084906.380,A,5559.68638,N,03616.22649,E,65.10,3.10,121024,,,*15
$GPGGA,084906.380,5559.68638,N,03616.22649,E,1,15,0.60,252.20,M,,M,,*49
$GPRMC,084906.440,A,5559.68752,N,03616.22661,E,65.42,3.10,121024,,,*1E
$GPGGA,084906.440,5559.68752,N,03616.22661,E,1,15,0.60,252.20,M,,M,,*45
$GPRMC,084906.500,A,5559.68867,N,03616.22675,E,65.74,3.20,121024,,,*11
$GPGGA,084906.500,5559.68867,N,03616.22675,E,1,15,0.60,252.20,M,,M,,*4C
$GPRMC,084906.560,A,5559.68982,N,03616.22687,E,65.99,3.20,121024,,,*13
$GPGGA,084906.560,5559.68982,N,03616.22687,E,1,15,0.60,252.20,M,,M,,*4D
$GPRMC,084906.630,A,5559.69098,N,03616.22699,E,66.34,3.30,121024,,,*1C
$GPGGA,084906.630,5559.69098,N,03616.22699,E,1,15,0.60,252.20,M,,M,,*47
$GPRMC,084906.690,A,5559.69213,N,03616.22713,E,66.46,3.40,121024,,,*16
$GPGGA,084906.690,5559.69213,N,03616.22713,E,1,15,0.60,252.20,M,,M,,*4F
$GPRMC,084906.750,A,5559.69329,N,03616.22730,E,66.70,3.90,121024,,,*1A
$GPGGA,084906.750,5559.69329,N,03616.22730,E,1,15,0.60,252.20,M,,M,,*4B
$GPRMC,084906.810,A,5559.69443,N,03616.22745,E,66.77,3.90,121024,,,*1F
$GPGGA,084906.810,5559.69443,N,03616.22745,E,1,15,0.60,252.10,M,,M,,*4A
$GPRMC,084906.870,A,5559.69560,N,03616.22758,E,67.06,3.70,121024,,,*1C
$GPGGA,084906.870,5559.69560,N,03616.22758,E,1,15,0.60,252.10,M,,M,,*40
$GPRMC,084906.940,A,5559.69677,N,03616.22772,E,67.32,3.70,121024,,,*14
$GPGGA,084906.940,5559.69677,N,03616.22772,E,1,15,0.60,252.10,M,,M,,*4F
$GPRMC,084907.000,A,5559.69795,N,03616.22786,E,67.65,3.70,121024,,,*1C
$GPGGA,084907.000,5559.69795,N,03616.22786,E,1,15,0.80,252.10,M,,M,,*4B
$GPRMC,084907.060,A,5559.69914,N,03616.22802,E,68.01,3.80,121024,,,*1C
$GPGGA,084907.060,5559.69914,N,03616.22802,E,1,15,0.80,252.20,M,,M,,*4A
$GPRMC,084907.120,A,5559.70032,N,03616.22816,E,68.09,3.70,121024,,,*1E
$GPGGA,084907.120,5559.70032,N,03616.22816,E,1,15,0.80,252.20,M,,M,,*4F
$GPRMC,084907.180,A,5559.70151,N,03616.22829,E,68.35,3.60,121024,,,*12
$GPGGA,084907.180,5559.70151,N,03616.22829,E,1,15,0.80,252.20,M,,M,,*4D
$GPRMC,084907.250,A,5559.70270,N,03616.22843,E,68.55,3.60,121024,,,*16
$GPGGA,084907.250,5559.70270,N,03616.22843,E,1,15,1.00,252.30,M,,M,,*47
$GPRMC,084907.310,A,5559.70390,N,03616.22857,E,68.76,3.60,121024,,,*18
$GPGGA,084907.310,5559.70390,N,03616.22857,E,1,15,1.00,252.30,M,,M,,*48
$GPRMC,084907.370,A,5559.70512,N,03616.22873,E,69.31,3.70,121024,,,*17
$GPGGA,084907.370,5559.70512,N,03616.22873,E,1,15,1.00,252.20,M,,M,,*45
$GPRMC,084907.430,A,5559.70631,N,03616.22889,E,69.33,3.90,121024,,,*1F
$GPGGA,084907.430,5559.70631,N,03616.22889,E,1,15,1.00,252.30,M,,M,,*40
$GPRMC,084907.490,A,5559.70749,N,03616.22903,E,69.12,3.90,121024,,,*1B
$GPGGA,084907.490,5559.70749,N,03616.22903,E,1,15,1.00,252.30,M,,M,,*47
$GPRMC,084907.560,A,5559.70868,N,03616.22918,E,69.14,3.90,121024,,,*15
$GPGGA,084907.560,5559.70868,N,03616.22918,E,1,15,1.00,252.40,M,,M,,*48
$GPRMC,084907.620,A,5559.70990,N,03616.22936,E,69.58,4.10,121024,,,*1F
$GPGGA,084907.620,5559.70990,N,03616.22936,E,1,15,1.00,252.30,M,,M,,*42
$GPRMC,084907.680,A,5559.71113,N,03616.22954,E,70.02,4.20,121024,,,*17
$GPGGA,084907.680,5559.71113,N,03616.22954,E,1,15,1.00,252.40,M,,M,,*49
$GPRMC,084907.740,A,5559.71236,N,03616.22971,E,70.44,4.10,121024,,,*18
$GPGGA,084907.740,5559.71236,N,03616.22971,E,1,15,0.80,252.40,M,,M,,*4E
$GPRMC,084907.800,A,5559.71360,N,03616.22989,E,70.92,4.20,121024,,,*1E
$GPGGA,084907.800,5559.71360,N,03616.22989,E,1,15,0.80,252.30,M,,M,,*47
$GPRMC,084907.870,A,5559.71485,N,03616.23007,E,71.41,4.30,121024,,,*15
$GPGGA,084907.870,5559.71485,N,03616.23007,E,1,15,0.80,252.30,M,,M,,*42
$GPRMC,084907.930,A,5559.71608,N,03616.23025,E,71.35,4.30,121024,,,*14
$GPGGA,084907.930,5559.71608,N,03616.23025,E,1,15,0.80,252.30,M,,M,,*40
$GPRMC,084907.990,A,5559.71732,N,03616.23043,E,71.67,4.40,121024,,,*16
$GPGGA,084907.990,5559.71732,N,03616.23043,E,1,15,0.80,252.30,M,,M,,*42
$GPRMC,084908.050,A,5559.71858,N,03616.23062,E,72.04,4.40,121024,,,*1A
$GPGGA,084908.050,5559.71858,N,03616.23062,E,1,15,0.80,252.30,M,,M,,*48
$GPRMC,084908.110,A,5559.71983,N,03616.23080,E,72.23,4.40,121024,,,*11
$GPGGA,084908.110,5559.71983,N,03616.23080,E,1,15,0.80,252.30,M,,M,,*46
$GPRMC,084908.180,A,5559.72107,N,03616.23097,E,72.25,4.40,121024,,,*1F
$GPGGA,084908.180,5559.72107,N,03616.23097,E,1,15,0.80,252.30,M,,M,,*4E
$GPRMC,084908.240,A,5559.72234,N,03616.23116,E,72.63,4.50,121024,,,*18
$GPGGA,084908.240,5559.72234,N,03616.23116,E,1,15,0.80,252.30,M,,M,,*4A
$GPRMC,084908.300,A,5559.72361,N,03616.23134,E,72.92,4.50,121024,,,*12
$GPGGA,084908.300,5559.72361,N,03616.23134,E,1,15,0.80,252.40,M,,M,,*49
$GPRMC,084908.360,A,5559.72488,N,03616.23153,E,73.26,4.50,121024,,,*1B
$GPGGA,084908.360,5559.72488,N,03616.23153,E,1,15,0.80,252.40,M,,M,,*4E
$GPRMC,084908.420,A,5559.72616,N,03616.23172,E,73.60,4.50,121024,,,*1C
$GPGGA,084908.420,5559.72616,N,03616.23172,E,1,15,0.80,252.40,M,,M,,*4B
$GPRMC,084908.490,A,5559.72745,N,03616.23190,E,73.96,4.40,121024,,,*14
$GPGGA,084908.490,5559.72745,N,03616.23190,E,1,15,0.80,252.40,M,,M,,*4B
$GPRMC,084908.550,A,5559.72874,N,03616.23207,E,74.24,4.40,121024,,,*17
$GPGGA,084908.550,5559.72874,N,03616.23207,E,1,15,0.80,252.40,M,,M,,*46
$GPRMC,084908.610,A,5559.73004,N,03616.23225,E,74.49,4.30,121024,,,*12
$GPGGA,084908.610,5559.73004,N,03616.23225,E,1,15,0.80,252.50,M,,M,,*4E
$GPRMC,084908.670,A,5559.73133,N,03616.23246,E,74.74,4.50,121024,,,*1C
$GPGGA,084908.670,5559.73133,N,03616.23246,E,1,15,0.80,252.40,M,,M,,*49
$GPRMC,084908.730,A,5559.73265,N,03616.23265,E,75.23,4.50,121024,,,*1B
$GPGGA,084908.730,5559.73265,N,03616.23265,E,1,15,0.80,252.50,M,,M,,*4C
$GPRMC,084908.800,A,5559.73396,N,03616.23284,E,75.42,4.50,121024,,,*12
$GPGGA,084908.800,5559.73396,N,03616.23284,E,1,15,0.80,252.50,M,,M,,*42
$GPRMC,084908.860,A,5559.73525,N,03616.23301,E,75.37,4.40,121024,,,*15
$GPGGA,084908.860,5559.73525,N,03616.23301,E,1,15,0.80,252.50,M,,M,,*46
$GPRMC,084908.920,A,5559.73656,N,03616.23319,E,75.64,4.40,121024,,,*18
$GPGGA,084908.920,5559.73656,N,03616.23319,E,1,15,0.80,252.50,M,,M,,*4D
$GPRMC,084908.980,A,5559.73789,N,03616.23336,E,76.08,4.30,121024,,,*12
$GPGGA,084908.980,5559.73789,N,03616.23336,E,1,15,0.80,252.60,M,,M,,*4A
$GPRMC,084909.040,A,5559.73921,N,03616.23355,E,76.26,4.40,121024,,,*14
$GPGGA,084909.040,5559.73921,N,03616.23355,E,1,15,0.80,252.60,M,,M,,*47
$GPRMC,084909.110,A,5559.74054,N,03616.23370,E,76.34,4.30,121024,,,*1F
$GPGGA,084909.110,5559.74054,N,03616.23370,E,1,15,0.80,252.80,M,,M,,*46
$GPRMC,084909.170,A,5559.74185,N,03616.23384,E,76.22,4.10,121024,,,*1A
$GPGGA,084909.170,5559.74185,N,03616.23384,E,1,15,0.80,253.00,M,,M,,*4F
$GPRMC,084909.230,A,5559.74319,N,03616.23399,E,76.40,4.00,121024,,,*13
$GPGGA,084909.230,5559.74319,N,03616.23399,E,1,15,0.80,253.20,M,,M,,*41
$GPRMC,084909.290,A,5559.74456,N,03616.23413,E,76.96,3.80,121024,,,*14
$GPGGA,084909.290,5559.74456,N,03616.23413,E,1,15,0.80,253.40,M,,M,,*44
$GPRMC,084909.350,A,5559.74592,N,03616.23433,E,77.55,4.20,121024,,,*11
$GPGGA,084909.350,5559.74592,N,03616.23433,E,1,15,0.80,253.40,M,,M,,*42
$GPRMC,084909.420,A,5559.74728,N,03616.23453,E,78.14,4.50,121024,,,*19
$GPGGA,084909.420,5559.74728,N,03616.23453,E,1,15,0.80,253.40,M,,M,,*47
$GPRMC,084909.480,A,5559.74865,N,03616.23474,E,78.62,4.70,121024,,,*13
$GPGGA,084909.480,5559.74865,N,03616.23474,E,1,15,0.80,253.40,M,,M,,*4E
$GPRMC,084909.540,A,5559.74999,N,03616.23496,E,78.61,4.90,121024,,,*1D
$GPGGA,084909.540,5559.74999,N,03616.23496,E,1,15,0.80,253.40,M,,M,,*4D
$GPRMC,084909.600,A,5559.75135,N,03616.23517,E,79.02,4.90,121024,,,*19
$GPGGA,084909.600,5559.75135,N,03616.23517,E,1,15,0.80,253.40,M,,M,,*4D
$GPRMC,084909.660,A,5559.75273,N,03616.23536,E,79.36,4.70,121024,,,*14
$GPGGA,084909.660,5559.75273,N,03616.23536,E,1,15,0.80,253.40,M,,M,,*49
$GPRMC,084909.730,A,5559.75411,N,03616.23556,E,79.75,4.80,121024,,,*1C
$GPGGA,084909.730,5559.75411,N,03616.23556,E,1,15,0.80,253.40,M,,M,,*49
$GPRMC,084909.790,A,5559.75549,N,03616.23577,E,79.82,4.80,121024,,,*11
$GPGGA,084909.790,5559.75549,N,03616.23577,E,1,15,0.80,253.50,M,,M,,*4D
$GPRMC,084909.850,A,5559.75686,N,03616.23598,E,79.83,4.90,121024,,,*13
$GPGGA,084909.850,5559.75686,N,03616.23598,E,1,15,0.80,253.50,M,,M,,*4F
$GPRMC,084909.910,A,5559.75825,N,03616.23618,E,80.02,4.80,121024,,,*14
$GPGGA,084909.910,5559.75825,N,03616.23618,E,1,15,0.80,253.60,M,,M,,*45
$GPRMC,084909.970,A,5559.75963,N,03616.23638,E,80.18,4.60,121024,,,*16
$GPGGA,084909.970,5559.75963,N,03616.23638,E,1,15,0.80,253.60,M,,M,,*42
$GPRMC,084910.040,A,5559.76104,N,03616.23659,E,80.61,4.80,121024,,,*19
$GPGGA,084910.040,5559.76104,N,03616.23659,E,1,15,0.80,253.70,M,,M,,*4C
$GPRMC,084910.100,A,5559.76245,N,03616.23680,E,81.04,4.80,121024,,,*1C
$GPGGA,084910.100,5559.76245,N,03616.23680,E,1,15,0.80,253.80,M,,M,,*44
$GPRMC,084910.160,A,5559.76385,N,03616.23700,E,81.24,4.70,121024,,,*13
$GPGGA,084910.160,5559.76385,N,03616.23700,E,1,15,0.80,253.80,M,,M,,*46
$GPRMC,084910.220,A,5559.76525,N,03616.23722,E,81.53,4.70,121024,,,*18
$GPGGA,084910.220,5559.76525,N,03616.23722,E,1,15,0.80,253.70,M,,M,,*42
$GPRMC,084910.280,A,5559.76666,N,03616.23742,E,81.65,4.70,121024,,,*15
$GPGGA,084910.280,5559.76666,N,03616.23742,E,1,15,0.80,253.70,M,,M,,*4A
$GPRMC,084910.350,A,5559.76806,N,03616.23763,E,81.77,4.60,121024,,,*10
$GPGGA,084910.350,5559.76806,N,03616.23763,E,1,15,0.80,253.70,M,,M,,*4D
$GPRMC,084910.410,A,5559.76948,N,03616.23784,E,82.04,4.70,121024,,,*17
$GPGGA,084910.410,5559.76948,N,03616.23784,E,1,15,0.80,253.80,M,,M,,*43
$GPRMC,084910.470,A,5559.77089,N,03616.23806,E,82.13,4.80,121024,,,*18
$GPGGA,084910.470,5559.77089,N,03616.23806,E,1,15,0.80,253.80,M,,M,,*45
$GPRMC,084910.530,A,5559.77234,N,03616.23828,E,82.62,4.80,121024,,,*13
$GPGGA,084910.530,5559.77234,N,03616.23828,E,1,15,0.80,253.90,M,,M,,*49
$GPRMC,084910.590,A,5559.77377,N,03616.23851,E,83.04,5.00,121024,,,*19
$GPGGA,084910.590,5559.77377,N,03616.23851,E,1,15,0.80,253.80,M,,M,,*4A
$GPRMC,084910.660,A,5559.77519,N,03616.23872,E,83.06,4.80,121024,,,*11
$GPGGA,084910.660,5559.77519,N,03616.23872,E,1,15,0.80,253.80,M,,M,,*49
$GPRMC,084910.720,A,5559.77663,N,03616.23893,E,83.25,4.70,121024,,,*1B
$GPGGA,084910.720,5559.77663,N,03616.23893,E,1,15,0.80,253.90,M,,M,,*4C
$GPRMC,084910.780,A,5559.77808,N,03616.23916,E,83.63,4.90,121024,,,*12
$GPGGA,084910.780,5559.77808,N,03616.23916,E,1,15,0.80,254.00,M,,M,,*47
$GPRMC,084910.840,A,5559.77953,N,03616.23938,E,83.86,4.90,121024,,,*19
$GPGGA,084910.840,5559.77953,N,03616.23938,E,1,15,0.80,254.00,M,,M,,*47
$GPRMC,084910.900,A,5559.78097,N,03616.23959,E,83.87,4.80,121024,,,*15
$GPGGA,084910.900,5559.78097,N,03616.23959,E,1,15,0.80,254.10,M,,M,,*4A
$GPRMC,084910.970,A,5559.78242,N,03616.23981,E,84.07,4.70,121024,,,*1D
$GPGGA,084910.970,5559.78242,N,03616.23981,E,1,15,0.90,254.10,M,,M,,*43
$GPRMC,084911.030,A,5559.78387,N,03616.24003,E,84.28,4.80,121024,,,*1F
$GPGGA,084911.030,5559.78387,N,03616.24003,E,1,15,0.90,254.10,M,,M,,*43
$GPRMC,084911.090,A,5559.78532,N,03616.24025,E,84.42,4.80,121024,,,*15
$GPGGA,084911.090,5559.78532,N,03616.24025,E,1,15,0.90,254.10,M,,M,,*45
$GPRMC,084911.150,A,5559.78678,N,03616.24047,E,84.70,4.80,121024,,,*10
$GPGGA,084911.150,5559.78678,N,03616.24047,E,1,15,0.90,254.20,M,,M,,*42
$GPRMC,084911.210,A,5559.78824,N,03616.24069,E,84.96,4.80,121024,,,*14
$GPGGA,084911.210,5559.78824,N,03616.24069,E,1,15,0.90,254.10,M,,M,,*4D
$GPRMC,084911.280,A,5559.78970,N,03616.24091,E,85.05,4.70,121024,,,*1E
$GPGGA,084911.280,5559.78970,N,03616.24091,E,1,15,0.90,254.20,M,,M,,*40
$GPRMC,084911.340,A,5559.79117,N,03616.24114,E,85.30,4.80,121024,,,*1E
$GPGGA,084911.340,5559.79117,N,03616.24114,E,1,15,0.90,254.20,M,,M,,*49
$GPRMC,084911.400,A,5559.79265,N,03616.24137,E,85.78,4.80,121024,,,*16
$GPGGA,084911.400,5559.79265,N,03616.24137,E,1,15,0.80,254.20,M,,M,,*4C
$GPRMC,084911.460,A,5559.79414,N,03616.24158,E,86.08,4.70,121024,,,*12
$GPGGA,084911.460,5559.79414,N,03616.24158,E,1,15,0.80,254.20,M,,M,,*43
$GPRMC,084911.520,A,5559.79561,N,03616.24181,E,85.95,4.80,121024,,,*18
$GPGGA,084911.520,5559.79561,N,03616.24181,E,1,15,0.80,254.20,M,,M,,*41
$GPRMC,084911.590,A,5559.79709,N,03616.24205,E,85.92,4.90,121024,,,*16
$GPGGA,084911.590,5559.79709,N,03616.24205,E,1,15,0.80,254.20,M,,M,,*49
$GPRMC,084911.650,A,5559.79856,N,03616.24227,E,86.03,4.80,121024,,,*16
$GPGGA,084911.650,5559.79856,N,03616.24227,E,1,15,0.80,254.20,M,,M,,*43
$GPRMC,084911.710,A,5559.80005,N,03616.24248,E,86.31,4.70,121024,,,*1C
$GPGGA,084911.710,5559.80005,N,03616.24248,E,1,15,0.80,254.20,M,,M,,*47
$GPRMC,084911.770,A,5559.80153,N,03616.24271,E,86.26,4.80,121024,,,*1B
$GPGGA,084911.770,5559.80153,N,03616.24271,E,1,15,0.80,254.20,M,,M,,*49
$GPRMC,084911.830,A,5559.80302,N,03616.24295,E,86.52,4.90,121024,,,*1E
$GPGGA,084911.830,5559.80302,N,03616.24295,E,1,15,0.80,254.20,M,,M,,*4E
$GPRMC,084911.900,A,5559.80452,N,03616.24317,E,86.77,4.80,121024,,,*13
$GPGGA,084911.900,5559.80452,N,03616.24317,E,1,15,0.80,254.20,M,,M,,*45
$GPRMC,084911.960,A,5559.80601,N,03616.24339,E,86.78,4.70,121024,,,*1D
$GPGGA,084911.960,5559.80601,N,03616.24339,E,1,15,0.80,254.20,M,,M,,*4B
$GPRMC,084912.020,A,5559.80750,N,03616.24361,E,86.81,4.60,121024,,,*1C
$GPGGA,084912.020,5559.80750,N,03616.24361,E,1,15,0.80,254.30,M,,M,,*4C
$GPRMC,084912.080,A,5559.80900,N,03616.24384,E,87.18,4.70,121024,,,*16
$GPGGA,084912.080,5559.80900,N,03616.24384,E,1,15,0.80,254.30,M,,M,,*46
$GPRMC,084912.140,A,5559.81050,N,03616.24406,E,87.26,4.70,121024,,,*16
$GPGGA,084912.140,5559.81050,N,03616.24406,E,1,15,0.80,254.30,M,,M,,*4B
$GPRMC,084912.210,A,5559.81201,N,03616.24428,E,87.40,4.60,121024,,,*1B
$GPGGA,084912.210,5559.81201,N,03616.24428,E,1,15,0.80,254.30,M,,M,,*47
$GPRMC,084912.270,A,5559.81351,N,03616.24448,E,87.41,4.50,121024,,,*1D
$GPGGA,084912.270,5559.81351,N,03616.24448,E,1,15,0.80,254.30,M,,M,,*43
$GPRMC,084912.330,A,5559.81502,N,03616.24469,E,87.54,4.30,121024,,,*19
$GPGGA,084912.330,5559.81502,N,03616.24469,E,1,15,0.80,254.40,M,,M,,*42
$GPRMC,084912.390,A,5559.81653,N,03616.24489,E,87.69,4.20,121024,,,*15
$GPGGA,084912.390,5559.81653,N,03616.24489,E,1,15,0.80,254.40,M,,M,,*41
$GPRMC,084912.450,A,5559.81804,N,03616.24507,E,87.70,4.00,121024,,,*1F
$GPGGA,084912.450,5559.81804,N,03616.24507,E,1,15,0.80,254.40,M,,M,,*41
$GPRMC,084912.520,A,5559.81954,N,03616.24525,E,87.66,3.80,121024,,,*15
$GPGGA,084912.520,5559.81954,N,03616.24525,E,1,15,0.80,254.40,M,,M,,*43
$GPRMC,084912.580,A,5559.82104,N,03616.24540,E,87.46,3.40,121024,,,*1C
$GPGGA,084912.580,5559.82104,N,03616.24540,E,1,15,0.80,254.40,M,,M,,*44
$GPRMC,084912.640,A,5559.82254,N,03616.24555,E,87.34,3.20,121024,,,*12
$GPGGA,084912.640,5559.82254,N,03616.24555,E,1,15,0.80,254.50,M,,M,,*48
$GPRMC,084912.700,A,5559.82404,N,03616.24568,E,87.21,2.80,121024,,,*15
$GPGGA,084912.700,5559.82404,N,03616.24568,E,1,15,0.80,254.50,M,,M,,*40
$GPRMC,084912.760,A,5559.82553,N,03616.24578,E,86.99,2.40,121024,,,*1F
$GPGGA,084912.760,5559.82553,N,03616.24578,E,1,15,0.80,254.50,M,,M,,*44
$GPRMC,084912.830,A,5559.82702,N,03616.24586,E,86.81,1.90,121024,,,*15
$GPGGA,084912.830,5559.82702,N,03616.24586,E,1,15,0.80,254.50,M,,M,,*49
$GPRMC,084912.890,A,5559.82849,N,03616.24592,E,86.15,1.40,121024,,,*1A
$GPGGA,084912.890,5559.82849,N,03616.24592,E,1,15,0.80,254.60,M,,M,,*45
$GPRMC,084912.950,A,5559.82993,N,03616.24595,E,85.18,0.80,121024,,,*15
$GPGGA,084912.950,5559.82993,N,03616.24595,E,1,15,0.80,254.60,M,,M,,*49
$GPRMC,084913.010,A,5559.83136,N,03616.24595,E,84.29,0.30,121024,,,*17
$GPGGA,084913.010,5559.83136,N,03616.24595,E,1,15,0.80,254.60,M,,M,,*43
$GPRMC,084913.070,A,5559.83277,N,03616.24592,E,83.39,359.50,121024,,,*1F
$GPGGA,084913.070,5559.83277,N,03616.24592,E,1,15,0.80,254.70,M,,M,,*45
$GPRMC,084913.140,A,5559.83418,N,03616.24586,E,82.65,358.80,121024,,,*13
$GPGGA,084913.140,5559.83418,N,03616.24586,E,1,15,0.80,254.70,M,,M,,*4D
$GPRMC,084913.200,A,5559.83556,N,03616.24576,E,81.69,358.10,121024,,,*16
$GPGGA,084913.200,5559.83556,N,03616.24576,E,1,15,0.80,254.70,M,,M,,*4E
$GPRMC,084913.260,A,5559.83692,N,03616.24564,E,80.73,357.30,121024,,,*1F
$GPGGA,084913.260,5559.83692,N,03616.24564,E,1,15,0.80,254.70,M,,M,,*40
$GPRMC,084913.320,A,5559.83829,N,03616.24548,E,80.17,356.50,121024,,,*1F
$GPGGA,084913.320,5559.83829,N,03616.24548,E,1,15,0.80,254.80,M,,M,,*4A
$GPRMC,084913.380,A,5559.83965,N,03616.24529,E,79.67,355.60,121024,,,*1A
$GPGGA,084913.380,5559.83965,N,03616.24529,E,1,15,0.80,254.80,M,,M,,*4E
$GPRMC,084913.450,A,5559.84099,N,03616.24505,E,79.07,354.80,121024,,,*1A
$GPGGA,084913.450,5559.84099,N,03616.24505,E,1,15,0.80,254.80,M,,M,,*47
$GPRMC,084913.510,A,5559.84232,N,03616.24478,E,78.62,353.90,121024,,,*13
$GPGGA,084913.510,5559.84232,N,03616.24478,E,1,15,0.80,254.80,M,,M,,*4A
$GPRMC,084913.570,A,5559.84364,N,03616.24449,E,77.93,353.10,121024,,,*1C
$GPGGA,084913.570,5559.84364,N,03616.24449,E,1,15,0.80,254.80,M,,M,,*4C
$GPRMC,084913.630,A,5559.84494,N,03616.24416,E,77.30,352.30,121024,,,*13
$GPGGA,084913.630,5559.84494,N,03616.24416,E,1,15,0.80,254.90,M,,M,,*48
$GPRMC,084913.690,A,5559.84623,N,03616.24380,E,76.66,351.40,121024,,,*19
$GPGGA,084913.690,5559.84623,N,03616.24380,E,1,15,0.80,254.90,M,,M,,*44
$GPRMC,084913.760,A,5559.84749,N,03616.24341,E,75.83,350.60,121024,,,*1C
$GPGGA,084913.760,5559.84749,N,03616.24341,E,1,15,0.80,254.90,M,,M,,*4A
$GPRMC,084913.820,A,5559.84874,N,03616.24299,E,75.13,349.80,121024,,,*1D
$GPGGA,084913.820,5559.84874,N,03616.24299,E,1,15,0.80,254.90,M,,M,,*44
$GPRMC,084913.880,A,5559.84997,N,03616.24254,E,74.29,348.90,121024,,,*12
$GPGGA,084913.880,5559.84997,N,03616.24254,E,1,15,0.80,254.90,M,,M,,*43
$GPRMC,084913.940,A,5559.85118,N,03616.24207,E,73.40,348.10,121024,,,*17
$GPGGA,084913.940,5559.85118,N,03616.24207,E,1,15,0.80,254.90,M,,M,,*46
$GPRMC,084914.000,A,5559.85236,N,03616.24158,E,72.39,347.40,121024,,,*1E
$GPGGA,084914.000,5559.85236,N,03616.24158,E,1,15,0.80,254.90,M,,M,,*4A
$GPRMC,084914.070,A,5559.85353,N,03616.24107,E,71.60,346.60,121024,,,*1D
$GPGGA,084914.070,5559.85353,N,03616.24107,E,1,15,0.80,254.90,M,,M,,*45
$GPRMC,084914.130,A,5559.85469,N,03616.24054,E,70.76,345.80,121024,,,*1A
$GPGGA,084914.130,5559.85469,N,03616.24054,E,1,15,0.80,254.90,M,,M,,*49
$GPRMC,084914.190,A,5559.85583,N,03616.23997,E,70.08,344.90,121024,,,*1D
$GPGGA,084914.190,5559.85583,N,03616.23997,E,1,15,0.80,254.90,M,,M,,*47
$GPRMC,084914.250,A,5559.85694,N,03616.23937,E,69.36,343.90,121024,,,*1F
$GPGGA,084914.250,5559.85694,N,03616.23937,E,1,15,0.80,254.90,M,,M,,*47
$GPRMC,084914.310,A,5559.85804,N,03616.23874,E,68.61,343.00,121024,,,*11
$GPGGA,084914.310,5559.85804,N,03616.23874,E,1,15,0.80,254.90,M,,M,,*43
$GPRMC,084914.380,A,5559.85912,N,03616.23808,E,67.91,341.80,121024,,,*1F
$GPGGA,084914.380,5559.85912,N,03616.23808,E,1,15,0.80,254.90,M,,M,,*47
$GPRMC,084914.440,A,5559.86018,N,03616.23738,E,67.27,340.70,121024,,,*1B
$GPGGA,084914.440,5559.86018,N,03616.23738,E,1,15,0.80,254.90,M,,M,,*40
$GPRMC,084914.500,A,5559.86124,N,03616.23663,E,66.90,339.20,121024,,,*19
$GPGGA,084914.500,5559.86124,N,03616.23663,E,1,15,0.80,254.90,M,,M,,*44
$GPRMC,084914.560,A,5559.86229,N,03616.23584,E,66.59,338.00,121024,,,*1D
$GPGGA,084914.560,5559.86229,N,03616.23584,E,1,15,0.80,254.90,M,,M,,*46
$GPRMC,084914.620,A,5559.86331,N,03616.23499,E,66.22,336.50,121024,,,*18
$GPGGA,084914.620,5559.86331,N,03616.23499,E,1,15,0.80,254.90,M,,M,,*44
$GPRMC,084914.690,A,5559.86429,N,03616.23410,E,65.49,334.60,121024,,,*13
$GPGGA,084914.690,5559.86429,N,03616.23410,E,1,15,0.80,255.00,M,,M,,*48
$GPRMC,084914.750,A,5559.86525,N,03616.23314,E,65.06,332.60,121024,,,*1D
$GPGGA,084914.750,5559.86525,N,03616.23314,E,1,15,0.80,255.00,M,,M,,*4B
$GPRMC,084914.810,A,5559.86619,N,03616.23218,E,64.39,331.30,121024,,,*1C
$GPGGA,084914.810,5559.86619,N,03616.23218,E,1,15,0.80,255.00,M,,M,,*41
$GPRMC,084914.870,A,5559.86714,N,03616.23117,E,64.45,330.30,121024,,,*10
$GPGGA,084914.870,5559.86714,N,03616.23117,E,1,15,0.80,255.00,M,,M,,*47
$GPRMC,084914.930,A,5559.86807,N,03616.23014,E,64.27,329.20,121024,,,*17
$GPGGA,084914.930,5559.86807,N,03616.23014,E,1,15,0.80,255.00,M,,M,,*4D
$GPRMC,084915.000,A,5559.86898,N,03616.22907,E,64.11,327.90,121024,,,*10
$GPGGA,084915.000,5559.86898,N,03616.22907,E,1,15,0.80,255.00,M,,M,,*4A
$GPRMC,084915.060,A,5559.86988,N,03616.22796,E,64.00,326.60,121024,,,*1E
$GPGGA,084915.060,5559.86988,N,03616.22796,E,1,15,0.80,255.00,M,,M,,*4A
$GPRMC,084915.120,A,5559.87079,N,03616.22681,E,64.23,325.40,121024,,,*1A
$GPGGA,084915.120,5559.87079,N,03616.22681,E,1,15,0.80,255.10,M,,M,,*4F
$GPRMC,084915.180,A,5559.87167,N,03616.22563,E,64.40,324.30,121024,,,*12
$GPGGA,084915.180,5559.87167,N,03616.22563,E,1,15,0.80,255.10,M,,M,,*44
$GPRMC,084915.240,A,5559.87254,N,03616.22441,E,64.45,322.90,121024,,,*16
$GPGGA,084915.240,5559.87254,N,03616.22441,E,1,15,0.80,255.10,M,,M,,*49
$GPRMC,084915.310,A,5559.87341,N,03616.22314,E,64.91,321.60,121024,,,*15
$GPGGA,084915.310,5559.87341,N,03616.22314,E,1,15,0.80,255.20,M,,M,,*4C
$GPRMC,084915.370,A,5559.87427,N,03616.22184,E,65.25,320.40,121024,,,*12
$GPGGA,084915.370,5559.87427,N,03616.22184,E,1,15,0.80,255.20,M,,M,,*46
$GPRMC,084915.430,A,5559.87510,N,03616.22050,E,65.42,319.30,121024,,,*10
$GPGGA,084915.430,5559.87510,N,03616.22050,E,1,15,0.80,255.20,M,,M,,*48
$GPRMC,084915.490,A,5559.87592,N,03616.21914,E,65.44,318.10,121024,,,*1F
$GPGGA,084915.490,5559.87592,N,03616.21914,E,1,15,0.80,255.20,M,,M,,*42
$GPRMC,084915.550,A,5559.87672,N,03616.21774,E,65.53,316.70,121024,,,*19
$GPGGA,084915.550,5559.87672,N,03616.21774,E,1,15,0.80,255.30,M,,M,,*4B
$GPRMC,084915.620,A,5559.87750,N,03616.21630,E,65.78,315.50,121024,,,*15
$GPGGA,084915.620,5559.87750,N,03616.21630,E,1,15,0.80,255.30,M,,M,,*4F
$GPRMC,084915.680,A,5559.87828,N,03616.21483,E,65.92,314.30,121024,,,*16
$GPGGA,084915.680,5559.87828,N,03616.21483,E,1,15,0.80,255.30,M,,M,,*4F
$GPRMC,084915.740,A,5559.87904,N,03616.21333,E,66.03,313.10,121024,,,*16
$GPGGA,084915.740,5559.87904,N,03616.21333,E,1,15,0.80,255.30,M,,M,,*41
$GPRMC,084915.800,A,5559.87977,N,03616.21181,E,66.00,311.90,121024,,,*1B
$GPGGA,084915.800,5559.87977,N,03616.21181,E,1,15,0.80,255.40,M,,M,,*42
$GPRMC,084915.860,A,5559.88049,N,03616.21025,E,66.07,310.50,121024,,,*13
$GPGGA,084915.860,5559.88049,N,03616.21025,E,1,15,0.80,255.40,M,,M,,*40
$GPRMC,084915.930,A,5559.88120,N,03616.20867,E,66.26,309.40,121024,,,*1C
$GPGGA,084915.930,5559.88120,N,03616.20867,E,1,15,0.80,255.40,M,,M,,*45
$GPRMC,084915.990,A,5559.88189,N,03616.20705,E,66.56,308.40,121024,,,*18
$GPGGA,084915.990,5559.88189,N,03616.20705,E,1,15,0.80,255.40,M,,M,,*47
$GPRMC,084916.050,A,5559.88257,N,03616.20540,E,66.76,307.30,121024,,,*17
$GPGGA,084916.050,5559.88257,N,03616.20540,E,1,15,0.80,255.50,M,,M,,*43
$GPRMC,084916.110,A,5559.88324,N,03616.20372,E,66.97,306.20,121024,,,*1F
$GPGGA,084916.110,5559.88324,N,03616.20372,E,1,15,0.80,255.50,M,,M,,*44
$GPRMC,084916.170,A,5559.88388,N,03616.20201,E,67.17,305.00,121024,,,*12
$GPGGA,084916.170,5559.88388,N,03616.20201,E,1,15,0.80,255.50,M,,M,,*41
$GPRMC,084916.240,A,5559.88451,N,03616.20028,E,67.29,303.90,121024,,,*1A
$GPGGA,084916.240,5559.88451,N,03616.20028,E,1,15,0.80,255.60,M,,M,,*48
$GPRMC,084916.300,A,5559.88511,N,03616.19852,E,67.35,302.80,121024,,,*18
$GPGGA,084916.300,5559.88511,N,03616.19852,E,1,15,0.80,255.60,M,,M,,*47
$GPRMC,084916.360,A,5559.88570,N,03616.19675,E,67.44,301.90,121024,,,*16
$GPGGA,084916.360,5559.88570,N,03616.19675,E,1,15,0.80,255.60,M,,M,,*4D
$GPRMC,084916.420,A,5559.88629,N,03616.19496,E,67.72,301.20,121024,,,*1B
$GPGGA,084916.420,5559.88629,N,03616.19496,E,1,15,0.80,255.60,M,,M,,*4E
$GPRMC,084916.480,A,5559.88686,N,03616.19313,E,68.07,300.20,121024,,,*12
$GPGGA,084916.480,5559.88686,N,03616.19313,E,1,15,0.80,255.70,M,,M,,*4A
$GPRMC,084916.550,A,5559.88743,N,03616.19129,E,68.31,299.50,121024,,,*1E
$GPGGA,084916.550,5559.88743,N,03616.19129,E,1,15,0.80,255.70,M,,M,,*45
$GPRMC,084916.610,A,5559.88800,N,03616.18946,E,68.46,299.20,121024,,,*16
$GPGGA,084916.610,5559.88800,N,03616.18946,E,1,15,0.80,255.70,M,,M,,*4A
$GPRMC,084916.670,A,5559.88857,N,03616.18760,E,68.69,298.90,121024,,,*1F
$GPGGA,084916.670,5559.88857,N,03616.18760,E,1,15,0.80,255.80,M,,M,,*4B
$GPRMC,084916.730,A,5559.88912,N,03616.18573,E,68.92,298.50,121024,,,*12
$GPGGA,084916.730,5559.88912,N,03616.18573,E,1,15,0.80,255.80,M,,M,,*4E
$GPRMC,084916.790,A,5559.88969,N,03616.18386,E,69.14,298.30,121024,,,*11
$GPGGA,084916.790,5559.88969,N,03616.18386,E,1,15,0.80,255.80,M,,M,,*44
$GPRMC,084916.860,A,5559.89025,N,03616.18198,E,69.39,298.10,121024,,,*11
$GPGGA,084916.860,5559.89025,N,03616.18198,E,1,15,0.80,255.80,M,,M,,*49
$GPRMC,084916.920,A,5559.89081,N,03616.18009,E,69.59,298.00,121024,,,*14
$GPGGA,084916.920,5559.89081,N,03616.18009,E,1,15,0.80,255.90,M,,M,,*4A
$GPRMC,084916.980,A,5559.89136,N,03616.17818,E,69.87,297.70,121024,,,*1F
$GPGGA,084916.980,5559.89136,N,03616.17818,E,1,15,0.80,255.90,M,,M,,*4A
$GPRMC,084917.040,A,5559.89191,N,03616.17627,E,70.11,297.50,121024,,,*11
$GPGGA,084917.040,5559.89191,N,03616.17627,E,1,15,0.80,255.90,M,,M,,*41
$GPRMC,084917.100,A,5559.89247,N,03616.17435,E,70.31,297.40,121024,,,*1E
$GPGGA,084917.100,5559.89247,N,03616.17435,E,1,15,0.80,255.90,M,,M,,*4D
$GPRMC,084917.170,A,5559.89303,N,03616.17242,E,70.63,297.20,121024,,,*1F
$GPGGA,084917.170,5559.89303,N,03616.17242,E,1,15,0.80,255.90,M,,M,,*4D
$GPRMC,084917.230,A,5559.89358,N,03616.17047,E,70.97,297.00,121024,,,*18
$GPGGA,084917.230,5559.89358,N,03616.17047,E,1,15,0.80,256.00,M,,M,,*49
$GPRMC,084917.290,A,5559.89413,N,03616.16851,E,71.19,296.90,121024,,,*1B
$GPGGA,084917.290,5559.89413,N,03616.16851,E,1,15,0.80,256.00,M,,M,,*45
$GPRMC,084917.350,A,5559.89468,N,03616.16655,E,71.40,296.70,121024,,,*12
$GPGGA,084917.350,5559.89468,N,03616.16655,E,1,15,0.80,256.00,M,,M,,*4E
$GPRMC,084917.410,A,5559.89523,N,03616.16458,E,71.64,296.50,121024,,,*14
$GPGGA,084917.410,5559.89523,N,03616.16458,E,1,15,0.80,256.00,M,,M,,*4C
$GPRMC,084917.480,A,5559.89578,N,03616.16259,E,71.98,296.30,121024,,,*11
$GPGGA,084917.480,5559.89578,N,03616.16259,E,1,15,0.80,256.00,M,,M,,*4C
$GPRMC,084917.540,A,5559.89632,N,03616.16060,E,72.12,296.10,121024,,,*1A
$GPGGA,084917.540,5559.89632,N,03616.16060,E,1,15,0.80,256.10,M,,M,,*45
$GPRMC,084917.600,A,5559.89686,N,03616.15859,E,72.42,295.90,121024,,,*1D
$GPGGA,084917.600,5559.89686,N,03616.15859,E,1,15,0.80,256.10,M,,M,,*4C
$GPRMC,084917.660,A,5559.89740,N,03616.15657,E,72.73,295.60,121024,,,*1D
$GPGGA,084917.660,5559.89740,N,03616.15657,E,1,15,0.80,256.10,M,,M,,*41
$GPRMC,084917.720,A,5559.89794,N,03616.15454,E,72.98,295.40,121024,,,*17
$GPGGA,084917.720,5559.89794,N,03616.15454,E,1,15,0.80,256.10,M,,M,,*4C
$GPRMC,084917.790,A,5559.89847,N,03616.15250,E,73.26,295.20,121024,,,*1D
$GPGGA,084917.790,5559.89847,N,03616.15250,E,1,15,0.80,256.20,M,,M,,*47
$GPRMC,084917.850,A,5559.89900,N,03616.15044,E,73.51,294.80,121024,,,*10
$GPGGA,084917.850,5559.89900,N,03616.15044,E,1,15,0.80,256.20,M,,M,,*41
$GPRMC,084917.910,A,5559.89952,N,03616.14838,E,73.69,294.50,121024,,,*16
$GPGGA,084917.910,5559.89952,N,03616.14838,E,1,15,0.80,256.20,M,,M,,*41
$GPRMC,084917.970,A,5559.90002,N,03616.14630,E,73.86,294.00,121024,,,*16
$GPGGA,084917.970,5559.90002,N,03616.14630,E,1,15,0.80,256.20,M,,M,,*45
$GPRMC,084918.030,A,5559.90053,N,03616.14421,E,74.17,293.70,121024,,,*1D
$GPGGA,084918.030,5559.90053,N,03616.14421,E,1,15,0.80,256.20,M,,M,,*41
$GPRMC,084918.100,A,5559.90104,N,03616.14210,E,74.53,293.50,121024,,,*1A
$GPGGA,084918.100,5559.90104,N,03616.14210,E,1,15,0.80,256.30,M,,M,,*45
$GPRMC,084918.160,A,5559.90153,N,03616.13999,E,74.73,293.10,121024,,,*15
$GPGGA,084918.160,5559.90153,N,03616.13999,E,1,15,0.80,256.30,M,,M,,*4C
$GPRMC,084918.220,A,5559.90203,N,03616.13785,E,75.19,292.70,121024,,,*1D
$GPGGA,084918.220,5559.90203,N,03616.13785,E,1,15,0.80,256.30,M,,M,,*4E
$GPRMC,084918.280,A,5559.90252,N,03616.13571,E,75.29,292.50,121024,,,*1B
$GPGGA,084918.280,5559.90252,N,03616.13571,E,1,15,0.80,256.30,M,,M,,*49
$GPRMC,084918.340,A,5559.90300,N,03616.13356,E,75.43,292.20,121024,,,*18
$GPGGA,084918.340,5559.90300,N,03616.13356,E,1,15,0.80,256.30,M,,M,,*41
$GPRMC,084918.410,A,5559.90348,N,03616.13140,E,75.60,291.80,121024,,,*1B
$GPGGA,084918.410,5559.90348,N,03616.13140,E,1,15,0.80,256.40,M,,M,,*4D
$GPRMC,084918.470,A,5559.90394,N,03616.12922,E,75.85,291.30,121024,,,*11
$GPGGA,084918.470,5559.90394,N,03616.12922,E,1,15,0.80,256.40,M,,M,,*47
$GPRMC,084918.530,A,5559.90438,N,03616.12703,E,75.98,290.80,121024,,,*1E
$GPGGA,084918.530,5559.90438,N,03616.12703,E,1,15,0.80,256.40,M,,M,,*4E
$GPRMC,084918.590,A,5559.90482,N,03616.12485,E,75.86,290.40,121024,,,*1B
$GPGGA,084918.590,5559.90482,N,03616.12485,E,1,15,0.80,256.40,M,,M,,*48
$GPRMC,084918.650,A,5559.90525,N,03616.12272,E,74.92,290.10,121024,,,*17
$GPGGA,084918.650,5559.90525,N,03616.12272,E,1,15,0.80,256.40,M,,M,,*45
$GPRMC,084918.720,A,5559.90568,N,03616.12063,E,73.70,290.00,121024,,,*10
$GPGGA,084918.720,5559.90568,N,03616.12063,E,1,15,0.80,256.40,M,,M,,*48
$GPRMC,084918.780,A,5559.90607,N,03616.11857,E,72.36,289.60,121024,,,*11
$GPGGA,084918.780,5559.90607,N,03616.11857,E,1,15,0.80,256.50,M,,M,,*45
$GPRMC,084918.840,A,5559.90645,N,03616.11654,E,71.11,289.10,121024,,,*18
$GPGGA,084918.840,5559.90645,N,03616.11654,E,1,15,0.80,256.50,M,,M,,*4D
$GPRMC,084918.900,A,5559.90679,N,03616.11454,E,69.78,288.50,121024,,,*13
$GPGGA,084918.900,5559.90679,N,03616.11454,E,1,15,0.80,256.50,M,,M,,*45
$GPRMC,084918.960,A,5559.90712,N,03616.11255,E,68.70,287.70,121024,,,*1A
$GPGGA,084918.960,5559.90712,N,03616.11255,E,1,15,0.80,256.50,M,,M,,*48
$GPRMC,084919.030,A,5559.90743,N,03616.11059,E,67.50,287.00,121024,,,*17
$GPGGA,084919.030,5559.90743,N,03616.11059,E,1,15,0.80,256.50,M,,M,,*4F
$GPRMC,084919.090,A,5559.90772,N,03616.10866,E,66.36,286.30,121024,,,*19
$GPGGA,084919.090,5559.90772,N,03616.10866,E,1,15,0.80,256.50,M,,M,,*42
$GPRMC,084919.150,A,5559.90798,N,03616.10675,E,65.25,285.50,121024,,,*18
$GPGGA,084919.150,5559.90798,N,03616.10675,E,1,15,0.80,256.50,M,,M,,*47
$GPRMC,084919.210,A,5559.90823,N,03616.10487,E,64.20,284.70,121024,,,*18
$GPGGA,084919.210,5559.90823,N,03616.10487,E,1,15,0.80,256.50,M,,M,,*40
$GPRMC,084919.270,A,5559.90847,N,03616.10301,E,63.13,284.10,121024,,,*14
$GPGGA,084919.270,5559.90847,N,03616.10301,E,1,15,0.80,256.50,M,,M,,*4D
$GPRMC,084919.340,A,5559.90868,N,03616.10118,E,61.97,283.10,121024,,,*18
$GPGGA,084919.340,5559.90868,N,03616.10118,E,1,15,0.80,256.50,M,,M,,*48
$GPRMC,084919.400,A,5559.90887,N,03616.09938,E,60.77,282.10,121024,,,*16
$GPGGA,084919.400,5559.90887,N,03616.09938,E,1,15,0.80,256.50,M,,M,,*48
$GPRMC,084919.460,A,5559.90903,N,03616.09761,E,59.59,281.00,121024,,,*1B
$GPGGA,084919.460,5559.90903,N,03616.09761,E,1,15,0.80,256.50,M,,M,,*41
$GPRMC,084919.520,A,5559.90918,N,03616.09587,E,58.51,280.30,121024,,,*15
$GPGGA,084919.520,5559.90918,N,03616.09587,E,1,15,0.80,256.50,M,,M,,*44
$GPRMC,084919.580,A,5559.90931,N,03616.09415,E,57.41,279.40,121024,,,*11
$GPGGA,084919.580,5559.90931,N,03616.09415,E,1,15,0.80,256.40,M,,M,,*4E
$GPRMC,084919.650,A,5559.90942,N,03616.09246,E,56.27,278.40,121024,,,*1B
$GPGGA,084919.650,5559.90942,N,03616.09246,E,1,15,0.80,256.40,M,,M,,*44
$GPRMC,084919.710,A,5559.90951,N,03616.09080,E,55.23,277.30,121024,,,*1B
$GPGGA,084919.710,5559.90951,N,03616.09080,E,1,15,0.80,256.40,M,,M,,*4B
$GPRMC,084919.770,A,5559.90958,N,03616.08916,E,54.37,276.10,121024,,,*14
$GPGGA,084919.770,5559.90958,N,03616.08916,E,1,15,0.80,256.40,M,,M,,*43
$GPRMC,084919.830,A,5559.90963,N,03616.08754,E,53.50,275.00,121024,,,*1B
$GPGGA,084919.830,5559.90963,N,03616.08754,E,1,15,0.80,256.40,M,,M,,*48
$GPRMC,084919.890,A,5559.90967,N,03616.08594,E,52.67,274.00,121024,,,*1F
$GPGGA,084919.890,5559.90967,N,03616.08594,E,1,15,0.80,256.40,M,,M,,*48
$GPRMC,084919.960,A,5559.90968,N,03616.08438,E,51.74,272.70,121024,,,*19
$GPGGA,084919.960,5559.90968,N,03616.08438,E,1,15,0.80,256.40,M,,M,,*4E
$GPRMC,084920.020,A,5559.90967,N,03616.08282,E,51.11,271.40,121024,,,*15
$GPGGA,084920.020,5559.90967,N,03616.08282,E,1,15,0.80,256.40,M,,M,,*41
$GPRMC,084920.080,A,5559.90964,N,03616.08130,E,50.30,270.10,121024,,,*10
$GPGGA,084920.080,5559.90964,N,03616.08130,E,1,15,0.80,256.40,M,,M,,*42
$GPRMC,084920.140,A,5559.90961,N,03616.07979,E,49.80,268.90,121024,,,*10
$GPGGA,084920.140,5559.90961,N,03616.07979,E,1,15,0.80,256.40,M,,M,,*40
$GPRMC,084920.200,A,5559.90955,N,03616.07830,E,49.19,267.40,121024,,,*1E
$GPGGA,084920.200,5559.90955,N,03616.07830,E,1,15,0.80,256.50,M,,M,,*4D
$GPRMC,084920.270,A,5559.90945,N,03616.07683,E,48.63,265.70,121024,,,*13
$GPGGA,084920.270,5559.90945,N,03616.07683,E,1,15,0.80,256.50,M,,M,,*4D
$GPRMC,084920.330,A,5559.90933,N,03616.07537,E,48.24,264.20,121024,,,*1C
$GPGGA,084920.330,5559.90933,N,03616.07537,E,1,15,0.80,256.50,M,,M,,*45
$GPRMC,084920.390,A,5559.90919,N,03616.07393,E,47.83,262.60,121024,,,*16
$GPGGA,084920.390,5559.90919,N,03616.07393,E,1,15,0.80,256.50,M,,M,,*4F
$GPRMC,084920.450,A,5559.90902,N,03616.07251,E,47.48,260.90,121024,,,*12
$GPGGA,084920.450,5559.90902,N,03616.07251,E,1,15,0.80,256.50,M,,M,,*41
$GPRMC,084920.510,A,5559.90883,N,03616.07110,E,47.17,259.10,121024,,,*11
$GPGGA,084920.510,5559.90883,N,03616.07110,E,1,15,0.80,256.50,M,,M,,*4A
$GPRMC,084920.580,A,5559.90861,N,03616.06972,E,46.90,257.20,121024,,,*1A
$GPGGA,084920.580,5559.90861,N,03616.06972,E,1,15,0.80,256.50,M,,M,,*42
$GPRMC,084920.640,A,5559.90838,N,03616.06832,E,46.98,255.50,121024,,,*11
$GPGGA,084920.640,5559.90838,N,03616.06832,E,1,15,0.80,256.60,M,,M,,*47
$GPRMC,084920.700,A,5559.90810,N,03616.06695,E,47.01,253.40,121024,,,*1B
$GPGGA,084920.700,5559.90810,N,03616.06695,E,1,15,0.80,256.60,M,,M,,*4B
$GPRMC,084920.760,A,5559.90780,N,03616.06561,E,46.72,251.60,121024,,,*16
$GPGGA,084920.760,5559.90780,N,03616.06561,E,1,15,0.80,256.60,M,,M,,*43
$GPRMC,084920.820,A,5559.90747,N,03616.06428,E,46.72,249.60,121024,,,*13
$GPGGA,084920.820,5559.90747,N,03616.06428,E,1,15,0.80,256.50,M,,M,,*4C
$GPRMC,084920.890,A,5559.90714,N,03616.06296,E,46.80,248.00,121024,,,*17
$GPGGA,084920.890,5559.90714,N,03616.06296,E,1,15,0.80,256.50,M,,M,,*42
$GPRMC,084920.950,A,5559.90677,N,03616.06166,E,46.74,246.10,121024,,,*16
$GPGGA,084920.950,5559.90677,N,03616.06166,E,1,15,0.80,256.50,M,,M,,*47
$GPRMC,084921.010,A,5559.90637,N,03616.06036,E,46.98,244.30,121024,,,*18
$GPGGA,084921.010,5559.90637,N,03616.06036,E,1,15,0.80,256.50,M,,M,,*4B
$GPRMC,084921.070,A,5559.90597,N,03616.05907,E,47.28,242.70,121024,,,*17
$GPGGA,084921.070,5559.90597,N,03616.05907,E,1,15,0.80,256.50,M,,M,,*4C
$GPRMC,084921.130,A,5559.90554,N,03616.05779,E,47.55,241.30,121024,,,*17
$GPGGA,084921.130,5559.90554,N,03616.05779,E,1,15,0.80,256.50,M,,M,,*41
$GPRMC,084921.200,A,5559.90509,N,03616.05653,E,47.82,239.70,121024,,,*17
$GPGGA,084921.200,5559.90509,N,03616.05653,E,1,15,0.80,256.50,M,,M,,*40
$GPRMC,084921.260,A,5559.90461,N,03616.05530,E,47.82,237.80,121024,,,*19
$GPGGA,084921.260,5559.90461,N,03616.05530,E,1,15,0.80,256.40,M,,M,,*4E
$GPRMC,084921.320,A,5559.90412,N,03616.05410,E,47.90,236.10,121024,,,*10
$GPGGA,084921.320,5559.90412,N,03616.05410,E,1,15,0.80,256.40,M,,M,,*4C
$GPRMC,084921.380,A,5559.90360,N,03616.05291,E,48.01,234.40,121024,,,*17
$GPGGA,084921.380,5559.90360,N,03616.05291,E,1,15,0.80,256.40,M,,M,,*4B
$GPRMC,084921.440,A,5559.90307,N,03616.05174,E,48.29,232.70,121024,,,*1A
$GPGGA,084921.440,5559.90307,N,03616.05174,E,1,15,0.80,256.40,M,,M,,*49
$GPRMC,084921.510,A,5559.90251,N,03616.05059,E,48.49,231.20,121024,,,*12
$GPGGA,084921.510,5559.90251,N,03616.05059,E,1,15,0.80,256.40,M,,M,,*41
$GPRMC,084921.570,A,5559.90193,N,03616.04947,E,48.63,229.50,121024,,,*18
$GPGGA,084921.570,5559.90193,N,03616.04947,E,1,15,0.80,256.40,M,,M,,*4D
$GPRMC,084921.630,A,5559.90134,N,03616.04837,E,48.94,227.80,121024,,,*1F
$GPGGA,084921.630,5559.90134,N,03616.04837,E,1,15,0.80,256.40,M,,M,,*41
$GPRMC,084921.690,A,5559.90071,N,03616.04729,E,49.24,226.30,121024,,,*15
$GPGGA,084921.690,5559.90071,N,03616.04729,E,1,15,0.80,256.30,M,,M,,*4C
$GPRMC,084921.750,A,5559.90007,N,03616.04623,E,49.51,224.70,121024,,,*16
$GPGGA,084921.750,5559.90007,N,03616.04623,E,1,15,0.80,256.30,M,,M,,*4B
$GPRMC,084921.820,A,5559.89942,N,03616.04520,E,49.73,223.20,121024,,,*1C
$GPGGA,084921.820,5559.89942,N,03616.04520,E,1,15,0.80,256.30,M,,M,,*43
$GPRMC,084921.880,A,5559.89876,N,03616.04421,E,49.75,221.60,121024,,,*10
$GPGGA,084921.880,5559.89876,N,03616.04421,E,1,15,0.80,256.30,M,,M,,*4F
$GPRMC,084921.940,A,5559.89807,N,03616.04325,E,49.96,219.90,121024,,,*11
$GPGGA,084921.940,5559.89807,N,03616.04325,E,1,15,0.60,256.30,M,,M,,*49
$GPRMC,084922.000,A,5559.89737,N,03616.04230,E,50.25,218.40,121024,,,*1A
$GPGGA,084922.000,5559.89737,N,03616.04230,E,1,15,0.60,256.30,M,,M,,*4E
$GPRMC,084922.060,A,5559.89666,N,03616.04139,E,50.45,217.10,121024,,,*1F
$GPGGA,084922.060,5559.89666,N,03616.04139,E,1,15,0.60,256.20,M,,M,,*46
$GPRMC,084922.130,A,5559.89594,N,03616.04050,E,50.65,215.70,121024,,,*1D
$GPGGA,084922.130,5559.89594,N,03616.04050,E,1,15,0.60,256.30,M,,M,,*43
$GPRMC,084922.190,A,5559.89520,N,03616.03964,E,50.88,214.30,121024,,,*17
$GPGGA,084922.190,5559.89520,N,03616.03964,E,1,15,0.60,256.30,M,,M,,*4F
$GPRMC,084922.250,A,5559.89444,N,03616.03881,E,51.06,213.00,121024,,,*12
$GPGGA,084922.250,5559.89444,N,03616.03881,E,1,15,0.60,256.30,M,,M,,*49
$GPRMC,084922.310,A,5559.89367,N,03616.03803,E,50.98,211.30,121024,,,*1C
$GPGGA,084922.310,5559.89367,N,03616.03803,E,1,15,0.60,256.30,M,,M,,*40
$GPRMC,084922.370,A,5559.89287,N,03616.03728,E,51.20,209.80,121024,,,*13
$GPGGA,084922.370,5559.89287,N,03616.03728,E,1,15,0.60,256.20,M,,M,,*4E
$GPRMC,084922.440,A,5559.89207,N,03616.03655,E,51.47,208.60,121024,,,*1A
$GPGGA,084922.440,5559.89207,N,03616.03655,E,1,15,0.60,256.20,M,,M,,*49
$GPRMC,084922.500,A,5559.89123,N,03616.03585,E,51.99,206.80,121024,,,*17
$GPGGA,084922.500,5559.89123,N,03616.03585,E,1,15,0.60,256.20,M,,M,,*47
$GPRMC,084922.560,A,5559.89038,N,03616.03520,E,52.42,205.20,121024,,,*19
$GPGGA,084922.560,5559.89038,N,03616.03520,E,1,15,0.60,256.20,M,,M,,*45
$GPRMC,084922.620,A,5559.88952,N,03616.03459,E,52.59,203.60,121024,,,*1D
$GPGGA,084922.620,5559.88952,N,03616.03459,E,1,15,0.60,256.10,M,,M,,*4A
$GPRMC,084922.680,A,5559.88866,N,03616.03401,E,52.74,202.10,121024,,,*15
$GPGGA,084922.680,5559.88866,N,03616.03401,E,1,15,0.60,256.10,M,,M,,*4B
$GPRMC,084922.750,A,5559.88779,N,03616.03346,E,53.01,200.80,121024,,,*14
$GPGGA,084922.750,5559.88779,N,03616.03346,E,1,15,0.60,256.10,M,,M,,*42
$GPRMC,084922.810,A,5559.88690,N,03616.03296,E,53.61,199.20,121024,,,*1A
$GPGGA,084922.810,5559.88690,N,03616.03296,E,1,15,0.60,256.20,M,,M,,*40
$GPRMC,084922.870,A,5559.88601,N,03616.03249,E,53.87,197.80,121024,,,*1A
$GPGGA,084922.870,5559.88601,N,03616.03249,E,1,15,0.60,256.20,M,,M,,*4C
$GPRMC,084922.930,A,5559.88511,N,03616.03207,E,53.93,196.30,121024,,,*18
$GPGGA,084922.930,5559.88511,N,03616.03207,E,1,15,0.60,256.20,M,,M,,*41
$GPRMC,084922.990,A,5559.88420,N,03616.03169,E,54.16,194.80,121024,,,*19
$GPGGA,084922.990,5559.88420,N,03616.03169,E,1,15,0.60,256.30,M,,M,,*42
$GPRMC,084923.060,A,5559.88327,N,03616.03133,E,54.42,193.40,121024,,,*1B
$GPGGA,084923.060,5559.88327,N,03616.03133,E,1,15,0.60,256.30,M,,M,,*4A
$GPRMC,084923.120,A,5559.88234,N,03616.03102,E,54.55,192.10,121024,,,*1D
$GPGGA,084923.120,5559.88234,N,03616.03102,E,1,15,0.60,256.30,M,,M,,*4E
$GPRMC,084923.180,A,5559.88140,N,03616.03074,E,54.79,190.80,121024,,,*12
$GPGGA,084923.180,5559.88140,N,03616.03074,E,1,15,0.60,256.30,M,,M,,*44
$GPRMC,084923.240,A,5559.88044,N,03616.03050,E,55.15,189.30,121024,,,*16
$GPGGA,084923.240,5559.88044,N,03616.03050,E,1,15,0.60,256.30,M,,M,,*48
$GPRMC,084923.300,A,5559.87948,N,03616.03031,E,55.40,187.80,121024,,,*1B
$GPGGA,084923.300,5559.87948,N,03616.03031,E,1,15,0.60,256.30,M,,M,,*40
$GPRMC,084923.370,A,5559.87850,N,03616.03014,E,55.80,186.60,121024,,,*10
$GPGGA,084923.370,5559.87850,N,03616.03014,E,1,15,0.60,256.30,M,,M,,*48
$GPRMC,084923.430,A,5559.87750,N,03616.02999,E,56.52,185.60,121024,,,*1E
$GPGGA,084923.430,5559.87750,N,03616.02999,E,1,15,0.60,256.30,M,,M,,*49
$GPRMC,084923.490,A,5559.87650,N,03616.02990,E,56.95,184.30,121024,,,*13
$GPGGA,084923.490,5559.87650,N,03616.02990,E,1,15,0.60,256.30,M,,M,,*4B
$GPRMC,084923.550,A,5559.87550,N,03616.02984,E,57.22,183.10,121024,,,*10
$GPGGA,084923.550,5559.87550,N,03616.02984,E,1,15,0.60,256.20,M,,M,,*41
$GPRMC,084923.610,A,5559.87450,N,03616.02980,E,57.60,182.00,121024,,,*14
$GPGGA,084923.610,5559.87450,N,03616.02980,E,1,15,0.60,256.20,M,,M,,*43
$GPRMC,084923.680,A,5559.87347,N,03616.02979,E,58.13,181.00,121024,,,*12
$GPGGA,084923.680,5559.87347,N,03616.02979,E,1,15,0.60,256.10,M,,M,,*4E
$GPRMC,084923.740,A,5559.87245,N,03616.02981,E,58.53,180.10,121024,,,*1F
$GPGGA,084923.740,5559.87245,N,03616.02981,E,1,15,0.60,256.10,M,,M,,*47
$GPRMC,084923.800,A,5559.87142,N,03616.02985,E,58.84,179.30,121024,,,*1A
$GPGGA,084923.800,5559.87142,N,03616.02985,E,1,15,0.60,256.00,M,,M,,*4D
$GPRMC,084923.860,A,5559.87039,N,03616.02992,E,59.11,178.40,121024,,,*1C
$GPGGA,084923.860,5559.87039,N,03616.02992,E,1,15,0.60,255.90,M,,M,,*4A
$GPRMC,084923.920,A,5559.86935,N,03616.03002,E,59.41,177.60,121024,,,*14
$GPGGA,084923.920,5559.86935,N,03616.03002,E,1,15,0.60,255.90,M,,M,,*4A
$GPRMC,084923.990,A,5559.86832,N,03616.03014,E,59.74,176.80,121024,,,*17
$GPGGA,084923.990,5559.86832,N,03616.03014,E,1,15,0.60,255.90,M,,M,,*40
$GPRMC,084924.050,A,5559.86728,N,03616.03028,E,60.10,176.20,121024,,,*1C
$GPGGA,084924.050,5559.86728,N,03616.03028,E,1,15,0.60,255.80,M,,M,,*48
$GPRMC,084924.110,A,5559.86623,N,03616.03047,E,60.49,175.20,121024,,,*15
$GPGGA,084924.110,5559.86623,N,03616.03047,E,1,15,0.60,255.80,M,,M,,*4E
$GPRMC,084924.170,A,5559.86518,N,03616.03068,E,60.95,174.30,121024,,,*14
$GPGGA,084924.170,5559.86518,N,03616.03068,E,1,15,0.60,255.80,M,,M,,*4E
$GPRMC,084924.230,A,5559.86413,N,03616.03090,E,61.06,173.80,121024,,,*19
$GPGGA,084924.230,5559.86413,N,03616.03090,E,1,15,0.60,255.80,M,,M,,*44
$GPRMC,084924.300,A,5559.86308,N,03616.03114,E,61.37,173.20,121024,,,*13
$GPGGA,084924.300,5559.86308,N,03616.03114,E,1,15,0.60,255.70,M,,M,,*49
$GPRMC,084924.360,A,5559.86202,N,03616.03140,E,61.66,172.60,121024,,,*1E
$GPGGA,084924.360,5559.86202,N,03616.03140,E,1,15,0.60,255.70,M,,M,,*45
$GPRMC,084924.420,A,5559.86096,N,03616.03171,E,61.86,171.70,121024,,,*1C
$GPGGA,084924.420,5559.86096,N,03616.03171,E,1,15,0.70,255.60,M,,M,,*4B
$GPRMC,084924.480,A,5559.85989,N,03616.03202,E,62.13,171.20,121024,,,*1F
$GPGGA,084924.480,5559.85989,N,03616.03202,E,1,15,0.70,255.60,M,,M,,*42
$GPRMC,084924.540,A,5559.85882,N,03616.03234,E,62.49,170.70,121024,,,*16
$GPGGA,084924.540,5559.85882,N,03616.03234,E,1,15,0.70,255.60,M,,M,,*40
$GPRMC,084924.610,A,5559.85773,N,03616.03269,E,63.00,170.20,121024,,,*10
$GPGGA,084924.610,5559.85773,N,03616.03269,E,1,15,0.70,255.50,M,,M,,*4C
$GPRMC,084924.670,A,5559.85665,N,03616.03305,E,63.28,169.70,121024,,,*1C
$GPGGA,084924.670,5559.85665,N,03616.03305,E,1,15,0.70,255.50,M,,M,,*47
$GPRMC,084924.730,A,5559.85559,N,03616.03343,E,63.40,169.30,121024,,,*1D
$GPGGA,084924.730,5559.85559,N,03616.03343,E,1,15,0.70,255.50,M,,M,,*4C
$GPRMC,084924.790,A,5559.85449,N,03616.03381,E,63.87,169.00,121024,,,*11
$GPGGA,084924.790,5559.85449,N,03616.03381,E,1,15,0.70,255.50,M,,M,,*48
$GPRMC,084924.850,A,5559.85340,N,03616.03421,E,64.14,168.70,121024,,,*1A
$GPGGA,084924.850,5559.85340,N,03616.03421,E,1,15,0.70,255.40,M,,M,,*49
$GPRMC,084924.920,A,5559.85230,N,03616.03461,E,64.38,168.50,121024,,,*12
$GPGGA,084924.920,5559.85230,N,03616.03461,E,1,15,0.70,255.40,M,,M,,*4D
$GPRMC,084924.980,A,5559.85119,N,03616.03502,E,64.80,168.30,121024,,,*11
$GPGGA,084924.980,5559.85119,N,03616.03502,E,1,15,0.70,255.40,M,,M,,*4B
$GPRMC,084925.040,A,5559.85007,N,03616.03544,E,65.25,168.10,121024,,,*15
$GPGGA,084925.040,5559.85007,N,03616.03544,E,1,15,0.70,255.30,M,,M,,*44
$GPRMC,084925.100,A,5559.84897,N,03616.03586,E,65.45,168.10,121024,,,*18
$GPGGA,084925.100,5559.84897,N,03616.03586,E,1,15,0.70,255.30,M,,M,,*4F
$GPRMC,084925.160,A,5559.84784,N,03616.03627,E,65.75,168.10,121024,,,*18
$GPGGA,084925.160,5559.84784,N,03616.03627,E,1,15,0.70,255.30,M,,M,,*4C
$GPRMC,084925.230,A,5559.84671,N,03616.03669,E,66.12,168.00,121024,,,*1C
$GPGGA,084925.230,5559.84671,N,03616.03669,E,1,15,0.70,255.20,M,,M,,*4A
$GPRMC,084925.290,A,5559.84558,N,03616.03712,E,66.45,168.10,121024,,,*10
$GPGGA,084925.290,5559.84558,N,03616.03712,E,1,15,0.70,255.20,M,,M,,*45
$GPRMC,084925.350,A,5559.84444,N,03616.03753,E,66.63,168.20,121024,,,*13
$GPGGA,084925.350,5559.84444,N,03616.03753,E,1,15,0.70,255.20,M,,M,,*41
$GPRMC,084925.410,A,5559.84331,N,03616.03793,E,66.78,168.40,121024,,,*15
$GPGGA,084925.410,5559.84331,N,03616.03793,E,1,15,0.70,255.10,M,,M,,*48
$GPRMC,084925.470,A,5559.84217,N,03616.03832,E,67.01,168.70,121024,,,*1E
$GPGGA,084925.470,5559.84217,N,03616.03832,E,1,15,0.70,255.10,M,,M,,*4F
$GPRMC,084925.540,A,5559.84101,N,03616.03870,E,67.32,169.10,121024,,,*19
$GPGGA,084925.540,5559.84101,N,03616.03870,E,1,15,0.70,255.10,M,,M,,*4F
$GPRMC,084925.600,A,5559.83986,N,03616.03908,E,67.49,169.40,121024,,,*19
$GPGGA,084925.600,5559.83986,N,03616.03908,E,1,15,0.70,255.00,M,,M,,*47
$GPRMC,084925.660,A,5559.83870,N,03616.03944,E,67.75,169.70,121024,,,*13
$GPGGA,084925.660,5559.83870,N,03616.03944,E,1,15,0.70,255.00,M,,M,,*41
$GPRMC,084925.720,A,5559.83753,N,03616.03978,E,68.05,170.10,121024,,,*11
$GPGGA,084925.720,5559.83753,N,03616.03978,E,1,15,0.70,255.00,M,,M,,*45
$GPRMC,084925.780,A,5559.83636,N,03616.04012,E,68.28,170.50,121024,,,*10
$GPGGA,084925.780,5559.83636,N,03616.04012,E,1,15,0.70,255.00,M,,M,,*4F
$GPRMC,084925.850,A,5559.83520,N,03616.04045,E,68.43,170.80,121024,,,*14
$GPGGA,084925.850,5559.83520,N,03616.04045,E,1,15,0.70,255.00,M,,M,,*4B
$GPRMC,084925.910,A,5559.83401,N,03616.04076,E,68.61,171.20,121024,,,*18
$GPGGA,084925.910,5559.83401,N,03616.04076,E,1,15,0.70,254.90,M,,M,,*44
$GPRMC,084925.970,A,5559.83283,N,03616.04105,E,68.78,171.60,121024,,,*1B
$GPGGA,084925.970,5559.83283,N,03616.04105,E,1,15,0.70,254.90,M,,M,,*4B
$GPRMC,084926.030,A,5559.83166,N,03616.04132,E,68.81,172.20,121024,,,*18
$GPGGA,084926.030,5559.83166,N,03616.04132,E,1,15,0.70,254.90,M,,M,,*49
$GPRMC,084926.090,A,5559.83046,N,03616.04158,E,69.09,172.70,121024,,,*19
$GPGGA,084926.090,5559.83046,N,03616.04158,E,1,15,0.70,254.90,M,,M,,*4C
$GPRMC,084926.160,A,5559.82926,N,03616.04180,E,69.29,173.40,121024,,,*1C
$GPGGA,084926.160,5559.82926,N,03616.04180,E,1,15,0.70,254.80,M,,M,,*48
$GPRMC,084926.220,A,5559.82807,N,03616.04200,E,69.30,173.90,121024,,,*17
$GPGGA,084926.220,5559.82807,N,03616.04200,E,1,15,0.70,254.80,M,,M,,*46
$GPRMC,084926.280,A,5559.82687,N,03616.04218,E,69.27,174.60,121024,,,*1C
$GPGGA,084926.280,5559.82687,N,03616.04218,E,1,15,0.60,254.70,M,,M,,*4D
$GPRMC,084926.340,A,5559.82568,N,03616.04232,E,69.30,175.40,121024,,,*1E
$GPGGA,084926.340,5559.82568,N,03616.04232,E,1,15,0.60,254.70,M,,M,,*4A
$GPRMC,084926.400,A,5559.82449,N,03616.04243,E,69.26,176.20,121024,,,*1B
$GPGGA,084926.400,5559.82449,N,03616.04243,E,1,15,0.60,254.70,M,,M,,*4D
$GPRMC,084926.470,A,5559.82329,N,03616.04251,E,69.27,177.10,121024,,,*1D
$GPGGA,084926.470,5559.82329,N,03616.04251,E,1,15,0.60,254.60,M,,M,,*49
$GPRMC,084926.530,A,5559.82210,N,03616.04256,E,69.16,177.80,121024,,,*1F
$GPGGA,084926.530,5559.82210,N,03616.04256,E,1,15,0.60,254.60,M,,M,,*40
$GPRMC,084926.590,A,5559.82090,N,03616.04257,E,69.28,178.80,121024,,,*1C
$GPGGA,084926.590,5559.82090,N,03616.04257,E,1,15,0.60,254.50,M,,M,,*42
$GPRMC,084926.650,A,5559.81967,N,03616.04253,E,69.71,179.90,121024,,,*19
$GPGGA,084926.650,5559.81967,N,03616.04253,E,1,15,0.60,254.40,M,,M,,*4A
$GPRMC,084926.710,A,5559.81844,N,03616.04245,E,69.89,180.80,121024,,,*1B
$GPGGA,084926.710,5559.81844,N,03616.04245,E,1,15,0.60,254.20,M,,M,,*4E
$GPRMC,084926.780,A,5559.81724,N,03616.04235,E,69.75,181.70,121024,,,*11
$GPGGA,084926.780,5559.81724,N,03616.04235,E,1,15,0.60,254.10,M,,M,,*4A
$GPRMC,084926.840,A,5559.81603,N,03616.04220,E,69.69,182.80,121024,,,*13
$GPGGA,084926.840,5559.81603,N,03616.04220,E,1,15,0.60,254.00,M,,M,,*48
$GPRMC,084926.900,A,5559.81481,N,03616.04199,E,69.97,184.10,121024,,,*11
$GPGGA,084926.900,5559.81481,N,03616.04199,E,1,15,0.60,253.90,M,,M,,*4A
$GPRMC,084926.960,A,5559.81359,N,03616.04174,E,70.33,185.40,121024,,,*14
$GPGGA,084926.960,5559.81359,N,03616.04174,E,1,15,0.60,253.90,M,,M,,*4D
$GPRMC,084927.020,A,5559.81236,N,03616.04145,E,70.82,186.60,121024,,,*19
$GPGGA,084927.020,5559.81236,N,03616.04145,E,1,15,0.60,253.80,M,,M,,*4A
$GPRMC,084927.090,A,5559.81114,N,03616.04112,E,71.04,187.70,121024,,,*1C
$GPGGA,084927.090,5559.81114,N,03616.04112,E,1,15,0.60,253.70,M,,M,,*4F
$GPRMC,084927.150,A,5559.80992,N,03616.04075,E,71.27,188.80,121024,,,*17
$GPGGA,084927.150,5559.80992,N,03616.04075,E,1,15,0.60,253.70,M,,M,,*45
$GPRMC,084927.210,A,5559.80869,N,03616.04034,E,71.54,189.90,121024,,,*14
$GPGGA,084927.210,5559.80869,N,03616.04034,E,1,15,0.70,253.60,M,,M,,*42
$GPRMC,084927.270,A,5559.80747,N,03616.03987,E,71.88,191.10,121024,,,*17
$GPGGA,084927.270,5559.80747,N,03616.03987,E,1,15,0.70,253.50,M,,M,,*42
$GPRMC,084927.330,A,5559.80625,N,03616.03935,E,71.99,192.40,121024,,,*18
$GPGGA,084927.330,5559.80625,N,03616.03935,E,1,15,0.70,253.40,M,,M,,*4A
$GPRMC,084927.400,A,5559.80503,N,03616.03881,E,72.21,193.30,121024,,,*13
$GPGGA,084927.400,5559.80503,N,03616.03881,E,1,15,0.60,253.30,M,,M,,*41
$GPRMC,084927.460,A,5559.80382,N,03616.03822,E,72.46,194.40,121024,,,*12
$GPGGA,084927.460,5559.80382,N,03616.03822,E,1,15,0.70,253.30,M,,M,,*40
$GPRMC,084927.520,A,5559.80261,N,03616.03758,E,72.74,195.50,121024,,,*18
$GPGGA,084927.520,5559.80261,N,03616.03758,E,1,15,0.70,253.20,M,,M,,*4A
$GPRMC,084927.580,A,5559.80142,N,03616.03691,E,72.73,196.60,121024,,,*13
$GPGGA,084927.580,5559.80142,N,03616.03691,E,1,15,0.70,253.10,M,,M,,*45
$GPRMC,084927.640,A,5559.80022,N,03616.03619,E,73.09,197.70,121024,,,*17
$GPGGA,084927.640,5559.80022,N,03616.03619,E,1,15,0.60,253.00,M,,M,,*4D
$GPRMC,084927.710,A,5559.79902,N,03616.03543,E,73.33,198.70,121024,,,*14
$GPGGA,084927.710,5559.79902,N,03616.03543,E,1,15,0.60,252.90,M,,M,,*40
$GPRMC,084927.770,A,5559.79783,N,03616.03463,E,73.51,199.80,121024,,,*1C
$GPGGA,084927.770,5559.79783,N,03616.03463,E,1,15,0.60,252.80,M,,M,,*43
$GPRMC,084927.830,A,5559.79666,N,03616.03380,E,73.42,200.90,121024,,,*17
$GPGGA,084927.830,5559.79666,N,03616.03380,E,1,15,0.60,252.70,M,,M,,*47
$GPRMC,084927.890,A,5559.79548,N,03616.03292,E,73.70,201.80,121024,,,*11
$GPGGA,084927.890,5559.79548,N,03616.03292,E,1,15,0.60,252.60,M,,M,,*41
$GPRMC,084927.950,A,5559.79431,N,03616.03201,E,73.94,202.80,121024,,,*10
$GPGGA,084927.950,5559.79431,N,03616.03201,E,1,15,0.60,252.50,M,,M,,*4A
$GPRMC,084928.020,A,5559.79314,N,03616.03105,E,74.28,203.80,121024,,,*17
$GPGGA,084928.020,5559.79314,N,03616.03105,E,1,15,0.60,252.40,M,,M,,*4D
$GPRMC,084928.080,A,5559.79197,N,03616.03005,E,74.66,204.80,121024,,,*18
$GPGGA,084928.080,5559.79197,N,03616.03005,E,1,15,0.60,252.40,M,,M,,*4F
$GPRMC,084928.140,A,5559.79082,N,03616.02903,E,74.90,205.70,121024,,,*19
$GPGGA,084928.140,5559.79082,N,03616.02903,E,1,15,0.60,252.30,M,,M,,*4E
$GPRMC,084928.200,A,5559.78967,N,03616.02796,E,75.14,206.60,121024,,,*10
$GPGGA,084928.200,5559.78967,N,03616.02796,E,1,15,0.60,252.20,M,,M,,*49
$GPRMC,084928.260,A,5559.78852,N,03616.02687,E,75.47,207.40,121024,,,*15
$GPGGA,084928.260,5559.78852,N,03616.02687,E,1,15,0.60,252.10,M,,M,,*4A
$GPRMC,084928.330,A,5559.78738,N,03616.02575,E,75.70,208.20,121024,,,*11
$GPGGA,084928.330,5559.78738,N,03616.02575,E,1,15,0.60,252.10,M,,M,,*43
$GPRMC,084928.390,A,5559.78625,N,03616.02459,E,75.84,209.00,121024,,,*11
$GPGGA,084928.390,5559.78625,N,03616.02459,E,1,15,0.60,252.00,M,,M,,*4A
$GPRMC,084928.450,A,5559.78512,N,03616.02340,E,76.02,209.90,121024,,,*16
$GPGGA,084928.450,5559.78512,N,03616.02340,E,1,15,0.60,251.90,M,,M,,*43
$GPRMC,084928.510,A,5559.78398,N,03616.02218,E,76.40,210.60,121024,,,*1A
$GPGGA,084928.510,5559.78398,N,03616.02218,E,1,15,0.60,251.70,M,,M,,*40
$GPRMC,084928.570,A,5559.78285,N,03616.02093,E,76.84,211.30,121024,,,*1C
$GPGGA,084928.570,5559.78285,N,03616.02093,E,1,15,0.60,251.60,M,,M,,*4B
$GPRMC,084928.640,A,5559.78175,N,03616.01964,E,76.94,212.20,121024,,,*11
$GPGGA,084928.640,5559.78175,N,03616.01964,E,1,15,0.60,251.50,M,,M,,*46
$GPRMC,084928.700,A,5559.78066,N,03616.01833,E,76.94,213.10,121024,,,*16
$GPGGA,084928.700,5559.78066,N,03616.01833,E,1,15,0.60,251.40,M,,M,,*42
$GPRMC,084928.760,A,5559.77958,N,03616.01699,E,76.88,214.00,121024,,,*1E
$GPGGA,084928.760,5559.77958,N,03616.01699,E,1,15,0.60,251.40,M,,M,,*41
$GPRMC,084928.820,A,5559.77852,N,03616.01561,E,76.68,215.00,121024,,,*15
$GPGGA,084928.820,5559.77852,N,03616.01561,E,1,15,0.60,251.30,M,,M,,*42
$GPRMC,084928.880,A,5559.77748,N,03616.01421,E,76.51,216.00,121024,,,*17
$GPGGA,084928.880,5559.77748,N,03616.01421,E,1,15,0.60,251.20,M,,M,,*48
$GPRMC,084928.950,A,5559.77645,N,03616.01279,E,76.07,216.90,121024,,,*16
$GPGGA,084928.950,5559.77645,N,03616.01279,E,1,15,0.60,251.00,M,,M,,*41
$GPRMC,084929.010,A,5559.77544,N,03616.01138,E,75.50,217.40,121024,,,*13
$GPGGA,084929.010,5559.77544,N,03616.01138,E,1,15,0.60,250.90,M,,M,,*41
$GPRMC,084929.070,A,5559.77446,N,03616.00996,E,74.80,218.10,121024,,,*1D
$GPGGA,084929.070,5559.77446,N,03616.00996,E,1,15,0.60,250.80,M,,M,,*48
$GPRMC,084929.130,A,5559.77350,N,03616.00851,E,74.05,219.10,121024,,,*1E
$GPGGA,084929.130,5559.77350,N,03616.00851,E,1,15,0.60,250.70,M,,M,,*48
$GPRMC,084929.190,A,5559.77258,N,03616.00704,E,73.35,220.20,121024,,,*1F
$GPGGA,084929.190,5559.77258,N,03616.00704,E,1,15,0.60,250.60,M,,M,,*45
$GPRMC,084929.260,A,5559.77168,N,03616.00559,E,72.49,221.00,121024,,,*10
$GPGGA,084929.260,5559.77168,N,03616.00559,E,1,15,0.60,250.60,M,,M,,*43
$GPRMC,084929.320,A,5559.77079,N,03616.00413,E,71.60,221.60,121024,,,*15
$GPGGA,084929.320,5559.77079,N,03616.00413,E,1,15,0.60,250.50,M,,M,,*4B
$GPRMC,084929.380,A,5559.76993,N,03616.00266,E,70.69,222.50,121024,,,*1F
$GPGGA,084929.380,5559.76993,N,03616.00266,E,1,15,0.60,250.50,M,,M,,*49
$GPRMC,084929.440,A,5559.76909,N,03616.00120,E,69.75,223.20,121024,,,*15
$GPGGA,084929.440,5559.76909,N,03616.00120,E,1,15,0.60,250.40,M,,M,,*41
$GPRMC,084929.500,A,5559.76828,N,03615.99974,E,68.71,224.00,121024,,,*18
$GPGGA,084929.500,5559.76828,N,03615.99974,E,1,15,0.60,250.30,M,,M,,*4B
$GPRMC,084929.570,A,5559.76750,N,03615.99829,E,67.43,224.90,121024,,,*11
$GPGGA,084929.570,5559.76750,N,03615.99829,E,1,15,0.60,250.10,M,,M,,*47
$GPRMC,084929.630,A,5559.76674,N,03615.99684,E,66.23,225.70,121024,,,*10
$GPGGA,084929.630,5559.76674,N,03615.99684,E,1,15,0.60,250.00,M,,M,,*4F
$GPRMC,084929.690,A,5559.76600,N,03615.99540,E,65.30,226.40,121024,,,*13
$GPGGA,084929.690,5559.76600,N,03615.99540,E,1,15,0.60,249.90,M,,M,,*4C
$GPRMC,084929.750,A,5559.76529,N,03615.99396,E,64.19,227.10,121024,,,*15
$GPGGA,084929.750,5559.76529,N,03615.99396,E,1,15,0.60,249.80,M,,M,,*45
$GPRMC,084929.810,A,5559.76460,N,03615.99253,E,63.21,228.00,121024,,,*18
$GPGGA,084929.810,5559.76460,N,03615.99253,E,1,15,0.60,249.70,M,,M,,*45
$GPRMC,084929.880,A,5559.76393,N,03615.99110,E,62.20,228.80,121024,,,*16
$GPGGA,084929.880,5559.76393,N,03615.99110,E,1,15,0.60,249.60,M,,M,,*42
$GPRMC,084929.940,A,5559.76330,N,03615.98969,E,61.01,229.60,121024,,,*1A
$GPGGA,084929.940,5559.76330,N,03615.98969,E,1,15,0.60,249.50,M,,M,,*42
$GPRMC,084930.000,A,5559.76268,N,03615.98827,E,60.15,230.50,121024,,,*17
$GPGGA,084930.000,5559.76268,N,03615.98827,E,1,15,0.60,249.40,M,,M,,*41
$GPRMC,084930.060,A,5559.76208,N,03615.98687,E,59.10,231.30,121024,,,*1B
$GPGGA,084930.060,5559.76208,N,03615.98687,E,1,15,0.60,249.30,M,,M,,*42
$GPRMC,084930.120,A,5559.76152,N,03615.98547,E,58.09,232.30,121024,,,*17
$GPGGA,084930.120,5559.76152,N,03615.98547,E,1,15,0.60,249.20,M,,M,,*45
$GPRMC,084930.190,A,5559.76098,N,03615.98408,E,57.08,233.20,121024,,,*1F
$GPGGA,084930.190,5559.76098,N,03615.98408,E,1,15,0.60,249.10,M,,M,,*40
$GPRMC,084930.250,A,5559.76046,N,03615.98270,E,56.11,234.20,121024,,,*14
$GPGGA,084930.250,5559.76046,N,03615.98270,E,1,15,0.60,249.00,M,,M,,*44
$GPRMC,084930.310,A,5559.75998,N,03615.98133,E,55.07,235.40,121024,,,*1F
$GPGGA,084930.310,5559.75998,N,03615.98133,E,1,15,0.60,248.90,M,,M,,*44
$GPRMC,084930.370,A,5559.75953,N,03615.97999,E,53.59,236.60,121024,,,*15
$GPGGA,084930.370,5559.75953,N,03615.97999,E,1,15,0.60,248.80,M,,M,,*43
$GPRMC,084930.430,A,5559.75909,N,03615.97866,E,52.31,237.50,121024,,,*15
$GPGGA,084930.430,5559.75909,N,03615.97866,E,1,15,0.60,248.80,M,,M,,*4E
$GPRMC,084930.500,A,5559.75867,N,03615.97734,E,51.39,238.40,121024,,,*13
$GPGGA,084930.500,5559.75867,N,03615.97734,E,1,15,0.60,248.70,M,,M,,*42
$GPRMC,084930.560,A,5559.75828,N,03615.97603,E,50.37,239.50,121024,,,*14
$GPGGA,084930.560,5559.75828,N,03615.97603,E,1,15,0.60,248.60,M,,M,,*4B
$GPRMC,084930.620,A,5559.75790,N,03615.97473,E,49.46,240.50,121024,,,*1A
